,City,Temp_max,Humidity,wind_speed,city_id,country_code,long,lat,Cloudiness,datetime
0,Flin Flon,53.73,86.0,8.41,5954718.0,CA,-101.865,54.7682,5.0,1685610004.0
1,Severo-Kuril'sk,37.81,97.0,3.24,2121385.0,RU,156.125,50.6789,100.0,1685610007.0
2,Codrington,52.47,58.0,4.14,2171099.0,AU,141.9667,-38.2667,93.0,1685610010.0
3,Bredasdorp,62.89,85.0,2.64,1015776.0,ZA,20.0403,-34.5322,100.0,1685610012.0
4,Kindersley,60.82,55.0,10.36,5992154.0,CA,-109.1682,51.4668,20.0,1685610015.0
5,Kavieng,82.8,79.0,16.55,2094342.0,PG,150.7967,-2.5744,100.0,1685610017.0
6,Brae,47.37,70.0,15.86,2654970.0,GB,-1.353,60.3964,47.0,1685610019.0
7,Hithadhoo,82.53,75.0,8.95,1282256.0,MV,73.0833,-0.6,100.0,1685610022.0
8,Ponta Delgada,65.12,82.0,5.75,3372783.0,PT,-25.6667,37.7333,40.0,1685610016.0
9,Kaitangata,58.93,53.0,8.86,2208248.0,NZ,169.8464,-46.2817,2.0,1685610027.0
10,Neiafu,77.74,77.0,14.32,4032420.0,TO,-173.9833,-18.65,82.0,1685610031.0
11,Busselton,61.3,65.0,18.5,2075265.0,AU,115.3333,-33.65,63.0,1685610034.0
12,Kudahuvadhoo,81.39,81.0,17.81,1337607.0,MV,72.8944,2.6708,99.0,1685610036.0
13,Port Macquarie,57.88,76.0,3.06,2152659.0,AU,152.9167,-31.4333,13.0,1685610038.0
14,Jamestown,58.19,87.0,3.44,5122534.0,US,-79.2353,42.097,0.0,1685609740.0
15,Nantucket,58.19,93.0,8.48,4944903.0,US,-70.0995,41.2835,0.0,1685610042.0
16,São João da Barra,66.04,97.0,5.79,3448903.0,BR,-41.0511,-21.6403,17.0,1685610044.0
17,Castlebar,61.0,62.0,4.16,2965654.0,IE,-9.3,53.85,3.0,1685610046.0
18,Katobu,79.92,82.0,6.11,1640972.0,ID,122.5276,-4.9408,76.0,1685610048.0
19,Port Lincoln,59.4,90.0,11.7,2063036.0,AU,135.8667,-34.7333,95.0,1685609996.0
20,Padampur,87.26,39.0,2.13,1260938.0,IN,73.6167,29.6833,0.0,1685610053.0
21,Cayenne,73.44,94.0,0.0,3382160.0,GF,-52.3333,4.9333,0.0,1685609991.0
22,Norman Wells,51.84,46.0,6.91,6089245.0,CA,-126.8329,65.282,75.0,1685610057.0
23,Upernavik,26.64,97.0,11.39,3418910.0,GL,-56.1549,72.7868,100.0,1685610059.0
24,Ushuaia,38.86,87.0,4.61,3833367.0,AR,-68.3,-54.8,0.0,1685609853.0
25,Tasiilaq,37.56,100.0,2.46,3424607.0,GL,-37.6368,65.6145,100.0,1685610063.0
26,Thunder Bay,53.51,87.0,3.44,6166142.0,CA,-89.3168,48.4001,75.0,1685610065.0
27,Provideniya,37.33,83.0,5.06,4031574.0,RU,-173.3,64.3833,100.0,1685610068.0
28,Cap Malheureux,80.47,60.0,4.0,934649.0,MU,57.6142,-19.9842,3.0,1685610070.0
29,West Wendover,65.41,34.0,16.11,5710035.0,US,-114.0733,40.7391,0.0,1685609945.0
30,Tautira,75.56,64.0,11.3,4033557.0,PF,-149.15,-17.7333,4.0,1685610074.0
31,Avarua,62.65,88.0,2.3,4035715.0,CK,-159.775,-21.2078,14.0,1685610076.0
32,Punta Arenas,37.51,81.0,5.75,3874787.0,CL,-70.9167,-53.15,75.0,1685610016.0
33,Ozernovskiy,38.16,97.0,3.44,2122293.0,RU,156.5167,51.5,100.0,1685610080.0
34,Aksu,84.83,12.0,7.81,1529660.0,CN,80.2644,41.1231,100.0,1685610082.0
35,Arrondissement d'Ajaccio,67.98,56.0,5.75,3038333.0,FR,8.9167,42.0,0.0,1685610084.0
36,Cabedelo,75.87,84.0,7.25,3404558.0,BR,-34.8339,-6.9811,97.0,1685610087.0
37,Dikson,32.13,99.0,4.7,1507390.0,RU,80.5464,73.5069,100.0,1685610089.0
38,Hobart,49.03,65.0,13.8,2163355.0,AU,147.3294,-42.8794,40.0,1685610091.0
39,Vestmannaeyjar,45.59,100.0,14.97,3412093.0,IS,-20.2734,63.4427,100.0,1685609837.0
40,Alofi,69.69,94.0,1.14,4036284.0,NU,-169.9187,-19.0595,84.0,1685610095.0
41,Carnarvon,70.92,57.0,12.73,2074865.0,AU,113.6333,-24.8667,0.0,1685610097.0
42,Saint-Philippe,78.39,74.0,10.49,935215.0,RE,55.7679,-21.3585,38.0,1685610099.0
43,Cabra,71.33,43.0,3.38,2520645.0,ES,-4.4421,37.4725,100.0,1685610101.0
44,Feldbach,77.23,47.0,3.56,2779685.0,AT,15.8883,46.9531,20.0,1685610104.0
45,Tual,80.82,82.0,18.07,1623197.0,ID,132.75,-5.6667,95.0,1685610106.0
46,Longyearbyen,33.64,64.0,10.36,2729907.0,SJ,15.6401,78.2186,0.0,1685610108.0
47,Dukat,58.71,43.0,6.89,2125906.0,RU,155.55,62.55,85.0,1685610110.0
48,Jalu,89.01,27.0,10.78,86049.0,LY,21.5482,29.0331,8.0,1685610112.0
49,Vaini,75.36,88.0,8.05,4032243.0,TO,-175.2,-21.2,75.0,1685610114.0
50,Albany,55.02,75.0,1.99,5106841.0,US,-73.9662,42.6001,0.0,1685610048.0
51,Karaton,81.59,77.0,2.39,1630058.0,ID,106.1045,-6.3424,100.0,1685610119.0
52,Saldanha,57.25,82.0,4.23,3361934.0,ZA,17.9442,-33.0117,99.0,1685610121.0
53,Castro,50.09,92.0,2.44,3466704.0,BR,-50.0119,-24.7911,0.0,1685610049.0
54,Inhambane,80.01,65.0,9.22,1045114.0,MZ,35.3833,-23.865,40.0,1685610125.0
55,Mataura,53.42,90.0,11.61,6201424.0,NZ,168.8643,-46.1927,36.0,1685610127.0
56,Puerto Ayora,77.56,92.0,5.99,3652764.0,EC,-90.3518,-0.7393,54.0,1685610129.0
57,Arraial do Cabo,69.73,86.0,14.05,3471451.0,BR,-42.0278,-22.9661,30.0,1685610131.0
58,Obihiro,71.01,67.0,7.25,2128815.0,JP,143.2044,42.9172,100.0,1685610134.0
59,Penzance,59.59,77.0,19.57,2640377.0,GB,-5.5371,50.1186,20.0,1685610136.0
60,Butaritari,83.43,76.0,7.4,2110227.0,KI,172.7902,3.0707,29.0,1685610138.0
61,Rikitea,77.09,85.0,27.38,4030556.0,PF,-134.9692,-23.1203,100.0,1685610140.0
62,Namatanai,80.28,84.0,10.92,2090021.0,PG,152.4333,-3.6667,99.0,1685610142.0
63,Isangel,76.21,84.0,14.2,2136825.0,VU,169.2667,-19.55,22.0,1685610144.0
64,Saint George,64.96,33.0,9.22,5546220.0,US,-113.5841,37.1041,0.0,1685610015.0
65,Kruisfontein,65.16,57.0,4.54,986717.0,ZA,24.7314,-34.0033,0.0,1685609951.0
66,Mwinilunga,81.12,27.0,5.26,902620.0,ZM,24.4293,-11.7358,5.0,1685610151.0
67,Port Alfred,68.18,70.0,5.99,964432.0,ZA,26.891,-33.5906,28.0,1685610153.0
68,Marzuq,89.74,28.0,5.57,72181.0,YE,46.4667,14.4,29.0,1685610155.0
69,Puerto Escondido,80.04,87.0,2.86,3520994.0,MX,-97.0667,15.85,75.0,1685610015.0
70,Sivaki,65.52,40.0,10.58,2016477.0,RU,126.75,52.6333,100.0,1685610159.0
71,Yellowknife,45.12,76.0,6.91,6185377.0,CA,-114.3525,62.456,20.0,1685610060.0
72,Canchungo,80.73,66.0,7.43,2373951.0,GW,-16.0333,12.0672,81.0,1685610163.0
73,Östersund,41.45,38.0,19.57,2685750.0,SE,14.6357,63.1792,40.0,1685610059.0
74,Fort Nelson,39.94,88.0,3.44,5955902.0,CA,-122.7002,58.8053,20.0,1685610168.0
75,Castelo Branco,72.23,53.0,0.96,2269514.0,PT,-7.4909,39.8222,0.0,1685610170.0
76,Black River,77.63,89.0,6.42,3491355.0,JM,-77.8487,18.0264,100.0,1685610172.0
77,Atuona,80.37,77.0,7.85,4020109.0,PF,-139.0333,-9.8,69.0,1685610174.0
78,Birao,96.12,32.0,4.56,240210.0,CF,22.7882,10.2849,5.0,1685610144.0
79,Ekhabi,33.93,98.0,6.8,2122614.0,RU,142.9671,53.5102,100.0,1685610178.0
80,Barrow,24.82,80.0,9.22,5880054.0,US,-156.7887,71.2906,100.0,1685610180.0
81,Hilo,71.17,99.0,4.61,5855927.0,US,-155.09,19.7297,75.0,1685610182.0
82,Mehamn,42.75,70.0,13.8,778707.0,NO,27.8492,71.0357,75.0,1685610185.0
83,Shingū,70.29,96.0,4.65,1847947.0,JP,135.9833,33.7333,100.0,1685610187.0
84,George Town,89.55,70.0,8.05,1735106.0,MY,100.3354,5.4112,40.0,1685610017.0
85,Russell,65.61,94.0,0.0,4047434.0,US,-85.1999,32.3502,0.0,1685610191.0
86,Sidhi,105.8,11.0,14.05,1256369.0,IN,81.8833,24.4167,0.0,1685610193.0
87,Laramie,48.6,79.0,4.14,5830062.0,US,-105.5911,41.3114,100.0,1685610008.0
88,Bluff,54.12,82.0,35.25,2206939.0,NZ,168.3333,-46.6,59.0,1685610064.0
89,Bayir,75.72,47.0,3.89,304183.0,TR,28.2167,37.2687,2.0,1685610199.0
90,Vila Velha,68.95,94.0,0.0,3445026.0,BR,-40.2925,-20.3297,0.0,1685610061.0
91,Kapaa,73.45,90.0,11.5,5848280.0,US,-159.319,22.0752,100.0,1685610204.0
92,Margate,53.2,77.0,11.01,2643044.0,GB,1.3862,51.3813,100.0,1685609930.0
93,Kamaishi,62.28,85.0,11.48,2112444.0,JP,141.8833,39.2667,100.0,1685610208.0
94,Stăncuţa,78.6,36.0,4.0,666309.0,RO,27.8333,44.9,23.0,1685610210.0
95,Ankang,75.36,75.0,4.54,1789065.0,CN,109.0172,32.68,98.0,1685610212.0
96,Port Elizabeth,69.31,69.0,3.0,964420.0,ZA,25.5701,-33.918,0.0,1685610214.0
97,Morant Bay,82.02,88.0,8.01,3489440.0,JM,-76.4093,17.8815,94.0,1685610216.0
98,São Miguel,74.17,93.0,9.26,3388304.0,BR,-35.3667,-5.4667,45.0,1685610218.0
99,Guerrero Negro,58.96,79.0,15.12,4021858.0,MX,-114.0611,27.9769,63.0,1685610220.0
100,Husavik,54.19,66.0,0.27,2629833.0,IS,-17.3389,66.0449,3.0,1685610223.0
101,Ahipara,58.82,92.0,7.9,2194098.0,NZ,173.1667,-35.1667,100.0,1685610225.0
102,Saint Paul Harbor,42.31,87.0,5.75,5866583.0,US,-152.4072,57.79,100.0,1685610227.0
103,Mahébourg,80.89,57.0,8.05,934322.0,MU,57.7,-20.4081,40.0,1685610229.0
104,Mount Isa,67.77,42.0,4.61,2065594.0,AU,139.5,-20.7333,0.0,1685610231.0
105,Te Anau,50.97,81.0,16.82,2181625.0,NZ,167.7167,-45.4167,100.0,1685610233.0
106,Alenquer,72.21,89.0,2.93,3407980.0,BR,-54.7383,-1.9417,0.0,1685610235.0
107,São Miguel do Araguaia,70.99,77.0,5.3,3448455.0,BR,-50.1628,-13.275,100.0,1685610034.0
108,Kriel,54.77,43.0,6.78,987202.0,ZA,29.2253,-26.2739,0.0,1685610239.0
109,Marsh Harbour,79.18,76.0,11.1,3571913.0,BS,-77.0636,26.5412,100.0,1685610242.0
110,Souillac,80.98,57.0,8.05,933995.0,MU,57.5167,-20.5167,40.0,1685610070.0
111,Tigil',46.18,69.0,12.24,2120612.0,RU,158.6667,57.8,100.0,1685610246.0
112,Kaeo,58.32,92.0,5.79,2189343.0,NZ,173.7833,-35.1,100.0,1685610248.0
113,Cape Town,62.8,85.0,5.75,3369157.0,ZA,18.4232,-33.9258,75.0,1685610001.0
114,Cidreira,58.64,83.0,5.82,3466165.0,BR,-50.2056,-30.1811,3.0,1685610252.0
115,Khatanga,52.99,69.0,13.04,2022572.0,RU,102.5,71.9667,83.0,1685610254.0
116,Karlshamn,70.29,48.0,3.76,2701727.0,SE,14.8619,56.1706,2.0,1685610257.0
117,Pevek,29.17,78.0,10.58,2122090.0,RU,170.3133,69.7008,100.0,1685610259.0
118,Mar del Plata,52.03,85.0,5.75,3430863.0,AR,-57.5575,-38.0023,0.0,1685610008.0
119,Gobabis,71.28,14.0,7.14,3357247.0,NA,18.9667,-22.45,0.0,1685610263.0
120,Gaoyou,81.41,55.0,5.97,1810309.0,CN,119.4278,32.7858,63.0,1685610265.0
121,Bethel,51.08,88.0,0.0,5282297.0,US,-73.414,41.3712,0.0,1685610267.0
122,Santa Maria da Vitória,66.11,74.0,1.57,3450063.0,BR,-44.1886,-13.3947,53.0,1685610210.0
123,Banda Aceh,86.5,67.0,16.69,1215502.0,ID,95.3222,5.5577,95.0,1685610271.0
124,Georgiyevka,84.24,17.0,15.66,1524243.0,KZ,74.7114,43.0369,0.0,1685610273.0
125,Zonguldak,68.85,54.0,6.44,737021.0,TR,31.8333,41.25,100.0,1685610276.0
126,Booué,84.63,70.0,2.06,2401495.0,GA,11.9385,-0.0921,46.0,1685610278.0
127,Siyabuswa,63.9,34.0,3.71,955313.0,ZA,29.0445,-25.1132,0.0,1685610280.0
128,Dunedin,61.81,53.0,15.01,2191562.0,NZ,170.5036,-45.8742,25.0,1685610027.0
129,Roald,46.76,81.0,8.05,3141667.0,NO,6.1333,62.5833,75.0,1685610284.0
130,Tweed,62.2,78.0,5.28,6170799.0,CA,-77.3162,44.4751,5.0,1685610286.0
131,Nanortalik,38.34,85.0,3.69,3421765.0,GL,-45.2371,60.1432,100.0,1685610288.0
132,Port Blair,91.44,58.0,9.22,1259385.0,IN,92.75,11.6667,40.0,1685610291.0
133,Lubango,71.76,37.0,3.44,3347762.0,AO,13.4925,-14.9172,6.0,1685610017.0
134,Shumskiy,64.72,55.0,5.82,1491977.0,RU,99.1328,54.8318,96.0,1685610295.0
135,San Cristobal,65.82,98.0,3.13,3628473.0,VE,-72.225,7.7669,88.0,1685610297.0
136,Nioro,82.42,62.0,7.11,2412408.0,GM,-15.75,13.35,100.0,1685610299.0
137,Thompson,51.96,87.0,4.61,6165406.0,CA,-97.8558,55.7435,100.0,1685610004.0
138,Manaus,77.49,94.0,0.0,3663517.0,BR,-60.025,-3.1019,0.0,1685610265.0
139,Laguna,54.45,80.0,8.05,5364271.0,US,-121.4238,38.421,0.0,1685610305.0
140,Hermanus,61.81,86.0,4.47,3366880.0,ZA,19.2345,-34.4187,99.0,1685610307.0
141,Westport,52.92,88.0,1.01,4845585.0,US,-73.3579,41.1415,0.0,1685610090.0
142,Dicabisagan,89.42,68.0,6.44,1715015.0,PH,122.4157,17.0818,100.0,1685610312.0
143,Newport,53.76,79.0,14.74,2641598.0,GB,-2.9984,51.5877,60.0,1685610041.0
144,Tateyama,69.12,81.0,12.48,1850523.0,JP,139.8667,34.9833,100.0,1685610316.0
145,Kuznechikha,64.53,44.0,9.69,537760.0,RU,42.3348,57.2161,1.0,1685610318.0
146,Poum,75.04,70.0,10.85,2138555.0,NC,164.0167,-20.2333,100.0,1685610320.0
147,Chokurdakh,33.57,72.0,5.26,2126123.0,RU,147.9167,70.6333,56.0,1685610322.0
148,Coquimbo,53.33,100.0,2.3,3893629.0,CL,-71.3436,-29.9533,100.0,1685610324.0
149,Ust-Nera,58.55,53.0,7.72,2120048.0,RU,143.2,64.5667,91.0,1685610326.0
150,Kavaratti,84.87,71.0,5.93,1267390.0,IN,72.642,10.5669,100.0,1685610329.0
151,Eruwa,84.24,68.0,5.84,2338669.0,NG,3.4167,7.5333,89.0,1685610331.0
152,Polyarny,42.8,85.0,24.0,506763.0,RU,33.4478,69.1989,100.0,1685610333.0
153,Ribeira Grande,64.8,82.0,5.75,3372707.0,PT,-28.7,38.5167,40.0,1685610335.0
154,Kalemie,80.1,55.0,11.14,214974.0,CD,29.1947,-5.9475,1.0,1685610337.0
155,Tuktoyaktuk,33.17,90.0,16.96,6170031.0,CA,-133.0374,69.4541,100.0,1685610339.0
156,Tomatlán,68.61,95.0,1.63,3981391.0,MX,-105.25,19.9333,1.0,1685610341.0
157,Bratca,71.38,56.0,3.11,683837.0,RO,22.6167,46.9333,9.0,1685610343.0
158,Chiang Khong,104.32,23.0,5.86,1611197.0,TH,100.4046,20.2613,20.0,1685610346.0
159,Gijang,64.13,92.0,1.41,1842966.0,KR,129.2139,35.2442,100.0,1685610348.0
160,Vao,72.23,76.0,21.18,2137773.0,NC,167.4833,-22.6667,100.0,1685610350.0
161,Marawi,77.43,74.0,5.17,1701054.0,PH,124.2928,7.9986,100.0,1685610352.0
162,Kununurra,84.18,24.0,2.3,2068110.0,AU,128.7333,-15.7667,35.0,1685610354.0
163,Ponta do Sol,69.42,87.0,9.55,2264557.0,PT,-17.1,32.6667,51.0,1685610356.0
164,Vanimo,80.17,80.0,2.44,2084442.0,PG,141.3028,-2.6741,33.0,1685610358.0
165,Kenai,44.6,81.0,4.61,5866063.0,US,-151.2583,60.5544,100.0,1685610360.0
166,Tarnogskiy Gorodok,59.34,54.0,11.25,484314.0,RU,43.5761,60.4997,97.0,1685610362.0
167,Tottori-shi,73.47,73.0,11.5,1849892.0,JP,134.2333,35.5,75.0,1685610103.0
168,Baracoa,77.05,90.0,3.67,3567834.0,CU,-74.4958,20.3467,100.0,1685610367.0
169,Krasnyy Kholm,59.0,64.0,12.86,541704.0,RU,37.1203,58.0607,94.0,1685610369.0
170,Nabire,79.86,87.0,1.81,1634614.0,ID,135.4833,-3.3667,99.0,1685610371.0
171,Zaysan,67.24,33.0,6.38,1517060.0,KZ,84.8667,47.4667,1.0,1685610373.0
172,New Norfolk,45.14,64.0,1.99,2155415.0,AU,147.0587,-42.7826,14.0,1685610375.0
173,Muhos,44.58,31.0,10.94,645765.0,FI,25.9931,64.808,17.0,1685610377.0
174,Sabzawār,90.68,9.0,13.8,118063.0,IR,57.6819,36.2126,75.0,1685610380.0
175,Catuday,83.64,74.0,7.54,1717787.0,PH,119.8062,16.2923,88.0,1685610382.0
176,Enshi,72.97,93.0,1.97,1811720.0,CN,109.4833,30.3,100.0,1685610384.0
177,Timiryazevskiy,82.76,27.0,7.16,1489597.0,RU,84.8769,56.49,99.0,1685610386.0
178,Aklavik,33.8,100.0,10.36,5882953.0,CA,-135.0107,68.2191,100.0,1685610388.0
179,Pochutla,75.81,86.0,1.14,3517970.0,MX,-96.4661,15.7432,88.0,1685610390.0
180,Bathsheba,81.21,83.0,11.5,3374083.0,BB,-59.5167,13.2167,20.0,1685610392.0
181,Salalah,91.49,66.0,13.8,286621.0,OM,54.0924,17.0151,20.0,1685610318.0
182,Airai,62.94,77.0,1.9,1651810.0,TL,125.4092,-8.9266,74.0,1685610396.0
183,Fuyang,89.17,35.0,5.37,1810845.0,CN,115.8167,32.9,22.0,1685610399.0
184,Makakilo City,73.27,81.0,9.22,5850554.0,US,-158.0858,21.3469,0.0,1685610401.0
185,Impfondo,91.33,49.0,0.51,2259655.0,CG,18.0667,1.6381,5.0,1685610403.0
186,Anloga,80.11,85.0,12.75,2304548.0,GH,0.8973,5.7947,100.0,1685610405.0
187,Chui,54.52,92.0,4.72,3443061.0,UY,-53.4616,-33.6971,6.0,1685610407.0
188,Nishihara,78.51,97.0,35.68,1855342.0,JP,127.7558,26.1842,100.0,1685610409.0
189,Bariloche,37.24,87.0,1.66,7647007.0,AR,-71.3082,-41.1456,100.0,1685610411.0
190,Kristianstad,66.34,55.0,8.05,2699310.0,SE,14.1524,56.0313,0.0,1685610413.0
191,Cabo San Lucas,71.62,83.0,15.84,3985710.0,MX,-109.9124,22.8909,9.0,1685610338.0
192,Hunchun,73.78,51.0,2.68,2036653.0,CN,130.3581,42.8675,82.0,1685610418.0
193,Aykhal,53.87,32.0,3.24,2027296.0,RU,111.5,66.0,0.0,1685610420.0
194,Nchelenge,77.34,41.0,3.29,175499.0,ZM,28.734,-9.3451,95.0,1685610422.0
195,Hobyo,87.66,62.0,22.46,57000.0,SO,48.5268,5.3505,72.0,1685610424.0
196,Pechenga,39.74,82.0,26.35,511865.0,RU,31.1703,69.5259,100.0,1685610426.0
197,Hambantota,91.74,66.0,12.66,1244926.0,LK,81.1185,6.1241,75.0,1685610428.0
198,Lompoc,54.93,84.0,9.22,5367788.0,US,-120.4579,34.6391,100.0,1685610430.0
199,Hasaki,70.29,74.0,15.95,2112802.0,JP,140.8333,35.7333,100.0,1685610432.0
200,Departamento de Maldonado,58.39,93.0,5.08,3441890.0,UY,-54.9167,-34.6667,3.0,1685610435.0
201,Naze,73.0,96.0,28.77,1855540.0,JP,129.4833,28.3667,100.0,1685610437.0
202,Nikolskoye,55.04,44.0,10.38,546105.0,RU,30.7861,59.7035,84.0,1685610439.0
203,Dul'durga,56.7,61.0,10.27,2024812.0,RU,113.5931,50.6761,100.0,1685610441.0
204,Leh,56.41,34.0,5.48,1264976.0,IN,77.5833,34.1667,77.0,1685610443.0
205,Lata,66.02,68.0,1.77,2738381.0,PT,-8.3327,40.1629,22.0,1685610445.0
206,Tiksi,41.18,65.0,4.34,2015306.0,RU,128.8694,71.6872,62.0,1685610448.0
207,Qaanaaq,11.82,72.0,7.78,3831208.0,GL,-69.3632,77.484,0.0,1685610450.0
208,Ilulissat,35.62,93.0,0.0,3423146.0,GL,-51.1,69.2167,100.0,1685610452.0
209,Saint-Augustin,45.95,81.0,6.29,6137462.0,CA,-58.6502,51.226,100.0,1685610454.0
210,Saskylakh,48.52,76.0,7.96,2017155.0,RU,114.0833,71.9167,96.0,1685610456.0
211,Tessalit,92.89,6.0,4.88,2449893.0,ML,1.0114,20.1986,17.0,1685610252.0
212,Rayong,88.77,69.0,10.42,1607016.0,TH,101.4333,12.8333,69.0,1685610461.0
213,Sur,98.94,40.0,4.85,286245.0,OM,59.5289,22.5667,0.0,1685610463.0
214,Bereket,97.07,15.0,4.12,161974.0,TM,55.5154,39.2446,6.0,1685610465.0
215,Staraya Kulatka,70.77,48.0,6.33,489164.0,RU,47.6167,52.7167,31.0,1685610467.0
216,Roswell,62.02,93.0,0.0,4219934.0,US,-84.3616,34.0232,0.0,1685610469.0
217,Santa Luzia,63.5,97.0,1.34,3450144.0,BR,-43.8514,-19.7697,42.0,1685610471.0
218,São Filipe,72.81,80.0,8.25,3374210.0,CV,-24.4956,14.8961,100.0,1685610473.0
219,San Luis,51.82,74.0,2.73,3837056.0,AR,-66.3356,-33.295,71.0,1685610475.0
220,Fairbanks,37.31,63.0,8.05,5861897.0,US,-147.7164,64.8378,0.0,1685610478.0
221,Sibolga,83.34,73.0,3.85,1213855.0,ID,98.7792,1.7427,100.0,1685610480.0
222,Pahrump,66.13,31.0,5.99,5509851.0,US,-115.9839,36.2083,3.0,1685610482.0
223,Narsaq,39.42,87.0,3.67,3421719.0,GL,-46.05,60.9167,97.0,1685610484.0
224,Hamilton,63.25,88.0,0.0,4513583.0,US,-84.5333,39.1834,20.0,1685610291.0
225,Fortuna,50.68,90.0,8.05,5563839.0,US,-124.1573,40.5982,100.0,1685610488.0
226,Ayan,43.32,95.0,16.58,2027316.0,RU,138.1667,56.45,100.0,1685610490.0
227,El Dorado,53.13,87.0,3.0,5345659.0,US,-120.5177,38.7666,0.0,1685610492.0
228,Leonidovo,52.18,67.0,1.92,2123805.0,RU,142.8667,49.2833,96.0,1685610495.0
229,Chicama,70.34,87.0,4.43,3698359.0,PE,-79.1469,-7.8447,19.0,1685610497.0
230,Umluj,90.48,45.0,10.74,100926.0,SA,37.2685,25.0213,0.0,1685610499.0
231,Acapulco de Juárez,82.22,78.0,3.44,3533462.0,MX,-99.8901,16.8634,40.0,1685610501.0
232,Santa Maria,55.89,93.0,1.61,3450083.0,BR,-53.8069,-29.6842,7.0,1685610501.0
233,Ubinskoye,77.67,36.0,4.25,1488708.0,RU,79.6802,55.3068,77.0,1685610505.0
234,Flinders,61.86,83.0,8.81,6255012.0,AU,150.8552,-34.5833,10.0,1685610507.0
235,Broome,53.91,75.0,1.01,5110365.0,US,-75.833,42.2506,0.0,1685610509.0
236,Mossamedes,74.95,54.0,4.0,3347019.0,AO,12.1522,-15.1961,27.0,1685610512.0
237,Orange Cove,63.46,94.0,4.61,5379533.0,US,-119.3137,36.6244,0.0,1685610514.0
238,Barra Patuca,77.47,81.0,8.93,3614835.0,HN,-84.2833,15.8,100.0,1685610516.0
239,Arlit,99.48,5.0,8.7,2447513.0,NE,7.3853,18.7369,65.0,1685610518.0
240,Chilia Veche,77.68,33.0,6.98,682117.0,RO,29.2833,45.4167,30.0,1685610520.0
241,Conde,74.66,100.0,4.61,3385077.0,BR,-34.9075,-7.2597,20.0,1685610522.0
242,Bulungu,87.58,56.0,1.12,2316259.0,CD,18.6,-4.55,58.0,1685610524.0
243,Baker City,45.82,65.0,6.91,5712169.0,US,-117.8344,44.7749,0.0,1685610526.0
244,Rājākhera,101.46,19.0,7.81,1258930.0,IN,78.1714,26.8961,4.0,1685610529.0
245,Portland,47.19,80.0,0.94,5746545.0,US,-122.6762,45.5234,22.0,1685610507.0
246,Birkeland,62.06,35.0,8.05,3161532.0,NO,8.2323,58.3309,0.0,1685610533.0
247,Dvinskoy Bereznik,57.4,49.0,7.11,577240.0,RU,42.7072,62.8551,100.0,1685610535.0
248,Jalingo,89.98,50.0,5.68,2336589.0,NG,11.3667,8.8833,31.0,1685610537.0
249,Yar-Sale,58.33,82.0,9.55,1486321.0,RU,70.8333,66.8333,100.0,1685610539.0
250,Tafresh,80.19,17.0,16.42,113636.0,IR,50.013,34.692,4.0,1685610541.0
251,Homer,44.51,71.0,3.44,5864145.0,US,-151.5483,59.6425,0.0,1685610543.0
252,Mandalgovi,54.45,57.0,15.7,2030065.0,MN,106.2708,45.7625,100.0,1685610545.0
253,Kibala,92.19,42.0,6.26,2425791.0,TD,18.3463,9.1104,89.0,1685610548.0
254,Ulladulla,53.76,79.0,3.58,2145554.0,AU,150.4667,-35.35,79.0,1685610311.0
255,Sitka,44.49,81.0,5.75,5557293.0,US,-135.33,57.0531,100.0,1685610552.0
256,Leningradskiy,26.87,83.0,7.85,2123814.0,RU,178.4167,69.3833,99.0,1685610554.0
257,Takāb,71.98,28.0,11.27,113508.0,IR,47.1133,36.4009,5.0,1685610556.0
258,Tarancón,65.59,56.0,6.98,3108317.0,ES,-3.0073,40.0085,65.0,1685610558.0
259,Goderich,61.92,76.0,4.21,5962442.0,CA,-81.7165,43.7501,0.0,1685610560.0
260,Rosa Zarate,73.2,99.0,2.42,3652257.0,EC,-79.4667,0.3333,100.0,1685610562.0
261,Luganville,77.68,88.0,6.98,2136150.0,VU,167.1667,-15.5333,39.0,1685610565.0
262,Druzhba,67.78,48.0,9.6,709584.0,UA,33.9453,52.0428,0.0,1685610567.0
263,Valea lui Mihai,71.31,55.0,3.24,663692.0,RO,22.15,47.5167,6.0,1685610569.0
264,Ancud,47.53,92.0,7.49,3899695.0,CL,-73.8203,-41.8697,100.0,1685610571.0
265,Matagami,63.52,79.0,4.9,6067747.0,CA,-77.6328,49.7502,92.0,1685610573.0
266,Peniche,66.52,82.0,6.13,2264923.0,PT,-9.3811,39.3558,24.0,1685610575.0
267,Miraflores,64.99,80.0,4.25,3761194.0,MX,-98.8083,19.2167,2.0,1685610577.0
268,Lebu,51.4,90.0,4.79,3883457.0,CL,-73.65,-37.6167,52.0,1685610580.0
269,Crawley,54.19,79.0,14.97,2652053.0,GB,-0.1831,51.113,75.0,1685610583.0
270,Khonsa,90.5,33.0,4.36,1266668.0,IN,95.5667,27.0167,9.0,1685610585.0
271,Yumen,72.43,10.0,16.64,1528998.0,CN,97.2,40.2833,100.0,1685610587.0
272,Bubaque,81.54,82.0,11.61,2374583.0,GW,-15.8333,11.2833,93.0,1685610589.0
273,Ribas do Rio Pardo,65.97,84.0,4.05,3451399.0,BR,-53.7592,-20.4431,99.0,1685610481.0
274,Malbork,68.22,55.0,9.01,3092472.0,PL,19.0266,54.0359,18.0,1685610593.0
275,Saint-Leu,78.31,79.0,9.64,6690297.0,RE,55.2833,-21.15,6.0,1685610595.0
276,Arkhara,61.75,58.0,6.08,2027487.0,RU,130.0842,49.4212,86.0,1685610597.0
277,Tura,99.5,24.0,7.74,1254046.0,IN,90.2201,25.5198,63.0,1685610600.0
278,Ingham,62.49,72.0,5.97,4997130.0,US,-84.3833,42.6,1.0,1685610602.0
279,Sarandi,56.68,93.0,2.39,3447998.0,BR,-51.8739,-23.4436,0.0,1685610604.0
280,Biak,79.45,84.0,8.99,1637001.0,ID,122.8766,-0.9131,82.0,1685610606.0
281,Nieuw Amsterdam,76.06,93.0,6.53,3383434.0,SR,-55.0833,5.8833,40.0,1685610608.0
282,Boundiali,80.38,74.0,5.88,2290836.0,CI,-6.4869,9.5217,100.0,1685610610.0
283,Aitape,81.07,81.0,2.71,2101169.0,PG,142.3475,-3.1374,51.0,1685610612.0
284,Manadhoo,83.46,78.0,17.98,1337618.0,MV,73.3833,5.7667,100.0,1685610615.0
285,Ca Mau,83.98,72.0,11.32,1586443.0,VN,105.15,9.1769,100.0,1685610617.0
286,San Patricio,75.67,83.0,8.43,4726521.0,US,-97.5169,28.017,9.0,1685610619.0
287,Portree,53.53,81.0,10.25,2640006.0,GB,-6.1942,57.4129,24.0,1685610621.0
288,Srednekolymsk,49.77,25.0,6.82,2121025.0,RU,153.6833,67.45,0.0,1685610623.0
289,Zhangaözen,89.29,27.0,11.74,607610.0,KZ,52.8,43.3,8.0,1685610625.0
290,Mayo,57.58,90.0,4.61,4362001.0,US,-76.5119,38.8876,0.0,1685610406.0
291,Hualmay,67.89,84.0,5.3,3939761.0,PE,-77.6139,-11.0964,72.0,1685610629.0
292,Púchov,71.44,43.0,3.0,3057963.0,SK,18.326,49.1249,44.0,1685610633.0
293,Hong Kong,86.4,79.0,5.01,1819729.0,HK,114.1577,22.2855,12.0,1685610429.0
294,Dzilam González,70.57,95.0,3.11,3529654.0,MX,-88.9333,21.2833,1.0,1685610637.0
295,Sistranda,42.76,68.0,18.34,3139597.0,NO,8.834,63.7256,99.0,1685610639.0
296,Ondjiva,79.43,23.0,4.18,3346821.0,AO,15.7333,-17.0667,5.0,1685610641.0
297,Taguatinga,69.57,64.0,3.69,6319623.0,BR,-46.5711,-12.3857,25.0,1685610643.0
298,Evensk,54.32,68.0,11.63,2125693.0,RU,159.2333,61.95,88.0,1685610645.0
299,Katsuura,68.72,80.0,12.8,2112309.0,JP,140.3,35.1333,100.0,1685610647.0
300,Ambovombe,76.78,59.0,13.73,1079048.0,MG,46.0833,-25.1667,38.0,1685610649.0
301,Pisco,68.05,77.0,4.61,3932145.0,PE,-76.2167,-13.7,100.0,1685610651.0
302,Lala,84.81,71.0,5.01,1707944.0,PH,123.7458,7.9745,37.0,1685610654.0
303,East London,67.14,48.0,16.11,1006984.0,ZA,27.9116,-33.0153,0.0,1685610656.0
304,Nyurba,61.36,31.0,5.03,2018735.0,RU,118.3319,63.2842,2.0,1685610658.0
305,Baykit,75.83,26.0,5.21,1510689.0,RU,96.37,61.67,87.0,1685610660.0
306,Muyezerskiy,38.55,95.0,7.83,524100.0,RU,31.65,63.9333,100.0,1685610662.0
307,Umarkot,103.98,28.0,20.42,1162959.0,PK,69.7362,25.3616,0.0,1685610664.0
308,Paamiut,36.9,88.0,13.94,3421193.0,GL,-49.6678,61.994,100.0,1685610666.0
309,Gberia Fotombu,74.44,90.0,5.03,2409019.0,SL,-11.1667,9.8833,100.0,1685610668.0
310,Auki,79.63,83.0,2.68,2109701.0,SB,160.7034,-8.7676,36.0,1685610671.0
311,Timmins,61.88,81.0,4.18,6166739.0,CA,-81.3331,48.4669,99.0,1685610528.0
312,Pachino,70.52,68.0,9.35,6539213.0,IT,15.0907,36.7186,96.0,1685610675.0
313,Arrondissement d'Arcachon,66.27,82.0,9.22,6621469.0,FR,-1.0519,44.5875,100.0,1685610677.0
314,Avera,61.56,90.0,5.73,4231997.0,US,-82.5271,33.194,100.0,1685610679.0
315,Bonthe,81.61,80.0,1.41,2409914.0,SL,-12.505,7.5264,100.0,1685610681.0
316,Songjianghe,54.21,94.0,4.9,2034691.0,CN,127.479,42.1859,95.0,1685610684.0
317,Salisbury,54.43,77.0,14.97,2638664.0,GB,-1.7957,51.0693,75.0,1685610686.0
318,Xi'an,78.13,51.0,0.85,1790630.0,CN,108.9286,34.2583,88.0,1685610427.0
319,Touros,74.61,93.0,8.93,3386213.0,BR,-35.4608,-5.1989,37.0,1685610690.0
320,Boda,87.89,48.0,3.62,2388614.0,CF,17.4695,4.3189,32.0,1685610692.0
321,Mayumba,78.6,83.0,8.25,2399001.0,GA,10.6554,-3.432,86.0,1685610694.0
322,Chul'man,59.05,47.0,9.53,2025261.0,RU,124.9104,56.8479,100.0,1685610696.0
323,Tambacounda,87.85,58.0,9.22,2244991.0,SN,-13.7586,13.7539,0.0,1685610698.0
324,Bushehr,95.09,34.0,18.41,139817.0,IR,50.8385,28.9684,0.0,1685610701.0
325,Port Hardy,48.38,87.0,4.61,6111862.0,CA,-127.4199,50.6996,75.0,1685610703.0
326,Shashi,86.59,47.0,5.75,1795816.0,CN,112.2447,30.3072,93.0,1685610705.0
327,Grand-Lahou,82.31,79.0,7.56,2288105.0,CI,-5.0242,5.1367,83.0,1685610707.0
328,State College,49.19,80.0,1.83,5213681.0,US,-77.86,40.7934,0.0,1685610483.0
329,Teguise,68.22,78.0,8.05,2510573.0,ES,-13.564,29.0605,75.0,1685610711.0
330,Magdagachi,63.88,46.0,8.97,2020591.0,RU,125.8,53.45,100.0,1685610713.0
331,Gaozhou,94.71,50.0,2.57,1810295.0,CN,110.8461,21.9392,49.0,1685610715.0
332,Meulaboh,85.06,66.0,5.7,1214488.0,ID,96.1285,4.1363,96.0,1685610717.0
333,Río Gallegos,40.17,83.0,12.03,3838859.0,AR,-69.2181,-51.6226,68.0,1685610512.0
334,Chaihe,61.05,66.0,11.34,2038198.0,CN,129.7,44.7667,51.0,1685610722.0
335,Nikel,41.18,79.0,24.99,522260.0,RU,30.222,69.4128,100.0,1685610724.0
336,Beringovskiy,39.34,85.0,6.85,2126710.0,RU,179.3167,63.05,100.0,1685610726.0
337,Coyhaique,42.75,93.0,6.91,3894426.0,CL,-72.0662,-45.5752,0.0,1685610728.0
338,Vardø,42.78,65.0,19.57,777019.0,NO,31.1107,70.3705,75.0,1685610730.0
339,Talnakh,43.21,97.0,8.43,1490256.0,RU,88.3972,69.4865,100.0,1685610732.0
340,Faya,79.32,35.0,5.55,110690.0,SA,42.4509,18.3851,100.0,1685610734.0
341,Znamenskoye,82.49,38.0,8.39,1485020.0,RU,73.8282,57.1281,100.0,1685610736.0
342,Manavgat,73.38,67.0,6.67,304854.0,TR,31.4431,36.7867,2.0,1685610739.0
343,Cairns,71.31,75.0,5.75,2172797.0,AU,145.7667,-16.9167,15.0,1685610576.0
344,Klaksvík,49.12,66.0,6.98,2618795.0,FO,-6.589,62.2266,47.0,1685610743.0
345,Fonte Boa,72.73,99.0,2.19,6319315.0,BR,-66.2662,-2.4959,98.0,1685610745.0
346,Piaçabuçu,75.15,91.0,2.1,3454005.0,BR,-36.4344,-10.4056,73.0,1685610747.0
347,Havøysund,41.23,74.0,16.08,779622.0,NO,24.6622,70.9963,100.0,1685610749.0
348,Boden,41.0,65.0,13.85,606531.0,SE,21.6886,65.8252,100.0,1685610751.0
349,Nhulunbuy,79.41,61.0,8.05,2064735.0,AU,136.7667,-12.2333,55.0,1685610753.0
350,Kamenka,64.24,54.0,8.86,553766.0,RU,42.7678,51.3223,75.0,1685610756.0
351,Kazachinskoye,78.62,21.0,7.05,1504075.0,RU,93.2761,57.6953,82.0,1685610758.0
352,Geraldton,68.41,68.0,16.11,2070998.0,AU,114.6,-28.7667,5.0,1685610618.0
353,Maxixe,79.79,57.0,10.33,1039536.0,MZ,35.3472,-23.8597,3.0,1685610762.0
354,Leon Valley,72.45,88.0,8.05,4705923.0,US,-98.6186,29.4952,40.0,1685610712.0
355,Nome,32.07,93.0,12.66,5870133.0,US,-165.4064,64.5011,100.0,1685610766.0
356,Manokwari,81.61,79.0,6.71,1636308.0,ID,134.0833,-0.8667,49.0,1685610768.0
357,Grand-Santi,71.46,99.0,1.34,3381538.0,GF,-54.3833,4.25,68.0,1685610770.0
358,Faanui,76.89,62.0,12.17,4034551.0,PF,-151.75,-16.4833,25.0,1685610772.0
359,Clyde River,17.83,79.0,16.11,5924351.0,CA,-68.5914,70.4692,0.0,1685610775.0
360,Kosa,56.59,92.0,11.03,544318.0,RU,54.9977,59.9445,98.0,1685610777.0
361,Blackwater,64.27,46.0,5.75,2175403.0,AU,148.8833,-23.5833,0.0,1685610779.0
362,Assiniboia,60.62,72.0,5.75,5887798.0,CA,-105.9845,49.6334,73.0,1685610781.0
363,Bambous Virieux,80.85,57.0,8.05,1106677.0,MU,57.7575,-20.3428,40.0,1685610783.0
364,Arona,68.97,73.0,10.36,2521582.0,ES,-16.681,28.0996,20.0,1685610785.0
365,Belyy Yar,75.09,29.0,4.47,1510377.0,RU,91.3903,53.6039,0.0,1685610787.0
366,San Miguel,74.41,98.0,0.65,3583446.0,SV,-88.1833,13.4833,100.0,1685610789.0
367,Maniitsoq,34.25,98.0,30.96,3421982.0,GL,-52.9,65.4167,100.0,1685610791.0
368,Freeport,57.13,87.0,4.61,5117949.0,US,-73.5832,40.6576,0.0,1685610693.0
369,Constitución,55.06,85.0,1.16,3893726.0,CL,-72.4167,-35.3333,99.0,1685610796.0
370,Tarakan,90.9,66.0,3.44,1624725.0,ID,117.6333,3.3,20.0,1685610798.0
371,Nirmal,107.69,12.0,8.16,1261288.0,IN,78.35,19.1,17.0,1685610800.0
372,Zmeinogorsk,69.69,45.0,19.33,1485042.0,RU,82.195,51.1567,3.0,1685610802.0
373,Valparaíso,57.99,63.0,4.61,3868626.0,CL,-71.6273,-33.0393,0.0,1685610804.0
374,Caravelas,70.97,92.0,2.64,3466980.0,BR,-39.2481,-17.7125,4.0,1685610806.0
375,Torbay,41.97,78.0,5.99,6167817.0,CA,-52.7314,47.6666,100.0,1685610808.0
376,Le Port,79.48,77.0,1.19,935616.0,RE,55.2919,-20.9373,11.0,1685610811.0
377,Kumul,81.09,7.0,3.49,1529484.0,CN,93.45,42.8,9.0,1685610813.0
378,Inverell,50.11,81.0,1.01,2162662.0,AU,151.1167,-29.7833,2.0,1685610815.0
379,Tortolì,67.82,77.0,4.61,2522890.0,IT,9.6572,39.9256,40.0,1685610817.0
380,Beipiao,68.83,42.0,5.7,2038342.0,CN,120.7792,41.7919,100.0,1685610819.0
381,Novo Aripuanã,72.09,99.0,2.57,3663142.0,BR,-60.3797,-5.1206,42.0,1685610821.0
382,Akdepe,95.09,13.0,7.02,601551.0,TM,59.3788,42.0551,100.0,1685610823.0
383,Pangnirtung,26.65,95.0,2.89,6096551.0,CA,-65.7125,66.1451,100.0,1685610825.0
384,Komatipoort,76.05,64.0,5.7,988290.0,ZA,31.9548,-25.4332,22.0,1685610827.0
385,Kailua,75.49,85.0,3.0,5847486.0,US,-157.7394,21.4022,13.0,1685610830.0
386,Massakory,98.82,31.0,10.74,2428228.0,TD,15.7293,12.996,23.0,1685610832.0
387,Byron Bay,63.36,70.0,3.22,2172880.0,AU,153.6167,-28.65,36.0,1685610622.0
388,Dawson Creek,37.04,70.0,3.44,5935804.0,CA,-120.2362,55.7666,0.0,1685610770.0
389,Port-Gentil,79.0,83.0,11.61,2396518.0,GA,8.7815,-0.7193,74.0,1685610838.0
390,Augusto Corrêa,72.81,96.0,2.59,3406961.0,BR,-46.635,-1.0217,15.0,1685610840.0
391,Araouane,94.46,8.0,11.61,2460954.0,ML,-3.5265,18.9048,56.0,1685610842.0
392,Coahuayana Viejo,71.96,90.0,2.66,4013679.0,MX,-103.6833,18.7333,0.0,1685610844.0
393,Mount Gambier,48.25,68.0,3.04,2156643.0,AU,140.7667,-37.8333,99.0,1685610846.0
394,Swan River,60.69,88.0,10.36,6160362.0,CA,-101.2676,52.1058,54.0,1685610848.0
395,Bima,80.83,76.0,6.33,1648759.0,ID,118.7167,-8.4667,97.0,1685610851.0
396,Cherskiy,40.39,42.0,7.25,2126199.0,RU,161.3,68.75,7.0,1685610853.0
397,Adrar,83.97,18.0,14.0,2381972.0,MR,-10.0711,20.5022,89.0,1685610855.0
398,Egvekinot,29.43,91.0,3.0,4031742.0,RU,-179.1667,66.3167,99.0,1685610857.0
399,Comodoro Rivadavia,48.06,57.0,8.05,3860443.0,AR,-67.5,-45.8667,0.0,1685610859.0
400,Volchikha,78.98,23.0,12.5,1486983.0,RU,80.3833,52.0333,5.0,1685610861.0
401,Paita,72.9,83.0,9.62,3694112.0,PE,-81.1144,-5.0892,43.0,1685610863.0
402,Calama,39.69,19.0,29.93,3897347.0,CL,-68.9333,-22.4667,0.0,1685610866.0
403,Abalak,83.84,34.0,10.78,1512223.0,RU,68.5944,58.1286,100.0,1685610868.0
404,Atar,84.72,19.0,13.89,2381334.0,MR,-13.0499,20.5169,99.0,1685610686.0
405,Venado Tuerto,50.77,92.0,3.76,3833062.0,AR,-61.9688,-33.7456,39.0,1685610872.0
406,Ostrovnoy,45.9,87.0,6.46,556268.0,RU,39.5131,68.0531,100.0,1685610874.0
407,Praia,75.74,69.0,11.5,3374333.0,CV,-23.5087,14.9215,20.0,1685610876.0
408,Campoverde,70.48,98.0,0.18,3733380.0,PE,-74.8058,-8.4753,33.0,1685610879.0
409,Peebles,55.49,76.0,1.99,2640526.0,GB,-3.1888,55.6519,34.0,1685610881.0
410,Ngunguru,58.3,90.0,7.16,2186111.0,NZ,174.5,-35.6167,90.0,1685610883.0
411,Haines Junction,28.35,80.0,1.14,5969025.0,CA,-137.5108,60.7522,100.0,1685610885.0
412,Chernyshevsk,68.25,25.0,11.36,2025458.0,RU,117.0174,52.5243,83.0,1685610887.0
413,Makiyivka,69.06,58.0,11.16,702320.0,UA,37.9258,48.0478,96.0,1685610889.0
414,Petropavlovsk-Kamchatskiy,41.59,100.0,8.95,2122104.0,RU,158.6483,53.0452,100.0,1685610891.0
415,Los Llanos de Aridane,65.12,88.0,12.66,2514651.0,ES,-17.9182,28.6585,40.0,1685610893.0
416,Nuevo Progreso,74.89,75.0,4.03,3522526.0,MX,-97.95,23.1667,49.0,1685610895.0
417,Norsup,78.17,86.0,11.59,2135517.0,VU,167.3833,-16.0667,23.0,1685610898.0
418,Yulara,67.01,29.0,3.83,6355222.0,AU,130.9889,-25.2406,37.0,1685610900.0
419,Hohhot,71.89,23.0,20.13,2036892.0,CN,111.6522,40.8106,20.0,1685610902.0
420,Bowen,70.81,69.0,14.2,2174444.0,AU,148.2333,-20.0167,0.0,1685610904.0
421,Smoky Lake,53.4,100.0,4.61,6150293.0,CA,-112.4686,54.1169,97.0,1685610907.0
422,Angoram,76.33,96.0,2.62,2100765.0,PG,144.0661,-4.0625,53.0,1685610909.0
423,Itarema,73.9,90.0,8.41,3393692.0,BR,-39.9167,-2.9248,25.0,1685610911.0
424,La Asuncion,78.82,87.0,13.47,3480908.0,VE,-63.8628,11.0333,99.0,1685610913.0
425,Berlevåg,40.95,75.0,13.8,780687.0,NO,29.0864,70.8578,75.0,1685610915.0
426,Ambilobe,88.68,31.0,4.56,1082243.0,MG,49.05,-13.2,48.0,1685610917.0
427,Teya,76.21,25.0,8.34,1489656.0,RU,92.6267,60.3778,100.0,1685610919.0
428,Máncora,76.59,77.0,5.35,3695000.0,PE,-81.0475,-4.1078,98.0,1685610921.0
429,Crotone,73.35,68.0,13.8,2524881.0,IT,17.1178,39.0851,20.0,1685610924.0
430,Sechura,73.27,79.0,9.48,3691954.0,PE,-80.8222,-5.5569,68.0,1685610926.0
431,Tarko-Sale,71.51,43.0,23.06,1490085.0,RU,77.785,64.9225,100.0,1685610928.0
432,Yerofey Pavlovich,63.41,42.0,10.89,2012938.0,RU,121.9667,53.9667,77.0,1685610930.0
433,Doha,105.78,21.0,17.27,290030.0,QA,51.5333,25.2867,0.0,1685610702.0
434,Palmer,50.88,85.0,0.0,4946620.0,US,-72.3287,42.1584,0.0,1685610934.0
435,Darhan,67.6,23.0,17.69,2031964.0,MN,105.9228,49.4867,58.0,1685610936.0
436,Rantauprapat,87.19,68.0,3.06,1214073.0,ID,99.8333,2.1,100.0,1685610939.0
437,Arroyo de la Encomienda,64.98,68.0,2.3,3129371.0,ES,-4.7969,41.6096,20.0,1685610941.0
438,Keetmanshoop,62.49,31.0,12.33,3356264.0,NA,18.1333,-26.5833,0.0,1685610943.0
439,Staryy Nadym,70.93,58.0,24.9,1490918.0,RU,72.6842,65.6118,100.0,1685610945.0
440,Beloha,80.38,44.0,14.32,1067565.0,MG,45.05,-25.1667,4.0,1685610947.0
441,Kelvington,59.32,89.0,12.77,5990669.0,CA,-103.5343,52.1667,78.0,1685610949.0
442,Munger,110.46,9.0,15.48,1262482.0,IN,86.4667,25.3833,0.0,1685610951.0
443,Grindavik,46.87,100.0,6.91,3416888.0,IS,-22.4338,63.8424,100.0,1685610953.0
444,Kangaatsiaq,34.02,98.0,12.86,3422683.0,GL,-53.4641,68.3065,100.0,1685610955.0
445,Omsukchan,61.02,41.0,3.24,2122493.0,RU,155.8,62.5333,87.0,1685610958.0
446,Quzhou,86.41,70.0,1.23,1797264.0,CN,118.8686,28.9594,35.0,1685610960.0
447,Neijiang,74.84,71.0,1.52,1799491.0,CN,105.0622,29.5835,100.0,1685610962.0
448,Bonavista,38.79,93.0,8.34,5905393.0,CA,-53.1147,48.6499,73.0,1685610772.0
449,Pauini,70.88,97.0,0.6,3662927.0,BR,-66.9764,-7.7136,86.0,1685610966.0
450,Poso,82.56,82.0,1.1,1630723.0,ID,120.7524,-1.3959,100.0,1685610968.0
451,Hervey Bay,67.53,74.0,7.99,2146219.0,AU,152.8535,-25.2986,9.0,1685610970.0
452,Gambēla,86.85,54.0,2.93,337405.0,ET,34.5833,8.25,83.0,1685610973.0
453,Hede,75.58,72.0,9.71,1808744.0,CN,120.2517,33.7681,40.0,1685610975.0
454,Alice Springs,67.55,18.0,6.91,2077895.0,AU,133.8833,-23.7,0.0,1685610977.0
455,Tazmalt,69.39,59.0,1.83,2477537.0,DZ,4.3989,36.3868,28.0,1685610979.0
456,Mangaratiba,65.26,89.0,7.0,3457991.0,BR,-44.0406,-22.9597,5.0,1685610981.0
457,Porto-Novo,82.22,71.0,6.46,2392087.0,BJ,2.6036,6.4965,100.0,1685610800.0
458,Sabha,84.06,28.0,9.44,2212775.0,LY,14.4283,27.0377,0.0,1685610985.0
459,Salinópolis,77.97,85.0,7.65,3389822.0,BR,-47.3561,-0.6136,8.0,1685610988.0
460,Riyadh,100.54,20.0,3.47,108410.0,SA,46.7219,24.6877,63.0,1685610704.0
461,Jönköping,53.31,54.0,20.71,2702979.0,SE,14.1562,57.7814,0.0,1685610992.0
462,Yatou,69.55,77.0,13.82,1786855.0,CN,122.3833,37.15,10.0,1685610994.0
463,Jaru,70.05,96.0,3.22,3925040.0,BR,-62.4664,-10.4389,100.0,1685610996.0
464,Yashan,93.11,53.0,6.38,1786867.0,CN,109.9419,22.1975,85.0,1685610998.0
465,Bamiantong,57.29,79.0,8.08,2038482.0,CN,130.5333,44.9333,61.0,1685611000.0
466,Boa Vista,76.98,88.0,4.61,3664980.0,BR,-60.6733,2.8197,20.0,1685611002.0
467,Barra do Bugres,64.83,98.0,0.58,3470718.0,BR,-57.1811,-15.0725,4.0,1685611005.0
468,Butembo,78.6,38.0,1.97,217562.0,CD,29.2833,0.15,7.0,1685611007.0
469,Talaya,59.45,45.0,9.62,2120769.0,RU,152.75,61.3833,100.0,1685611009.0
470,Vengurla,88.84,66.0,12.46,1253257.0,IN,73.6333,15.8667,100.0,1685611011.0
471,Maracaçumé,71.17,98.0,2.71,3395497.0,BR,-45.9592,-2.0428,12.0,1685611013.0
472,Nouadhibou,69.78,83.0,19.57,2377457.0,MR,-17.0347,20.931,100.0,1685611015.0
473,La Celia,58.39,99.0,0.83,3679542.0,CO,-76.0167,5.0433,100.0,1685611018.0
474,Lüderitz,68.25,40.0,7.9,3355672.0,NA,15.1594,-26.6481,0.0,1685611020.0
475,Carutapera,75.22,91.0,4.45,3402648.0,BR,-46.02,-1.195,10.0,1685611022.0
476,Yauya,39.18,86.0,1.32,3690733.0,PE,-77.3,-8.9833,9.0,1685611024.0
477,Port Said,74.61,73.0,19.33,358619.0,EG,32.2841,31.2565,100.0,1685611026.0
478,Sambava,80.44,62.0,14.65,1056899.0,MG,50.1667,-14.2667,6.0,1685611028.0
479,Kafanchan,81.95,62.0,4.14,2335713.0,NG,8.3,9.5833,98.0,1685611030.0
480,Neftçala,77.63,61.0,16.04,147425.0,AZ,49.2472,39.3742,6.0,1685611033.0
481,Yhú,56.73,96.0,3.44,3436595.0,PY,-55.9167,-25.05,0.0,1685611035.0
482,Necochea,52.05,68.0,9.55,3430443.0,AR,-58.7368,-38.5473,0.0,1685610951.0
483,Muros,68.43,75.0,1.52,3115824.0,ES,-9.0603,42.7762,64.0,1685611039.0
484,Linxia Chengguanzhen,61.09,67.0,3.74,1803331.0,CN,103.2064,35.6003,100.0,1685611041.0
485,Tripoli,72.91,64.0,6.15,2210247.0,LY,13.1875,32.8752,32.0,1685611043.0
486,Ixtapa,71.74,90.0,0.56,4004293.0,MX,-105.2,20.7,48.0,1685611045.0
487,Santiago del Estero,59.92,93.0,5.41,3835869.0,AR,-64.2615,-27.7951,6.0,1685610883.0
488,Uribia,81.46,78.0,4.03,3666409.0,CO,-72.266,11.7139,97.0,1685611050.0
489,Rome,57.94,87.0,0.0,5134295.0,US,-75.4557,43.2128,0.0,1685611052.0
490,Xuanzhou,84.54,64.0,4.16,1788081.0,CN,118.7553,30.9525,63.0,1685611054.0
491,Arrondissement de Muret,64.63,89.0,2.24,2991152.0,FR,1.25,43.3333,100.0,1685611056.0
492,Orlik,52.88,52.0,4.7,1496073.0,RU,99.825,52.5178,100.0,1685611058.0
493,Toyoake,71.94,75.0,9.93,1856057.0,JP,137.0137,35.0594,100.0,1685611060.0
494,Ibrā’,105.28,16.0,14.14,287832.0,OM,58.5334,22.6906,0.0,1685611062.0
495,Ayagoz,72.95,23.0,17.07,1525988.0,KZ,80.4392,47.9714,0.0,1685611065.0
496,Deputatsky,40.48,63.0,2.35,2028164.0,RU,139.9,69.3,20.0,1685611067.0
497,Moyale,76.82,57.0,13.24,186180.0,KE,39.0584,3.5167,26.0,1685611069.0
498,Gresik,85.91,61.0,6.08,1643776.0,ID,112.6561,-7.1539,91.0,1685611071.0
499,Tsushima,72.55,78.0,8.46,1849539.0,JP,136.7167,35.1667,100.0,1685611073.0
500,Boralday,78.66,17.0,8.95,1526384.0,KZ,76.8594,43.3578,75.0,1685611075.0
501,Mahina,73.17,60.0,8.05,4034307.0,PF,-149.489,-17.5065,0.0,1685611077.0
502,Ust-Maya,57.33,87.0,2.39,2013918.0,RU,134.5333,60.4167,100.0,1685611079.0
503,General Pico,51.39,69.0,3.87,3855075.0,AR,-63.7568,-35.6566,10.0,1685611081.0
504,Labuan,89.96,62.0,4.61,1733782.0,MY,115.2417,5.2767,20.0,1685611084.0
505,Saint Anthony,70.29,71.0,6.91,5044290.0,US,-93.218,45.0205,100.0,1685611086.0
506,Iqaluit,26.33,86.0,25.32,5983720.0,CA,-68.5145,63.7506,75.0,1685611088.0
507,Haapiti,72.72,62.0,11.65,4034438.0,PF,-149.8667,-17.5667,0.0,1685611090.0
508,Sarankhola,95.94,48.0,11.12,1185239.0,BD,89.7897,22.3082,87.0,1685611092.0
509,Odienné,81.36,73.0,1.88,2283016.0,CI,-7.5692,9.51,89.0,1685611094.0
510,Miles City,61.77,63.0,6.91,5666176.0,US,-105.8406,46.4083,0.0,1685611096.0
511,Daru,77.61,88.0,14.94,2098329.0,PG,143.2092,-9.0763,99.0,1685611099.0
512,Umm Kaddadah,100.78,10.0,6.64,364933.0,SD,26.6876,13.6017,37.0,1685611101.0
513,Skegness,52.95,78.0,13.4,2637762.0,GB,0.3363,53.1436,100.0,1685611103.0
514,Saint-François,69.24,56.0,3.44,2980080.0,FR,3.9054,46.4154,0.0,1685611105.0
515,Semey,80.82,19.0,22.37,1519422.0,KZ,80.2275,50.4111,0.0,1685610929.0
516,Esperance,59.16,79.0,31.25,2071860.0,AU,121.9,-33.8667,100.0,1685611109.0
517,Selkirk,61.68,94.0,3.98,6144054.0,CA,-96.8845,50.1436,84.0,1685611111.0
518,Mahajanga,85.41,44.0,8.99,1062663.0,MG,46.3167,-15.7167,0.0,1685611113.0
519,Ruwi,105.49,40.0,10.56,287286.0,OM,58.5507,23.5996,41.0,1685611116.0
520,Pucallpa,72.37,95.0,0.65,3693345.0,PE,-74.5539,-8.3791,85.0,1685611118.0
521,Ginda,77.4,30.0,6.44,1253628.0,IN,78.4932,30.6945,98.0,1685611120.0
522,Hare Bay,40.6,61.0,2.06,5970873.0,CA,-54.0148,48.8499,25.0,1685611122.0
523,Kabalo,89.53,33.0,6.82,215668.0,CD,26.9167,-6.05,7.0,1685611124.0
524,Cockburn Town,81.52,85.0,18.63,3576994.0,TC,-71.1419,21.4612,100.0,1685611126.0
525,Kolomyia,69.4,60.0,4.81,705392.0,UA,25.0403,48.5306,27.0,1685611121.0
526,Odawara,69.28,80.0,9.42,1854747.0,JP,139.1597,35.2556,100.0,1685611130.0
527,Santa Cruz de la Sierra,67.46,94.0,2.3,3904906.0,BO,-63.1667,-17.8,75.0,1685610861.0
528,Derzhavīnsk,89.71,18.0,8.19,1524606.0,KZ,66.3167,51.1,59.0,1685611135.0
529,Raduzhny,80.46,28.0,15.86,1540356.0,RU,77.475,62.0961,97.0,1685611137.0
530,Gulariyā,105.33,14.0,13.42,1283368.0,NP,81.3333,28.2333,0.0,1685611139.0
531,Oudtshoorn,59.36,90.0,2.19,967106.0,ZA,22.2014,-33.5907,99.0,1685611141.0
532,Ruteng,65.52,87.0,2.04,1629380.0,ID,120.4721,-8.6136,99.0,1685611143.0
533,Sokolac,61.57,77.0,2.37,3190385.0,BA,18.8017,43.9397,75.0,1685611145.0
534,Jieshi,84.15,80.0,10.04,1805857.0,CN,115.8257,22.8134,5.0,1685611147.0
535,Porto Velho,75.25,94.0,3.44,3662762.0,BR,-63.9039,-8.7619,20.0,1685610986.0
536,Olinda,74.93,88.0,2.3,3393536.0,BR,-34.8553,-8.0089,20.0,1685611152.0
537,Vallenar,59.04,52.0,1.21,3868633.0,CL,-70.7581,-28.5708,5.0,1685611154.0
538,Bud,63.21,95.0,5.03,4255151.0,US,-86.1758,39.447,7.0,1685611156.0
539,Dhārchula,87.64,24.0,8.79,1272864.0,IN,80.5333,29.85,36.0,1685611158.0
540,Mabaruma,72.97,99.0,2.04,3377301.0,GY,-59.7833,8.2,99.0,1685611160.0
541,Nemuro,53.33,70.0,24.65,2128975.0,JP,145.575,43.3236,90.0,1685611162.0
542,Caucayá,70.88,99.0,1.95,3671437.0,CO,-74.7819,-0.1934,77.0,1685611164.0
543,Vanderhoof,39.02,59.0,3.4,6173361.0,CA,-124.0198,54.0166,9.0,1685611166.0
544,Maravilha,50.76,94.0,2.26,3457809.0,BR,-53.1725,-26.7608,9.0,1685611169.0
545,Nanlong,70.77,82.0,5.55,1799908.0,CN,106.0631,31.3533,100.0,1685611171.0
546,Seryshevo,64.13,50.0,9.33,2016942.0,RU,128.3786,51.0933,86.0,1685611173.0
547,Les Cayes,78.01,84.0,3.67,3728097.0,HT,-73.75,18.2,99.0,1685611175.0
548,Lagoa,63.05,80.0,3.65,3372964.0,PT,-27.9833,39.05,100.0,1685611177.0
549,Pacifica,52.48,86.0,13.0,5380420.0,US,-122.4869,37.6138,75.0,1685611081.0
550,Northam,61.25,76.0,16.64,2641434.0,GB,-4.2167,51.0333,7.0,1685611181.0
551,Rio Grande,57.43,86.0,6.8,3451138.0,BR,-52.0986,-32.035,5.0,1685611183.0
552,Gejiu,83.46,33.0,10.78,1810240.0,CN,103.1635,23.306,20.0,1685611186.0
553,Opuwo,77.05,24.0,4.56,3354077.0,NA,13.84,-18.0607,0.0,1685611188.0
554,La Ronge,59.25,88.0,16.11,6050066.0,CA,-105.2842,55.1001,40.0,1685611190.0
555,Yazykovo,75.09,63.0,10.18,468483.0,RU,56.1353,55.2199,70.0,1685611192.0
556,Batticaloa,89.64,60.0,12.37,1250161.0,LK,81.6924,7.7102,67.0,1685611194.0
557,Khasan,62.85,74.0,5.84,2039557.0,RU,130.6434,42.4308,92.0,1685611196.0
558,Kattivākkam,96.08,72.0,13.76,1267433.0,IN,80.3167,13.2167,100.0,1685611198.0
559,Arrondissement de Saint-Denis,69.39,65.0,11.5,2980915.0,FR,2.3333,48.9167,0.0,1685611200.0
560,Ende,77.34,83.0,4.72,1644932.0,ID,121.6623,-8.8432,85.0,1685611203.0
561,Harlingen,72.34,96.0,5.75,4696233.0,US,-97.6961,26.1906,20.0,1685611205.0
562,Zhicheng,85.32,55.0,5.08,1784554.0,CN,111.5047,30.2956,97.0,1685611207.0
563,Havelock,65.21,90.0,8.05,4470244.0,US,-76.9013,34.8791,100.0,1685611191.0
564,Madimba,82.47,67.0,7.43,878141.0,TZ,40.3333,-10.4,18.0,1685611211.0
565,Pacific Grove,52.77,82.0,6.91,5380437.0,US,-121.9166,36.6177,100.0,1685611213.0
566,Esim,82.87,76.0,5.93,2303611.0,GH,-2.2405,4.8699,100.0,1685611215.0
567,Gorontalo,83.12,80.0,4.29,1643837.0,ID,123.0595,0.5412,100.0,1685611218.0
568,Vaitape,76.86,62.0,12.1,4033077.0,PF,-151.75,-16.5167,23.0,1685611220.0
569,Ottawa,63.36,83.0,3.44,6094817.0,CA,-75.6981,45.4112,20.0,1685611132.0
570,Petropavl,89.58,20.0,8.95,1520172.0,KZ,69.1628,54.8753,0.0,1685611224.0
571,Bossangoa,90.84,45.0,3.8,2388036.0,CF,17.4552,6.4926,74.0,1685611226.0
572,Lavrentiya,30.33,98.0,5.66,4031637.0,RU,-171.0,65.5833,100.0,1685611228.0
573,Muskegon,65.05,76.0,5.75,5003136.0,US,-86.1334,43.3,0.0,1685611230.0
574,Lālmohan,90.63,58.0,12.21,1185251.0,BD,90.7419,22.3384,71.0,1685611233.0
575,Gainesville,71.1,82.0,5.75,4156404.0,US,-82.3248,29.6516,40.0,1685611145.0
