,City,Temp_max,Humidity,wind_speed,city_id,country_code,long,lat,Cloudiness,datetime
0,Flin Flon,75.04,35.0,2.3,5954718.0,CA,-101.865,54.7682,0.0,1685473202.0
1,Severo-Kuril'sk,40.69,97.0,25.12,2121385.0,RU,156.125,50.6789,100.0,1685473204.0
2,Codrington,57.13,85.0,14.34,2171099.0,AU,141.9667,-38.2667,100.0,1685473207.0
3,Bredasdorp,56.64,88.0,13.44,1015776.0,ZA,20.0403,-34.5322,99.0,1685473212.0
4,Kindersley,80.62,34.0,19.57,5992154.0,CA,-109.1682,51.4668,20.0,1685473217.0
5,Kavieng,84.02,76.0,10.36,2094342.0,PG,150.7967,-2.5744,38.0,1685473221.0
6,Brae,49.86,83.0,17.18,2654970.0,GB,-1.353,60.3964,100.0,1685473227.0
7,Hithadhoo,83.75,75.0,12.26,1282256.0,MV,73.0833,-0.6,97.0,1685473231.0
8,Ponta Delgada,63.32,82.0,4.61,3372783.0,PT,-25.6667,37.7333,40.0,1685473233.0
9,Kaitangata,39.69,87.0,4.43,2208248.0,NZ,169.8464,-46.2817,19.0,1685473235.0
10,Neiafu,77.68,94.0,12.66,4032420.0,TO,-173.9833,-18.65,40.0,1685473238.0
11,Busselton,63.79,85.0,1.28,2075265.0,AU,115.3333,-33.65,100.0,1685473240.0
12,Kudahuvadhoo,83.34,76.0,12.53,1337607.0,MV,72.8944,2.6708,100.0,1685473242.0
13,Port Macquarie,42.89,66.0,4.83,2152659.0,AU,152.9167,-31.4333,3.0,1685473212.0
14,Jamestown,78.33,38.0,5.75,5122534.0,US,-79.2353,42.097,0.0,1685473201.0
15,Nantucket,56.19,81.0,12.39,4944903.0,US,-70.0995,41.2835,1.0,1685473231.0
16,São João da Barra,77.09,61.0,9.01,3448903.0,BR,-41.0511,-21.6403,88.0,1685473239.0
17,Castlebar,66.58,66.0,5.64,2965654.0,IE,-9.3,53.85,11.0,1685473252.0
18,Katobu,73.04,98.0,3.85,1640972.0,ID,122.5276,-4.9408,100.0,1685473255.0
19,Port Lincoln,58.17,76.0,10.83,2063036.0,AU,135.8667,-34.7333,100.0,1685473257.0
20,Padampur,72.28,81.0,10.8,1260938.0,IN,73.6167,29.6833,100.0,1685473259.0
21,Cayenne,87.84,62.0,12.66,3382160.0,GF,-52.3333,4.9333,20.0,1685473261.0
22,Norman Wells,62.64,48.0,12.66,6089245.0,CA,-126.8329,65.282,75.0,1685473263.0
23,Upernavik,31.62,99.0,7.43,3418910.0,GL,-56.1549,72.7868,100.0,1685473266.0
24,Ushuaia,53.26,66.0,8.05,3833367.0,AR,-68.3,-54.8,75.0,1685473268.0
25,Tasiilaq,39.36,89.0,3.47,3424607.0,GL,-37.6368,65.6145,15.0,1685473270.0
26,Thunder Bay,67.91,42.0,11.5,6166142.0,CA,-89.3168,48.4001,75.0,1685473272.0
27,Provideniya,37.8,58.0,4.09,4031574.0,RU,-173.3,64.3833,84.0,1685473275.0
28,Cap Malheureux,71.47,74.0,1.99,934649.0,MU,57.6142,-19.9842,0.0,1685473273.0
29,West Wendover,72.61,28.0,9.22,5710035.0,US,-114.0733,40.7391,0.0,1685473279.0
30,Tautira,78.87,80.0,6.91,4033557.0,PF,-149.15,-17.7333,26.0,1685473281.0
31,Avarua,71.65,60.0,5.75,4035715.0,CK,-159.775,-21.2078,20.0,1685473210.0
32,Punta Arenas,44.71,93.0,5.75,3874787.0,CL,-70.9167,-53.15,40.0,1685473255.0
33,Ozernovskiy,42.94,91.0,10.16,2122293.0,RU,156.5167,51.5,100.0,1685473288.0
34,Aksu,69.82,27.0,3.83,1529660.0,CN,80.2644,41.1231,78.0,1685473290.0
35,Arrondissement d'Ajaccio,66.18,78.0,3.44,3038333.0,FR,8.9167,42.0,75.0,1685473292.0
36,Cabedelo,86.67,74.0,16.6,3404558.0,BR,-34.8339,-6.9811,68.0,1685473294.0
37,Dikson,41.16,76.0,24.45,1507390.0,RU,80.5464,73.5069,100.0,1685473296.0
38,Hobart,59.13,73.0,14.97,2163355.0,AU,147.3294,-42.8794,75.0,1685473240.0
39,Vestmannaeyjar,45.59,87.0,14.97,3412093.0,IS,-20.2734,63.4427,75.0,1685473301.0
40,Alofi,73.29,83.0,8.05,4036284.0,NU,-169.9187,-19.0595,89.0,1685473303.0
41,Carnarvon,69.03,74.0,7.02,2074865.0,AU,113.6333,-24.8667,0.0,1685473305.0
42,Saint-Philippe,69.39,79.0,6.38,935215.0,RE,55.7679,-21.3585,38.0,1685473307.0
43,Cabra,68.29,48.0,6.13,2520645.0,ES,-4.4421,37.4725,100.0,1685473309.0
44,Feldbach,65.21,64.0,7.9,2779685.0,AT,15.8883,46.9531,8.0,1685473312.0
45,Tual,81.37,80.0,20.98,1623197.0,ID,132.75,-5.6667,27.0,1685473314.0
46,Longyearbyen,33.64,86.0,12.66,2729907.0,SJ,15.6401,78.2186,75.0,1685473316.0
47,Dukat,43.32,65.0,4.05,2125906.0,RU,155.55,62.55,86.0,1685473318.0
48,Jalu,91.13,14.0,18.79,86049.0,LY,21.5482,29.0331,87.0,1685473320.0
49,Vaini,77.16,88.0,12.66,4032243.0,TO,-175.2,-21.2,40.0,1685473323.0
50,Albany,77.56,36.0,5.01,5106841.0,US,-73.9662,42.6001,7.0,1685473250.0
51,Karaton,73.98,93.0,1.68,1630058.0,ID,106.1045,-6.3424,37.0,1685473327.0
52,Saldanha,57.25,93.0,12.73,3361934.0,ZA,17.9442,-33.0117,100.0,1685473329.0
53,Castro,57.07,87.0,6.2,3466704.0,BR,-50.0119,-24.7911,100.0,1685473279.0
54,Inhambane,68.0,82.0,0.0,1045114.0,MZ,35.3833,-23.865,0.0,1685473333.0
55,Mataura,42.01,86.0,5.28,6201424.0,NZ,168.8643,-46.1927,100.0,1685473336.0
56,Puerto Ayora,80.55,92.0,8.01,3652764.0,EC,-90.3518,-0.7393,100.0,1685473339.0
57,Arraial do Cabo,71.46,78.0,4.61,3471451.0,BR,-42.0278,-22.9661,75.0,1685473341.0
58,Obihiro,43.23,87.0,4.85,2128815.0,JP,143.2044,42.9172,0.0,1685473343.0
59,Penzance,61.48,80.0,11.5,2640377.0,GB,-5.5371,50.1186,5.0,1685473345.0
60,Butaritari,82.8,74.0,3.71,2110227.0,KI,172.7902,3.0707,100.0,1685473347.0
61,Rikitea,76.84,72.0,17.18,4030556.0,PF,-134.9692,-23.1203,100.0,1685473349.0
62,Namatanai,79.74,85.0,4.18,2090021.0,PG,152.4333,-3.6667,100.0,1685473351.0
63,Isangel,69.91,83.0,0.0,2136825.0,VU,169.2667,-19.55,40.0,1685473354.0
64,Saint George,84.88,15.0,6.91,5546220.0,US,-113.5841,37.1041,0.0,1685473356.0
65,Kruisfontein,58.15,89.0,1.32,986717.0,ZA,24.7314,-34.0033,100.0,1685473358.0
66,Mwinilunga,65.19,53.0,1.72,902620.0,ZM,24.4293,-11.7358,38.0,1685473360.0
67,Port Alfred,57.18,95.0,13.76,964432.0,ZA,26.891,-33.5906,100.0,1685473362.0
68,Marzuq,81.19,55.0,5.64,72181.0,YE,46.4667,14.4,59.0,1685473364.0
69,Puerto Escondido,89.98,57.0,8.52,3520994.0,MX,-97.0667,15.85,6.0,1685473071.0
70,Sivaki,42.84,96.0,3.4,2016477.0,RU,126.75,52.6333,2.0,1685473369.0
71,Yellowknife,54.12,54.0,15.01,6185377.0,CA,-114.3525,62.456,20.0,1685473371.0
72,Canchungo,91.53,72.0,10.36,2373951.0,GW,-16.0333,12.0672,12.0,1685473373.0
73,Östersund,50.45,34.0,19.57,2685750.0,SE,14.6357,63.1792,40.0,1685473375.0
74,Fort Nelson,59.95,30.0,5.99,5955902.0,CA,-122.7002,58.8053,75.0,1685473378.0
75,Castelo Branco,61.21,75.0,6.04,2269514.0,PT,-7.4909,39.8222,80.0,1685473380.0
76,Black River,83.66,77.0,8.28,3491355.0,JM,-77.8487,18.0264,100.0,1685473179.0
77,Atuona,81.37,64.0,15.86,4020109.0,PF,-139.0333,-9.8,0.0,1685473276.0
78,Birao,86.49,47.0,4.03,240210.0,CF,22.7882,10.2849,81.0,1685473386.0
79,Ekhabi,33.76,98.0,8.37,2122614.0,RU,142.9671,53.5102,100.0,1685473388.0
80,Barrow,32.02,86.0,10.36,5880054.0,US,-156.7887,71.2906,100.0,1685473390.0
81,Hilo,75.0,92.0,7.0,5855927.0,US,-155.09,19.7297,100.0,1685473393.0
82,Mehamn,42.75,65.0,5.75,778707.0,NO,27.8492,71.0357,40.0,1685473395.0
83,Shingū,64.99,92.0,4.99,1847947.0,JP,135.9833,33.7333,100.0,1685473397.0
84,George Town,83.44,81.0,4.61,1735106.0,MY,100.3354,5.4112,20.0,1685473182.0
85,Russell,81.05,50.0,3.44,4047434.0,US,-85.1999,32.3502,75.0,1685473217.0
86,Sidhi,92.53,27.0,6.42,1256369.0,IN,81.8833,24.4167,8.0,1685473408.0
87,Laramie,74.16,17.0,11.5,5830062.0,US,-105.5911,41.3114,40.0,1685473411.0
88,Bluff,49.1,82.0,18.63,2206939.0,NZ,168.3333,-46.6,100.0,1685473413.0
89,Bayir,61.32,94.0,3.85,304183.0,TR,28.2167,37.2687,4.0,1685473415.0
90,Vila Velha,75.94,71.0,11.5,3445026.0,BR,-40.2925,-20.3297,75.0,1685473184.0
91,Kapaa,77.07,83.0,7.0,5848280.0,US,-159.319,22.0752,22.0,1685473419.0
92,Margate,52.84,82.0,11.99,2643044.0,GB,1.3862,51.3813,100.0,1685473324.0
93,Kamaishi,52.02,86.0,3.91,2112444.0,JP,141.8833,39.2667,100.0,1685473424.0
94,Stăncuţa,65.68,62.0,4.47,666309.0,RO,27.8333,44.9,9.0,1685473427.0
95,Ankang,69.31,93.0,2.3,1789065.0,CN,109.0172,32.68,93.0,1685473429.0
96,Port Elizabeth,60.31,91.0,5.75,964420.0,ZA,25.5701,-33.918,0.0,1685473431.0
97,Morant Bay,87.42,72.0,9.19,3489440.0,JM,-76.4093,17.8815,100.0,1685473433.0
98,São Miguel,84.97,73.0,17.07,3388304.0,BR,-35.3667,-5.4667,9.0,1685473435.0
99,Guerrero Negro,67.3,54.0,16.11,4021858.0,MX,-114.0611,27.9769,1.0,1685473442.0
100,Husavik,42.46,84.0,13.69,2629833.0,IS,-17.3389,66.0449,4.0,1685473444.0
101,Ahipara,54.82,87.0,7.0,2194098.0,NZ,173.1667,-35.1667,84.0,1685473446.0
102,Saint Paul Harbor,47.71,71.0,8.05,5866583.0,US,-152.4072,57.79,0.0,1685473449.0
103,Mahébourg,75.49,69.0,5.75,934322.0,MU,57.7,-20.4081,40.0,1685473266.0
104,Mount Isa,38.97,70.0,0.0,2065594.0,AU,139.5,-20.7333,99.0,1685473453.0
105,Te Anau,46.35,93.0,7.31,2181625.0,NZ,167.7167,-45.4167,100.0,1685473455.0
106,Alenquer,84.69,73.0,3.36,3407980.0,BR,-54.7383,-1.9417,98.0,1685473290.0
107,São Miguel do Araguaia,93.22,28.0,6.24,3448455.0,BR,-50.1628,-13.275,100.0,1685473459.0
108,Kriel,57.81,62.0,7.67,987202.0,ZA,29.2253,-26.2739,7.0,1685473462.0
109,Marsh Harbour,79.59,76.0,7.56,3571913.0,BS,-77.0636,26.5412,100.0,1685473464.0
110,Souillac,75.58,69.0,5.75,933995.0,MU,57.5167,-20.5167,40.0,1685473466.0
111,Tigil',52.7,73.0,10.38,2120612.0,RU,158.6667,57.8,100.0,1685473468.0
112,Kaeo,54.79,93.0,4.21,2189343.0,NZ,173.7833,-35.1,98.0,1685473470.0
113,Cape Town,55.71,91.0,9.22,3369157.0,ZA,18.4232,-33.9258,75.0,1685473388.0
114,Cidreira,67.86,70.0,16.75,3466165.0,BR,-50.2056,-30.1811,100.0,1685473475.0
115,Khatanga,32.22,81.0,8.48,2022572.0,RU,102.5,71.9667,39.0,1685473477.0
116,Karlshamn,55.89,75.0,7.34,2701727.0,SE,14.8619,56.1706,0.0,1685473479.0
117,Pevek,32.83,90.0,13.29,2122090.0,RU,170.3133,69.7008,100.0,1685473481.0
118,Mar del Plata,59.95,52.0,12.66,3430863.0,AR,-57.5575,-38.0023,0.0,1685473209.0
119,Gobabis,52.25,30.0,9.6,3357247.0,NA,18.9667,-22.45,0.0,1685473485.0
120,Gaoyou,69.35,86.0,4.32,1810309.0,CN,119.4278,32.7858,100.0,1685473488.0
121,Bethel,69.19,45.0,4.61,5282297.0,US,-73.414,41.3712,0.0,1685473490.0
122,Santa Maria da Vitória,91.29,27.0,7.2,3450063.0,BR,-44.1886,-13.3947,51.0,1685473492.0
123,Banda Aceh,81.39,75.0,14.14,1215502.0,ID,95.3222,5.5577,100.0,1685473494.0
124,Georgiyevka,60.84,39.0,8.95,1524243.0,KZ,74.7114,43.0369,0.0,1685473496.0
125,Zonguldak,53.6,93.0,2.62,737021.0,TR,31.8333,41.25,43.0,1685473498.0
126,Booué,79.16,76.0,2.26,2401495.0,GA,11.9385,-0.0921,37.0,1685473501.0
127,Siyabuswa,63.07,57.0,8.08,955313.0,ZA,29.0445,-25.1132,11.0,1685473503.0
128,Dunedin,50.81,53.0,3.0,2191562.0,NZ,170.5036,-45.8742,7.0,1685473249.0
129,Roald,51.71,81.0,24.16,3141667.0,NO,6.1333,62.5833,75.0,1685473507.0
130,Tweed,81.86,38.0,5.53,6170799.0,CA,-77.3162,44.4751,6.0,1685473509.0
131,Nanortalik,44.04,84.0,15.9,3421765.0,GL,-45.2371,60.1432,100.0,1685473511.0
132,Port Blair,80.64,94.0,1.14,1259385.0,IN,92.75,11.6667,40.0,1685473316.0
133,Lubango,58.19,56.0,1.68,3347762.0,AO,13.4925,-14.9172,63.0,1685473521.0
134,Shumskiy,47.44,96.0,1.72,1491977.0,RU,99.1328,54.8318,100.0,1685473523.0
135,San Cristobal,80.78,73.0,3.53,3628473.0,VE,-72.225,7.7669,77.0,1685473400.0
136,Nioro,96.53,38.0,16.02,2412408.0,GM,-15.75,13.35,36.0,1685473527.0
137,Thompson,68.16,64.0,12.66,6165406.0,CA,-97.8558,55.7435,75.0,1685473384.0
138,Manaus,90.09,66.0,6.91,3663517.0,BR,-60.025,-3.1019,40.0,1685473314.0
139,Laguna,70.03,53.0,9.22,5364271.0,US,-121.4238,38.421,0.0,1685473534.0
140,Hermanus,58.8,94.0,14.18,3366880.0,ZA,19.2345,-34.4187,100.0,1685473536.0
141,Westport,67.12,47.0,10.36,4845585.0,US,-73.3579,41.1415,20.0,1685473538.0
142,Dicabisagan,81.03,74.0,5.91,1715015.0,PH,122.4157,17.0818,100.0,1685473540.0
143,Newport,60.13,71.0,18.19,2641598.0,GB,-2.9984,51.5877,5.0,1685473389.0
144,Tateyama,67.93,94.0,5.75,1850523.0,JP,139.8667,34.9833,100.0,1685473545.0
145,Kuznechikha,58.28,69.0,5.12,537760.0,RU,42.3348,57.2161,100.0,1685473547.0
146,Poum,72.66,71.0,12.57,2138555.0,NC,164.0167,-20.2333,100.0,1685473549.0
147,Chokurdakh,33.46,88.0,9.95,2126123.0,RU,147.9167,70.6333,100.0,1685473551.0
148,Coquimbo,60.53,77.0,11.5,3893629.0,CL,-71.3436,-29.9533,40.0,1685473443.0
149,Ust-Nera,53.53,65.0,3.02,2120048.0,RU,143.2,64.5667,100.0,1685473555.0
150,Kavaratti,85.71,72.0,2.98,1267390.0,IN,72.642,10.5669,46.0,1685473557.0
151,Eruwa,81.1,71.0,8.61,2338669.0,NG,3.4167,7.5333,84.0,1685473560.0
152,Polyarny,48.02,57.0,5.14,506763.0,RU,33.4478,69.1989,100.0,1685473562.0
153,Ribeira Grande,68.4,68.0,14.97,3372707.0,PT,-28.7,38.5167,20.0,1685473564.0
154,Kalemie,72.14,72.0,1.39,214974.0,CD,29.1947,-5.9475,39.0,1685473566.0
155,Tuktoyaktuk,46.4,71.0,4.61,6170031.0,CA,-133.0374,69.4541,40.0,1685473568.0
156,Tomatlán,95.92,33.0,12.64,3981391.0,MX,-105.25,19.9333,0.0,1685473570.0
157,Bratca,58.42,87.0,3.09,683837.0,RO,22.6167,46.9333,27.0,1685473572.0
158,Chiang Khong,76.71,82.0,1.03,1611197.0,TH,100.4046,20.2613,100.0,1685473575.0
159,Gijang,62.33,82.0,11.25,1842966.0,KR,129.2139,35.2442,100.0,1685473577.0
160,Vao,71.04,69.0,18.77,2137773.0,NC,167.4833,-22.6667,100.0,1685473579.0
161,Marawi,70.97,88.0,7.18,1701054.0,PH,124.2928,7.9986,100.0,1685473581.0
162,Kununurra,49.98,76.0,2.3,2068110.0,AU,128.7333,-15.7667,7.0,1685473583.0
163,Ponta do Sol,71.94,75.0,5.19,2264557.0,PT,-17.1,32.6667,20.0,1685473586.0
164,Vanimo,78.39,87.0,1.77,2084442.0,PG,141.3028,-2.6741,52.0,1685473311.0
165,Kenai,47.32,72.0,21.85,5866063.0,US,-151.2583,60.5544,100.0,1685473590.0
166,Tarnogskiy Gorodok,51.42,93.0,2.13,484314.0,RU,43.5761,60.4997,100.0,1685473592.0
167,Tottori-shi,61.11,82.0,1.57,1849892.0,JP,134.2333,35.5,100.0,1685473522.0
168,Baracoa,84.61,72.0,2.53,3567834.0,CU,-74.4958,20.3467,100.0,1685473601.0
169,Krasnyy Kholm,51.73,96.0,7.18,541704.0,RU,37.1203,58.0607,98.0,1685473603.0
170,Nabire,77.02,92.0,3.2,1634614.0,ID,135.4833,-3.3667,98.0,1685473606.0
171,Zaysan,48.47,79.0,5.88,1517060.0,KZ,84.8667,47.4667,11.0,1685473608.0
172,New Norfolk,54.0,76.0,1.01,2155415.0,AU,147.0587,-42.7826,100.0,1685473610.0
173,Muhos,49.77,55.0,8.34,645765.0,FI,25.9931,64.808,97.0,1685473612.0
174,Sabzawār,80.47,11.0,15.93,118063.0,IR,57.6819,36.2126,89.0,1685473614.0
175,Catuday,82.04,78.0,16.82,1717787.0,PH,119.8062,16.2923,100.0,1685473616.0
176,Enshi,73.38,97.0,2.19,1811720.0,CN,109.4833,30.3,92.0,1685473618.0
177,Timiryazevskiy,48.96,77.0,4.97,1489597.0,RU,84.8769,56.49,100.0,1685473621.0
178,Aklavik,63.81,53.0,6.53,5882953.0,CA,-135.0107,68.2191,99.0,1685473623.0
179,Pochutla,93.81,43.0,9.8,3517970.0,MX,-96.4661,15.7432,16.0,1685473625.0
180,Bathsheba,86.61,74.0,10.36,3374083.0,BB,-59.5167,13.2167,40.0,1685473627.0
181,Salalah,86.09,79.0,5.75,286621.0,OM,54.0924,17.0151,20.0,1685473629.0
182,Airai,59.14,94.0,3.6,1651810.0,TL,125.4092,-8.9266,95.0,1685473631.0
183,Fuyang,69.49,89.0,4.81,1810845.0,CN,115.8167,32.9,91.0,1685473634.0
184,Makakilo City,78.62,61.0,11.5,5850554.0,US,-158.0858,21.3469,20.0,1685473636.0
185,Impfondo,77.9,68.0,2.91,2259655.0,CG,18.0667,1.6381,39.0,1685473371.0
186,Anloga,82.71,77.0,10.47,2304548.0,GH,0.8973,5.7947,35.0,1685473640.0
187,Chui,61.59,69.0,5.59,3443061.0,UY,-53.4616,-33.6971,100.0,1685473362.0
188,Nishihara,79.88,90.0,19.57,1855342.0,JP,127.7558,26.1842,100.0,1685473645.0
189,Bariloche,53.35,54.0,20.71,7647007.0,AR,-71.3082,-41.1456,40.0,1685473647.0
190,Kristianstad,64.54,45.0,9.22,2699310.0,SE,14.1524,56.0313,0.0,1685473649.0
191,Cabo San Lucas,84.51,42.0,6.91,3985710.0,MX,-109.9124,22.8909,0.0,1685473408.0
192,Hunchun,50.41,66.0,3.27,2036653.0,CN,130.3581,42.8675,50.0,1685473653.0
193,Aykhal,30.61,88.0,13.04,2027296.0,RU,111.5,66.0,22.0,1685473655.0
194,Nchelenge,74.17,65.0,4.83,175499.0,ZM,28.734,-9.3451,62.0,1685473658.0
195,Hobyo,83.08,80.0,23.2,57000.0,SO,48.5268,5.3505,85.0,1685473660.0
196,Pechenga,48.78,56.0,10.96,511865.0,RU,31.1703,69.5259,100.0,1685473662.0
197,Hambantota,80.94,100.0,3.44,1244926.0,LK,81.1185,6.1241,20.0,1685473664.0
198,Lompoc,61.52,74.0,4.61,5367788.0,US,-120.4579,34.6391,100.0,1685473666.0
199,Hasaki,64.81,77.0,18.84,2112802.0,JP,140.8333,35.7333,100.0,1685473668.0
200,Departamento de Maldonado,61.57,56.0,6.29,3441890.0,UY,-54.9167,-34.6667,100.0,1685473566.0
201,Naze,74.32,95.0,4.61,1855540.0,JP,129.4833,28.3667,96.0,1685473525.0
202,Nikolskoye,49.89,73.0,3.87,546105.0,RU,30.7861,59.7035,7.0,1685473674.0
203,Dul'durga,54.64,38.0,4.88,2024812.0,RU,113.5931,50.6761,100.0,1685473677.0
204,Leh,45.82,72.0,2.57,1264976.0,IN,77.5833,34.1667,100.0,1685473661.0
205,Lata,64.02,90.0,4.25,2738381.0,PT,-8.3327,40.1629,95.0,1685473681.0
206,Tiksi,27.19,86.0,3.56,2015306.0,RU,128.8694,71.6872,10.0,1685473578.0
207,Qaanaaq,22.64,65.0,2.35,3831208.0,GL,-69.3632,77.484,0.0,1685473685.0
208,Ilulissat,35.62,93.0,6.91,3423146.0,GL,-51.1,69.2167,75.0,1685473687.0
209,Saint-Augustin,51.76,76.0,14.14,6137462.0,CA,-58.6502,51.226,100.0,1685473695.0
210,Saskylakh,31.84,82.0,4.94,2017155.0,RU,114.0833,71.9167,60.0,1685473697.0
211,Tessalit,94.51,20.0,12.37,2449893.0,ML,1.0114,20.1986,35.0,1685473699.0
212,Rayong,84.79,82.0,4.85,1607016.0,TH,101.4333,12.8333,100.0,1685473701.0
213,Sur,89.91,57.0,13.69,286245.0,OM,59.5289,22.5667,0.0,1685473665.0
214,Bereket,89.8,10.0,16.67,161974.0,TM,55.5154,39.2446,97.0,1685473706.0
215,Staraya Kulatka,68.43,65.0,4.41,489164.0,RU,47.6167,52.7167,100.0,1685473708.0
216,Roswell,79.23,57.0,9.22,4219934.0,US,-84.3616,34.0232,75.0,1685473561.0
217,Santa Luzia,74.16,56.0,10.36,3450144.0,BR,-43.8514,-19.7697,75.0,1685473469.0
218,São Filipe,76.62,72.0,12.64,3374210.0,CV,-24.4956,14.8961,100.0,1685473714.0
219,San Luis,67.17,35.0,4.32,3837056.0,AR,-66.3356,-33.295,100.0,1685473716.0
220,Fairbanks,43.56,93.0,5.75,5861897.0,US,-147.7164,64.8378,100.0,1685473502.0
221,Sibolga,77.18,91.0,1.66,1213855.0,ID,98.7792,1.7427,100.0,1685473720.0
222,Pahrump,83.66,19.0,10.0,5509851.0,US,-115.9839,36.2083,75.0,1685473645.0
223,Narsaq,52.02,82.0,4.63,3421719.0,GL,-46.05,60.9167,100.0,1685473724.0
224,Hamilton,83.71,52.0,8.05,4513583.0,US,-84.5333,39.1834,40.0,1685473727.0
225,Fortuna,56.59,84.0,3.44,5563839.0,US,-124.1573,40.5982,100.0,1685473729.0
226,Ayan,41.41,87.0,13.18,2027316.0,RU,138.1667,56.45,100.0,1685473736.0
227,El Dorado,63.21,67.0,3.0,5345659.0,US,-120.5177,38.7666,19.0,1685473738.0
228,Leonidovo,43.14,85.0,6.98,2123805.0,RU,142.8667,49.2833,99.0,1685473740.0
229,Chicama,75.74,61.0,9.82,3698359.0,PE,-79.1469,-7.8447,21.0,1685473742.0
230,Umluj,83.43,53.0,9.37,100926.0,SA,37.2685,25.0213,0.0,1685473744.0
231,Acapulco de Juárez,91.22,66.0,4.61,3533462.0,MX,-99.8901,16.8634,0.0,1685473740.0
232,Santa Maria,67.3,68.0,5.75,3450083.0,BR,-53.8069,-29.6842,20.0,1685473484.0
233,Ubinskoye,55.0,52.0,4.36,1488708.0,RU,79.6802,55.3068,4.0,1685473751.0
234,Flinders,60.57,67.0,7.0,6255012.0,AU,150.8552,-34.5833,100.0,1685473753.0
235,Broome,80.96,36.0,7.0,5110365.0,US,-75.833,42.2506,0.0,1685473755.0
236,Mossamedes,67.42,65.0,5.17,3347019.0,AO,12.1522,-15.1961,92.0,1685473757.0
237,Orange Cove,71.8,49.0,6.91,5379533.0,US,-119.3137,36.6244,0.0,1685473759.0
238,Barra Patuca,89.65,59.0,11.65,3614835.0,HN,-84.2833,15.8,98.0,1685473761.0
239,Arlit,96.21,10.0,7.49,2447513.0,NE,7.3853,18.7369,52.0,1685473764.0
240,Chilia Veche,66.69,56.0,7.67,682117.0,RO,29.2833,45.4167,55.0,1685473766.0
241,Conde,83.66,65.0,14.97,3385077.0,BR,-34.9075,-7.2597,20.0,1685473768.0
242,Bulungu,75.6,77.0,1.92,2316259.0,CD,18.6,-4.55,65.0,1685473770.0
243,Baker City,69.15,46.0,0.0,5712169.0,US,-117.8344,44.7749,0.0,1685473772.0
244,Rājākhera,89.1,36.0,4.03,1258930.0,IN,78.1714,26.8961,4.0,1685473774.0
245,Portland,61.29,49.0,8.05,5746545.0,US,-122.6762,45.5234,75.0,1685473695.0
246,Birkeland,60.35,55.0,11.5,3161532.0,NO,8.2323,58.3309,0.0,1685473779.0
247,Dvinskoy Bereznik,51.04,58.0,3.31,577240.0,RU,42.7072,62.8551,85.0,1685473781.0
248,Jalingo,83.95,60.0,5.59,2336589.0,NG,11.3667,8.8833,23.0,1685473721.0
249,Yar-Sale,49.42,89.0,23.44,1486321.0,RU,70.8333,66.8333,100.0,1685473785.0
250,Tafresh,71.62,38.0,2.33,113636.0,IR,50.013,34.692,96.0,1685473787.0
251,Homer,47.57,70.0,4.61,5864145.0,US,-151.5483,59.6425,100.0,1685473789.0
252,Mandalgovi,47.55,64.0,13.73,2030065.0,MN,106.2708,45.7625,100.0,1685473791.0
253,Kibala,88.07,45.0,1.16,2425791.0,TD,18.3463,9.1104,100.0,1685473793.0
254,Ulladulla,53.64,81.0,4.63,2145554.0,AU,150.4667,-35.35,46.0,1685473796.0
255,Sitka,46.29,81.0,3.44,5557293.0,US,-135.33,57.0531,100.0,1685473798.0
256,Leningradskiy,35.37,90.0,25.95,2123814.0,RU,178.4167,69.3833,100.0,1685473800.0
257,Takāb,60.49,58.0,1.12,113508.0,IR,47.1133,36.4009,11.0,1685473802.0
258,Tarancón,62.4,66.0,3.31,3108317.0,ES,-3.0073,40.0085,100.0,1685473804.0
259,Goderich,65.91,71.0,5.61,5962442.0,CA,-81.7165,43.7501,6.0,1685473806.0
260,Rosa Zarate,85.1,71.0,2.8,3652257.0,EC,-79.4667,0.3333,92.0,1685473809.0
261,Luganville,75.88,75.0,11.83,2136150.0,VU,167.1667,-15.5333,99.0,1685473811.0
262,Druzhba,60.22,63.0,2.82,709584.0,UA,33.9453,52.0428,98.0,1685473813.0
263,Valea lui Mihai,67.71,88.0,8.34,663692.0,RO,22.15,47.5167,18.0,1685473815.0
264,Ancud,53.15,89.0,20.85,3899695.0,CL,-73.8203,-41.8697,100.0,1685473818.0
265,Matagami,87.55,28.0,9.1,6067747.0,CA,-77.6328,49.7502,13.0,1685473820.0
266,Peniche,65.48,85.0,7.74,2264923.0,PT,-9.3811,39.3558,15.0,1685473832.0
267,Miraflores,75.94,24.0,5.79,3761194.0,MX,-98.8083,19.2167,2.0,1685473834.0
268,Lebu,54.39,84.0,11.95,3883457.0,CL,-73.65,-37.6167,100.0,1685473836.0
269,Crawley,56.46,64.0,16.11,2652053.0,GB,-0.1831,51.113,75.0,1685473838.0
270,Khonsa,70.97,77.0,3.74,1266668.0,IN,95.5667,27.0167,74.0,1685473840.0
271,Yumen,54.55,17.0,6.42,1528998.0,CN,97.2,40.2833,10.0,1685473843.0
272,Bubaque,82.54,83.0,12.5,2374583.0,GW,-15.8333,11.2833,3.0,1685473845.0
273,Ribas do Rio Pardo,64.42,98.0,6.24,3451399.0,BR,-53.7592,-20.4431,100.0,1685473847.0
274,Malbork,51.69,91.0,7.43,3092472.0,PL,19.0266,54.0359,0.0,1685473849.0
275,Saint-Leu,68.22,90.0,6.4,6690297.0,RE,55.2833,-21.15,8.0,1685473851.0
276,Arkhara,47.53,58.0,4.05,2027487.0,RU,130.0842,49.4212,94.0,1685473853.0
277,Tura,78.94,61.0,3.4,1254046.0,IN,90.2201,25.5198,100.0,1685473855.0
278,Ingham,88.38,32.0,4.61,4997130.0,US,-84.3833,42.6,0.0,1685473857.0
279,Sarandi,61.16,95.0,7.36,3447998.0,BR,-51.8739,-23.4436,100.0,1685473859.0
280,Biak,76.01,86.0,7.27,1637001.0,ID,122.8766,-0.9131,97.0,1685473862.0
281,Nieuw Amsterdam,80.35,86.0,0.0,3383434.0,SR,-55.0833,5.8833,40.0,1685473864.0
282,Boundiali,83.79,63.0,7.0,2290836.0,CI,-6.4869,9.5217,96.0,1685473866.0
283,Aitape,77.67,91.0,4.16,2101169.0,PG,142.3475,-3.1374,58.0,1685473868.0
284,Manadhoo,84.15,75.0,8.57,1337618.0,MV,73.3833,5.7667,95.0,1685473596.0
285,Ca Mau,79.7,84.0,5.44,1586443.0,VN,105.15,9.1769,96.0,1685473872.0
286,San Patricio,86.77,52.0,6.93,4726521.0,US,-97.5169,28.017,65.0,1685473875.0
287,Portree,56.52,76.0,7.16,2640006.0,GB,-6.1942,57.4129,59.0,1685473877.0
288,Srednekolymsk,54.01,62.0,13.53,2121025.0,RU,153.6833,67.45,48.0,1685473879.0
289,Zhangaözen,86.22,11.0,21.39,607610.0,KZ,52.8,43.3,68.0,1685473881.0
290,Mayo,72.7,62.0,11.01,4362001.0,US,-76.5119,38.8876,0.0,1685473883.0
291,Hualmay,74.97,68.0,11.74,3939761.0,PE,-77.6139,-11.0964,2.0,1685473886.0
292,Púchov,61.29,71.0,6.87,3057963.0,SK,18.326,49.1249,3.0,1685473888.0
293,Hong Kong,86.31,93.0,7.56,1819729.0,HK,114.1577,22.2855,17.0,1685473809.0
294,Dzilam González,91.89,50.0,11.32,3529654.0,MX,-88.9333,21.2833,85.0,1685473892.0
295,Sistranda,48.16,91.0,43.69,3139597.0,NO,8.834,63.7256,100.0,1685473894.0
296,Ondjiva,65.48,34.0,6.15,3346821.0,AO,15.7333,-17.0667,12.0,1685473896.0
297,Taguatinga,93.6,24.0,5.77,6319623.0,BR,-46.5711,-12.3857,32.0,1685473898.0
298,Evensk,49.1,51.0,9.91,2125693.0,RU,159.2333,61.95,95.0,1685473900.0
299,Katsuura,68.02,79.0,17.47,2112309.0,JP,140.3,35.1333,100.0,1685473903.0
300,Ambovombe,69.48,81.0,13.33,1079048.0,MG,46.0833,-25.1667,0.0,1685473905.0
301,Pisco,71.65,68.0,6.91,3932145.0,PE,-76.2167,-13.7,100.0,1685473907.0
302,Lala,76.3,95.0,2.13,1707944.0,PH,123.7458,7.9745,100.0,1685473909.0
303,East London,66.88,85.0,6.29,1006984.0,ZA,27.9116,-33.0153,100.0,1685473911.0
304,Nyurba,46.96,89.0,6.71,2018735.0,RU,118.3319,63.2842,89.0,1685473913.0
305,Baykit,49.73,75.0,4.23,1510689.0,RU,96.37,61.67,50.0,1685473915.0
306,Muyezerskiy,45.34,66.0,6.08,524100.0,RU,31.65,63.9333,31.0,1685473917.0
307,Umarkot,78.62,59.0,30.31,1162959.0,PK,69.7362,25.3616,100.0,1685473919.0
308,Paamiut,39.67,81.0,7.7,3421193.0,GL,-49.6678,61.994,100.0,1685473922.0
309,Gberia Fotombu,79.02,83.0,7.18,2409019.0,SL,-11.1667,9.8833,100.0,1685473924.0
310,Auki,75.85,89.0,7.02,2109701.0,SB,160.7034,-8.7676,100.0,1685473926.0
311,Timmins,87.62,18.0,8.05,6166739.0,CA,-81.3331,48.4669,20.0,1685473691.0
312,Pachino,66.97,76.0,2.13,6539213.0,IT,15.0907,36.7186,11.0,1685473930.0
313,Arrondissement d'Arcachon,69.85,73.0,5.75,6621469.0,FR,-1.0519,44.5875,82.0,1685473933.0
314,Avera,79.48,41.0,5.99,4231997.0,US,-82.5271,33.194,45.0,1685473771.0
315,Bonthe,81.5,82.0,7.85,2409914.0,SL,-12.505,7.5264,100.0,1685473937.0
316,Songjianghe,46.62,67.0,3.44,2034691.0,CN,127.479,42.1859,100.0,1685473939.0
317,Salisbury,58.03,69.0,17.27,2638664.0,GB,-1.7957,51.0693,100.0,1685473849.0
318,Xi'an,70.0,76.0,1.99,1790630.0,CN,108.9286,34.2583,100.0,1685473943.0
319,Touros,81.39,74.0,15.3,3386213.0,BR,-35.4608,-5.1989,27.0,1685473945.0
320,Boda,76.82,70.0,2.21,2388614.0,CF,17.4695,4.3189,24.0,1685473948.0
321,Mayumba,75.79,90.0,8.3,2399001.0,GA,10.6554,-3.432,6.0,1685473950.0
322,Chul'man,38.52,88.0,4.07,2025261.0,RU,124.9104,56.8479,43.0,1685473952.0
323,Tambacounda,105.85,33.0,4.61,2244991.0,SN,-13.7586,13.7539,0.0,1685473954.0
324,Bushehr,89.69,48.0,11.5,139817.0,IR,50.8385,28.9684,0.0,1685473956.0
325,Port Hardy,51.8,67.0,7.61,6111862.0,CA,-127.4199,50.6996,67.0,1685473958.0
326,Shashi,70.43,88.0,5.84,1795816.0,CN,112.2447,30.3072,1.0,1685473961.0
327,Grand-Lahou,79.99,86.0,5.17,2288105.0,CI,-5.0242,5.1367,36.0,1685473963.0
328,State College,79.5,34.0,4.61,5213681.0,US,-77.86,40.7934,0.0,1685473665.0
329,Teguise,70.02,56.0,10.36,2510573.0,ES,-13.564,29.0605,20.0,1685473967.0
330,Magdagachi,44.76,98.0,2.17,2020591.0,RU,125.8,53.45,88.0,1685473969.0
331,Gaozhou,79.23,86.0,3.0,1810295.0,CN,110.8461,21.9392,20.0,1685473971.0
332,Meulaboh,76.82,89.0,3.02,1214488.0,ID,96.1285,4.1363,100.0,1685473973.0
333,Río Gallegos,56.59,57.0,17.85,3838859.0,AR,-69.2181,-51.6226,0.0,1685473894.0
334,Chaihe,45.82,64.0,3.94,2038198.0,CN,129.7,44.7667,0.0,1685473978.0
335,Nikel,42.98,53.0,8.48,522260.0,RU,30.222,69.4128,100.0,1685473980.0
336,Beringovskiy,41.02,60.0,9.06,2126710.0,RU,179.3167,63.05,4.0,1685473982.0
337,Coyhaique,58.95,63.0,8.05,3894426.0,CL,-72.0662,-45.5752,75.0,1685473911.0
338,Vardø,42.78,75.0,2.3,777019.0,NO,31.1107,70.3705,0.0,1685473986.0
339,Talnakh,42.21,76.0,10.25,1490256.0,RU,88.3972,69.4865,99.0,1685473988.0
340,Faya,63.12,70.0,4.03,110690.0,SA,42.4509,18.3851,89.0,1685473991.0
341,Znamenskoye,54.91,95.0,3.89,1485020.0,RU,73.8282,57.1281,100.0,1685473993.0
342,Manavgat,66.27,82.0,0.22,304854.0,TR,31.4431,36.7867,61.0,1685473995.0
343,Cairns,68.41,81.0,11.5,2172797.0,AU,145.7667,-16.9167,40.0,1685473997.0
344,Klaksvík,50.92,89.0,25.52,2618795.0,FO,-6.589,62.2266,100.0,1685474000.0
345,Fonte Boa,87.76,62.0,4.07,6319315.0,BR,-66.2662,-2.4959,96.0,1685473785.0
346,Piaçabuçu,80.2,74.0,11.43,3454005.0,BR,-36.4344,-10.4056,24.0,1685474004.0
347,Havøysund,43.03,81.0,4.41,779622.0,NO,24.6622,70.9963,100.0,1685474006.0
348,Boden,51.8,59.0,12.84,606531.0,SE,21.6886,65.8252,100.0,1685474008.0
349,Nhulunbuy,72.21,68.0,8.05,2064735.0,AU,136.7667,-12.2333,100.0,1685474011.0
350,Kamenka,60.55,95.0,12.35,553766.0,RU,42.7678,51.3223,88.0,1685474013.0
351,Kazachinskoye,51.57,87.0,3.15,1504075.0,RU,93.2761,57.6953,100.0,1685474015.0
352,Geraldton,64.81,88.0,11.5,2070998.0,AU,114.6,-28.7667,100.0,1685474017.0
353,Maxixe,68.88,77.0,6.44,1039536.0,MZ,35.3472,-23.8597,22.0,1685474019.0
354,Leon Valley,85.69,56.0,8.05,4705923.0,US,-98.6186,29.4952,40.0,1685474021.0
355,Nome,37.47,70.0,14.97,5870133.0,US,-165.4064,64.5011,100.0,1685474023.0
356,Manokwari,79.57,78.0,3.44,1636308.0,ID,134.0833,-0.8667,14.0,1685474025.0
357,Grand-Santi,83.7,81.0,2.68,3381538.0,GF,-54.3833,4.25,52.0,1685474027.0
358,Faanui,79.93,76.0,6.42,4034551.0,PF,-151.75,-16.4833,2.0,1685474030.0
359,Clyde River,26.83,93.0,19.57,5924351.0,CA,-68.5914,70.4692,75.0,1685474032.0
360,Kosa,55.69,64.0,5.14,544318.0,RU,54.9977,59.9445,78.0,1685474034.0
361,Blackwater,49.78,60.0,4.79,2175403.0,AU,148.8833,-23.5833,0.0,1685474036.0
362,Assiniboia,80.42,26.0,6.91,5887798.0,CA,-105.9845,49.6334,7.0,1685474038.0
363,Bambous Virieux,75.45,73.0,6.91,1106677.0,MU,57.7575,-20.3428,40.0,1685474040.0
364,Arona,66.0,76.0,6.91,2521582.0,ES,-16.681,28.0996,20.0,1685474042.0
365,Belyy Yar,48.09,100.0,0.0,1510377.0,RU,91.3903,53.6039,100.0,1685474044.0
366,San Miguel,91.81,47.0,3.38,3583446.0,SV,-88.1833,13.4833,99.0,1685474047.0
367,Maniitsoq,38.16,84.0,14.03,3421982.0,GL,-52.9,65.4167,100.0,1685474049.0
368,Freeport,65.98,57.0,12.66,5117949.0,US,-73.5832,40.6576,0.0,1685474051.0
369,Constitución,60.12,52.0,4.76,3893726.0,CL,-72.4167,-35.3333,100.0,1685474053.0
370,Tarakan,80.64,83.0,6.71,1624725.0,ID,117.6333,3.3,100.0,1685474055.0
371,Nirmal,92.71,30.0,2.89,1261288.0,IN,78.35,19.1,100.0,1685474057.0
372,Zmeinogorsk,46.56,82.0,3.22,1485042.0,RU,82.195,51.1567,1.0,1685474060.0
373,Valparaíso,64.08,73.0,6.91,3868626.0,CL,-71.6273,-33.0393,75.0,1685473972.0
374,Caravelas,74.71,78.0,12.26,3466980.0,BR,-39.2481,-17.7125,3.0,1685474064.0
375,Torbay,46.53,62.0,13.8,6167817.0,CA,-52.7314,47.6666,20.0,1685474066.0
376,Le Port,68.65,90.0,2.48,935616.0,RE,55.2919,-20.9373,14.0,1685474068.0
377,Kumul,66.16,18.0,8.55,1529484.0,CN,93.45,42.8,100.0,1685474070.0
378,Inverell,42.44,81.0,3.13,2162662.0,AU,151.1167,-29.7833,0.0,1685474073.0
379,Tortolì,66.02,82.0,4.61,2522890.0,IT,9.6572,39.9256,40.0,1685474075.0
380,Beipiao,62.8,37.0,1.34,2038342.0,CN,120.7792,41.7919,91.0,1685474077.0
381,Novo Aripuanã,89.64,57.0,1.66,3663142.0,BR,-60.3797,-5.1206,71.0,1685474079.0
382,Akdepe,73.49,15.0,11.72,601551.0,TM,59.3788,42.0551,15.0,1685474081.0
383,Pangnirtung,33.8,100.0,2.3,6096551.0,CA,-65.7125,66.1451,100.0,1685474083.0
384,Komatipoort,65.05,81.0,3.31,988290.0,ZA,31.9548,-25.4332,5.0,1685474085.0
385,Kailua,80.42,68.0,8.05,5847486.0,US,-157.7394,21.4022,75.0,1685474088.0
386,Massakory,95.68,32.0,8.81,2428228.0,TD,15.7293,12.996,100.0,1685474090.0
387,Byron Bay,48.7,74.0,4.25,2172880.0,AU,153.6167,-28.65,4.0,1685474020.0
388,Dawson Creek,55.04,50.0,0.0,5935804.0,CA,-120.2362,55.7666,75.0,1685474094.0
389,Port-Gentil,78.96,85.0,12.71,2396518.0,GA,8.7815,-0.7193,23.0,1685474096.0
390,Augusto Corrêa,81.37,82.0,6.46,3406961.0,BR,-46.635,-1.0217,100.0,1685474098.0
391,Araouane,97.21,19.0,10.49,2460954.0,ML,-3.5265,18.9048,58.0,1685474100.0
392,Coahuayana Viejo,94.75,44.0,8.9,4013679.0,MX,-103.6833,18.7333,0.0,1685474102.0
393,Mount Gambier,57.2,90.0,9.78,2156643.0,AU,140.7667,-37.8333,100.0,1685474105.0
394,Swan River,64.29,72.0,14.97,6160362.0,CA,-101.2676,52.1058,48.0,1685474107.0
395,Bima,73.63,95.0,3.51,1648759.0,ID,118.7167,-8.4667,100.0,1685474109.0
396,Cherskiy,41.79,79.0,13.09,2126199.0,RU,161.3,68.75,99.0,1685474112.0
397,Adrar,93.69,20.0,9.13,2381972.0,MR,-10.0711,20.5022,100.0,1685474114.0
398,Egvekinot,33.69,69.0,1.81,4031742.0,RU,-179.1667,66.3167,20.0,1685474116.0
399,Comodoro Rivadavia,64.26,42.0,19.57,3860443.0,AR,-67.5,-45.8667,0.0,1685474119.0
400,Volchikha,52.72,69.0,6.11,1486983.0,RU,80.3833,52.0333,0.0,1685474121.0
401,Paita,78.67,68.0,14.72,3694112.0,PE,-81.1144,-5.0892,1.0,1685474123.0
402,Calama,72.09,9.0,12.66,3897347.0,CL,-68.9333,-22.4667,0.0,1685474125.0
403,Abalak,59.05,59.0,5.41,1512223.0,RU,68.5944,58.1286,1.0,1685474127.0
404,Atar,98.38,18.0,12.62,2381334.0,MR,-13.0499,20.5169,77.0,1685474130.0
405,Venado Tuerto,63.77,46.0,9.82,3833062.0,AR,-61.9688,-33.7456,12.0,1685474132.0
406,Ostrovnoy,44.98,81.0,5.3,556268.0,RU,39.5131,68.0531,100.0,1685474134.0
407,Praia,79.34,65.0,18.41,3374333.0,CV,-23.5087,14.9215,0.0,1685474136.0
408,Campoverde,85.69,88.0,3.58,3733380.0,PE,-74.8058,-8.4753,50.0,1685474138.0
409,Peebles,58.64,85.0,3.87,2640526.0,GB,-3.1888,55.6519,15.0,1685474140.0
410,Ngunguru,54.79,88.0,7.0,2186111.0,NZ,174.5,-35.6167,100.0,1685474142.0
411,Haines Junction,49.95,34.0,6.91,5969025.0,CA,-137.5108,60.7522,100.0,1685474144.0
412,Chernyshevsk,44.98,45.0,7.99,2025458.0,RU,117.0174,52.5243,84.0,1685474147.0
413,Makiyivka,62.46,93.0,3.22,702320.0,UA,37.9258,48.0478,100.0,1685474149.0
414,Petropavlovsk-Kamchatskiy,43.39,93.0,17.9,2122104.0,RU,158.6483,53.0452,100.0,1685474152.0
415,Los Llanos de Aridane,68.13,61.0,3.44,2514651.0,ES,-17.9182,28.6585,40.0,1685474154.0
416,Nuevo Progreso,90.9,53.0,8.99,3522526.0,MX,-97.95,23.1667,1.0,1685474156.0
417,Norsup,75.33,75.0,13.94,2135517.0,VU,167.3833,-16.0667,98.0,1685474158.0
418,Yulara,51.37,53.0,5.73,6355222.0,AU,130.9889,-25.2406,0.0,1685474160.0
419,Hohhot,55.69,88.0,4.47,2036892.0,CN,111.6522,40.8106,0.0,1685474162.0
420,Bowen,64.74,79.0,8.61,2174444.0,AU,148.2333,-20.0167,99.0,1685474165.0
421,Smoky Lake,72.16,43.0,10.36,6150293.0,CA,-112.4686,54.1169,10.0,1685474167.0
422,Angoram,74.53,99.0,1.39,2100765.0,PG,144.0661,-4.0625,74.0,1685474169.0
423,Itarema,82.18,78.0,14.03,3393692.0,BR,-39.9167,-2.9248,65.0,1685474171.0
424,La Asuncion,89.33,58.0,17.27,3480908.0,VE,-63.8628,11.0333,100.0,1685474173.0
425,Berlevåg,41.22,75.0,4.61,780687.0,NO,29.0864,70.8578,0.0,1685474175.0
426,Ambilobe,71.96,89.0,3.15,1082243.0,MG,49.05,-13.2,0.0,1685474178.0
427,Teya,49.35,63.0,2.59,1489656.0,RU,92.6267,60.3778,6.0,1685474180.0
428,Máncora,82.04,64.0,9.69,3695000.0,PE,-81.0475,-4.1078,0.0,1685474182.0
429,Crotone,66.79,83.0,7.83,2524881.0,IT,17.1178,39.0851,59.0,1685474184.0
430,Sechura,82.15,60.0,12.3,3691954.0,PE,-80.8222,-5.5569,0.0,1685474186.0
431,Tarko-Sale,61.12,55.0,13.29,1490085.0,RU,77.785,64.9225,100.0,1685474188.0
432,Yerofey Pavlovich,36.73,95.0,4.07,2012938.0,RU,121.9667,53.9667,54.0,1685474191.0
433,Doha,94.23,34.0,13.8,290030.0,QA,51.5333,25.2867,0.0,1685474013.0
434,Palmer,74.5,32.0,8.05,4946620.0,US,-72.3287,42.1584,20.0,1685474195.0
435,Darhan,52.9,87.0,8.43,2031964.0,MN,105.9228,49.4867,100.0,1685474197.0
436,Rantauprapat,74.28,97.0,1.7,1214073.0,ID,99.8333,2.1,100.0,1685474199.0
437,Arroyo de la Encomienda,64.81,81.0,9.22,3129371.0,ES,-4.7969,41.6096,20.0,1685474201.0
438,Keetmanshoop,50.61,77.0,16.64,3356264.0,NA,18.1333,-26.5833,0.0,1685474203.0
439,Staryy Nadym,56.57,91.0,16.33,1490918.0,RU,72.6842,65.6118,100.0,1685474205.0
440,Beloha,66.47,87.0,10.38,1067565.0,MG,45.05,-25.1667,0.0,1685474208.0
441,Kelvington,75.67,38.0,7.29,5990669.0,CA,-103.5343,52.1667,0.0,1685474210.0
442,Munger,93.33,28.0,3.71,1262482.0,IN,86.4667,25.3833,2.0,1685474212.0
443,Grindavik,45.07,87.0,9.22,3416888.0,IS,-22.4338,63.8424,75.0,1685474214.0
444,Kangaatsiaq,34.29,86.0,37.67,3422683.0,GL,-53.4641,68.3065,100.0,1685474216.0
445,Omsukchan,44.55,71.0,4.85,2122493.0,RU,155.8,62.5333,98.0,1685474218.0
446,Quzhou,75.61,96.0,5.91,1797264.0,CN,118.8686,28.9594,7.0,1685473946.0
447,Neijiang,78.84,83.0,2.01,1799491.0,CN,105.0622,29.5835,2.0,1685474222.0
448,Bonavista,43.86,65.0,17.6,5905393.0,CA,-53.1147,48.6499,66.0,1685474225.0
449,Pauini,87.76,56.0,4.25,3662927.0,BR,-66.9764,-7.7136,100.0,1685474227.0
450,Poso,76.48,83.0,4.76,1630723.0,ID,120.7524,-1.3959,78.0,1685474229.0
451,Hervey Bay,58.19,81.0,6.2,2146219.0,AU,152.8535,-25.2986,1.0,1685474231.0
452,Gambēla,75.34,82.0,3.67,337405.0,ET,34.5833,8.25,100.0,1685474234.0
453,Hede,64.13,93.0,4.56,1808744.0,CN,120.2517,33.7681,29.0,1685474236.0
454,Alice Springs,38.75,81.0,5.61,2077895.0,AU,133.8833,-23.7,0.0,1685474238.0
455,Tazmalt,63.46,79.0,5.12,2477537.0,DZ,4.3989,36.3868,100.0,1685474240.0
456,Mangaratiba,72.46,74.0,5.03,3457991.0,BR,-44.0406,-22.9597,83.0,1685474242.0
457,Porto-Novo,84.02,79.0,10.04,2392087.0,BJ,2.6036,6.4965,66.0,1685474244.0
458,Sabha,88.48,12.0,9.17,2212775.0,LY,14.4283,27.0377,8.0,1685474247.0
459,Salinópolis,82.2,79.0,11.27,3389822.0,BR,-47.3561,-0.6136,95.0,1685474249.0
460,Riyadh,87.94,29.0,8.57,108410.0,SA,46.7219,24.6877,100.0,1685474230.0
461,Jönköping,64.11,39.0,2.3,2702979.0,SE,14.1562,57.7814,0.0,1685474253.0
462,Yatou,62.29,59.0,1.74,1786855.0,CN,122.3833,37.15,59.0,1685474255.0
463,Jaru,83.73,70.0,3.8,3925040.0,BR,-62.4664,-10.4389,100.0,1685474257.0
464,Yashan,78.37,86.0,4.36,1786867.0,CN,109.9419,22.1975,64.0,1685474259.0
465,Bamiantong,46.08,72.0,4.92,2038482.0,CN,130.5333,44.9333,0.0,1685474261.0
466,Boa Vista,87.78,55.0,6.91,3664980.0,BR,-60.6733,2.8197,75.0,1685474166.0
467,Barra do Bugres,76.15,72.0,5.1,3470718.0,BR,-57.1811,-15.0725,97.0,1685474266.0
468,Butembo,57.56,97.0,3.27,217562.0,CD,29.2833,0.15,8.0,1685474268.0
469,Talaya,45.64,74.0,3.13,2120769.0,RU,152.75,61.3833,77.0,1685474270.0
470,Vengurla,82.42,85.0,6.89,1253257.0,IN,73.6333,15.8667,13.0,1685474272.0
471,Maracaçumé,81.27,85.0,6.06,3395497.0,BR,-45.9592,-2.0428,20.0,1685474274.0
472,Nouadhibou,73.38,64.0,19.57,2377457.0,MR,-17.0347,20.931,81.0,1685474277.0
473,La Celia,69.39,76.0,1.99,3679542.0,CO,-76.0167,5.0433,94.0,1685474279.0
474,Lüderitz,56.7,88.0,10.74,3355672.0,NA,15.1594,-26.6481,0.0,1685474281.0
475,Carutapera,80.71,86.0,8.66,3402648.0,BR,-46.02,-1.195,85.0,1685474283.0
476,Yauya,61.18,53.0,6.35,3690733.0,PE,-77.3,-8.9833,84.0,1685474285.0
477,Port Said,73.38,73.0,5.75,358619.0,EG,32.2841,31.2565,0.0,1685474287.0
478,Sambava,73.99,88.0,11.72,1056899.0,MG,50.1667,-14.2667,8.0,1685474289.0
479,Kafanchan,78.24,72.0,3.31,2335713.0,NG,8.3,9.5833,53.0,1685474292.0
480,Neftçala,78.21,60.0,6.91,147425.0,AZ,49.2472,39.3742,100.0,1685474294.0
481,Yhú,67.62,87.0,6.87,3436595.0,PY,-55.9167,-25.05,47.0,1685474296.0
482,Necochea,60.67,55.0,12.68,3430443.0,AR,-58.7368,-38.5473,0.0,1685474298.0
483,Muros,63.48,89.0,2.48,3115824.0,ES,-9.0603,42.7762,97.0,1685474300.0
484,Linxia Chengguanzhen,51.08,90.0,15.08,1803331.0,CN,103.2064,35.6003,100.0,1685474302.0
485,Tripoli,69.6,73.0,10.42,2210247.0,LY,13.1875,32.8752,10.0,1685474006.0
486,Ixtapa,83.43,74.0,13.8,4004293.0,MX,-105.2,20.7,0.0,1685474307.0
487,Santiago del Estero,69.4,53.0,6.96,3835869.0,AR,-64.2615,-27.7951,11.0,1685474309.0
488,Uribia,87.76,59.0,11.72,3666409.0,CO,-72.266,11.7139,100.0,1685474311.0
489,Rome,82.54,34.0,5.75,5134295.0,US,-75.4557,43.2128,0.0,1685474103.0
490,Xuanzhou,71.92,96.0,4.05,1788081.0,CN,118.7553,30.9525,100.0,1685474315.0
491,Arrondissement de Muret,69.96,75.0,3.36,2991152.0,FR,1.25,43.3333,98.0,1685474318.0
492,Orlik,39.92,87.0,4.54,1496073.0,RU,99.825,52.5178,100.0,1685474320.0
493,Toyoake,68.88,76.0,4.41,1856057.0,JP,137.0137,35.0594,100.0,1685474322.0
494,Ibrā’,86.97,46.0,6.46,287832.0,OM,58.5334,22.6906,23.0,1685474324.0
495,Ayagoz,49.35,67.0,5.75,1525988.0,KZ,80.4392,47.9714,2.0,1685474326.0
496,Deputatsky,29.61,98.0,5.44,2028164.0,RU,139.9,69.3,100.0,1685474328.0
497,Moyale,69.55,65.0,5.7,186180.0,KE,39.0584,3.5167,53.0,1685474330.0
498,Gresik,76.91,83.0,3.8,1643776.0,ID,112.6561,-7.1539,86.0,1685474332.0
499,Tsushima,69.17,84.0,2.89,1849539.0,JP,136.7167,35.1667,100.0,1685474335.0
500,Boralday,58.86,41.0,4.47,1526384.0,KZ,76.8594,43.3578,0.0,1685474337.0
501,Mahina,78.57,83.0,2.3,4034307.0,PF,-149.489,-17.5065,75.0,1685474339.0
502,Ust-Maya,49.46,76.0,2.44,2013918.0,RU,134.5333,60.4167,100.0,1685474341.0
503,General Pico,67.96,39.0,7.07,3855075.0,AR,-63.7568,-35.6566,64.0,1685474343.0
504,Labuan,80.96,78.0,1.14,1733782.0,MY,115.2417,5.2767,20.0,1685474346.0
505,Saint Anthony,83.25,47.0,17.27,5044290.0,US,-93.218,45.0205,0.0,1685474348.0
506,Iqaluit,32.7,100.0,6.91,5983720.0,CA,-68.5145,63.7506,100.0,1685474050.0
507,Haapiti,77.72,79.0,8.72,4034438.0,PF,-149.8667,-17.5667,1.0,1685474352.0
508,Sarankhola,84.22,78.0,7.61,1185239.0,BD,89.7897,22.3082,11.0,1685474354.0
509,Odienné,85.1,60.0,5.48,2283016.0,CI,-7.5692,9.51,100.0,1685474356.0
510,Miles City,79.77,41.0,0.0,5666176.0,US,-105.8406,46.4083,0.0,1685474358.0
511,Daru,77.54,87.0,15.59,2098329.0,PG,143.2092,-9.0763,88.0,1685474360.0
512,Umm Kaddadah,92.66,28.0,2.33,364933.0,SD,26.6876,13.6017,14.0,1685474363.0
513,Skegness,53.35,82.0,16.49,2637762.0,GB,0.3363,53.1436,100.0,1685474365.0
514,Saint-François,71.04,49.0,4.61,2980080.0,FR,3.9054,46.4154,0.0,1685474367.0
515,Semey,55.0,62.0,3.56,1519422.0,KZ,80.2275,50.4111,0.0,1685474369.0
516,Esperance,62.08,74.0,11.18,2071860.0,AU,121.9,-33.8667,17.0,1685474371.0
517,Selkirk,80.26,52.0,5.01,6144054.0,CA,-96.8845,50.1436,80.0,1685474251.0
518,Mahajanga,80.24,60.0,12.73,1062663.0,MG,46.3167,-15.7167,41.0,1685474375.0
519,Ruwi,98.29,36.0,8.88,287286.0,OM,58.5507,23.5996,3.0,1685474377.0
520,Pucallpa,86.04,66.0,10.36,3693345.0,PE,-74.5539,-8.3791,75.0,1685474380.0
521,Ginda,58.37,80.0,5.79,1253628.0,IN,78.4932,30.6945,94.0,1685474382.0
522,Hare Bay,55.0,37.0,4.0,5970873.0,CA,-54.0148,48.8499,99.0,1685474384.0
523,Kabalo,78.3,49.0,4.63,215668.0,CD,26.9167,-6.05,16.0,1685474386.0
524,Cockburn Town,81.63,78.0,16.53,3576994.0,TC,-71.1419,21.4612,100.0,1685474388.0
525,Kolomyia,57.16,87.0,4.94,705392.0,UA,25.0403,48.5306,81.0,1685474390.0
526,Odawara,63.95,89.0,13.49,1854747.0,JP,139.1597,35.2556,100.0,1685474393.0
527,Santa Cruz de la Sierra,68.05,77.0,10.36,3904906.0,BO,-63.1667,-17.8,75.0,1685474271.0
528,Derzhavīnsk,72.32,45.0,4.12,1524606.0,KZ,66.3167,51.1,10.0,1685474397.0
529,Raduzhny,61.93,54.0,7.09,1540356.0,RU,77.475,62.0961,100.0,1685474399.0
530,Gulariyā,86.18,38.0,5.14,1283368.0,NP,81.3333,28.2333,0.0,1685474401.0
531,Oudtshoorn,55.78,65.0,0.83,967106.0,ZA,22.2014,-33.5907,33.0,1685474403.0
532,Ruteng,60.73,90.0,3.8,1629380.0,ID,120.4721,-8.6136,66.0,1685474405.0
533,Sokolac,54.57,97.0,2.24,3190385.0,BA,18.8017,43.9397,100.0,1685474408.0
534,Jieshi,81.46,83.0,6.35,1805857.0,CN,115.8257,22.8134,1.0,1685474410.0
535,Porto Velho,86.05,70.0,3.44,3662762.0,BR,-63.9039,-8.7619,75.0,1685474149.0
536,Olinda,83.93,70.0,16.11,3393536.0,BR,-34.8553,-8.0089,40.0,1685474414.0
537,Vallenar,81.91,20.0,5.03,3868633.0,CL,-70.7581,-28.5708,100.0,1685474209.0
538,Bud,83.53,52.0,9.1,4255151.0,US,-86.1758,39.447,26.0,1685474418.0
539,Dhārchula,65.44,67.0,7.02,1272864.0,IN,80.5333,29.85,3.0,1685474421.0
540,Mabaruma,85.98,68.0,4.23,3377301.0,GY,-59.7833,8.2,100.0,1685474423.0
541,Nemuro,43.7,82.0,8.79,2128975.0,JP,145.575,43.3236,1.0,1685474425.0
542,Caucayá,83.17,82.0,1.23,3671437.0,CO,-74.7819,-0.1934,56.0,1685474427.0
543,Vanderhoof,59.61,30.0,8.99,6173361.0,CA,-124.0198,54.0166,63.0,1685474429.0
544,Maravilha,70.81,76.0,2.66,3457809.0,BR,-53.1725,-26.7608,100.0,1685474432.0
545,Nanlong,74.97,93.0,3.62,1799908.0,CN,106.0631,31.3533,14.0,1685474434.0
546,Seryshevo,54.3,48.0,3.02,2016942.0,RU,128.3786,51.0933,100.0,1685474436.0
547,Les Cayes,84.38,69.0,11.25,3728097.0,HT,-73.75,18.2,100.0,1685474438.0
548,Lagoa,63.46,80.0,14.32,3372964.0,PT,-27.9833,39.05,0.0,1685474192.0
549,Pacifica,62.51,71.0,12.66,5380420.0,US,-122.4869,37.6138,40.0,1685474442.0
550,Northam,63.39,67.0,14.16,2641434.0,GB,-4.2167,51.0333,0.0,1685474444.0
551,Rio Grande,71.71,76.0,8.86,3451138.0,BR,-52.0986,-32.035,29.0,1685474338.0
552,Gejiu,60.96,88.0,1.77,1810240.0,CN,103.1635,23.306,100.0,1685474449.0
553,Opuwo,60.89,21.0,4.63,3354077.0,NA,13.84,-18.0607,15.0,1685474451.0
554,La Ronge,73.65,27.0,8.05,6050066.0,CA,-105.2842,55.1001,75.0,1685474453.0
555,Yazykovo,68.77,65.0,6.02,468483.0,RU,56.1353,55.2199,100.0,1685474455.0
556,Batticaloa,82.6,73.0,0.63,1250161.0,LK,81.6924,7.7102,100.0,1685474457.0
557,Khasan,52.18,73.0,4.47,2039557.0,RU,130.6434,42.4308,20.0,1685474459.0
558,Kattivākkam,84.07,79.0,5.41,1267433.0,IN,80.3167,13.2167,65.0,1685474461.0
559,Arrondissement de Saint-Denis,67.84,44.0,11.5,2980915.0,FR,2.3333,48.9167,0.0,1685474463.0
560,Ende,75.15,90.0,3.85,1644932.0,ID,121.6623,-8.8432,97.0,1685474466.0
561,Harlingen,87.94,75.0,11.5,4696233.0,US,-97.6961,26.1906,75.0,1685474262.0
562,Zhicheng,71.73,91.0,1.3,1784554.0,CN,111.5047,30.2956,17.0,1685474470.0
563,Havelock,78.37,68.0,12.66,4470244.0,US,-76.9013,34.8791,0.0,1685474290.0
564,Madimba,74.75,87.0,9.04,878141.0,TZ,40.3333,-10.4,72.0,1685474474.0
565,Pacific Grove,61.61,72.0,9.22,5380437.0,US,-121.9166,36.6177,100.0,1685474460.0
566,Esim,80.67,80.0,7.72,2303611.0,GH,-2.2405,4.8699,15.0,1685474478.0
567,Gorontalo,74.77,93.0,1.59,1643837.0,ID,123.0595,0.5412,33.0,1685474480.0
568,Vaitape,79.81,76.0,6.64,4033077.0,PF,-151.75,-16.5167,4.0,1685474483.0
569,Ottawa,79.77,42.0,4.61,6094817.0,CA,-75.6981,45.4112,20.0,1685474459.0
570,Petropavl,64.04,60.0,7.38,1520172.0,KZ,69.1628,54.8753,0.0,1685474487.0
571,Bossangoa,77.25,65.0,3.31,2388036.0,CF,17.4552,6.4926,56.0,1685474489.0
572,Lavrentiya,30.88,76.0,3.91,4031637.0,RU,-171.0,65.5833,48.0,1685474491.0
573,Muskegon,89.44,26.0,8.05,5003136.0,US,-86.1334,43.3,20.0,1685474493.0
574,Lālmohan,84.96,78.0,13.22,1185251.0,BD,90.7419,22.3384,7.0,1685474495.0
575,Gainesville,87.73,49.0,4.61,4156404.0,US,-82.3248,29.6516,20.0,1685474350.0
