,City,Temp_max,Humidity,wind_speed,city_id,country_code,long,lat,Cloudiness,datetime
0,Flin Flon,59.9,73.0,3.29,5954718.0,CA,-101.865,54.7682,34.0,1685426404.0
1,Severo-Kuril'sk,42.62,95.0,13.89,2121385.0,RU,156.125,50.6789,34.0,1685426406.0
2,Codrington,61.59,76.0,13.04,2171099.0,AU,141.9667,-38.2667,100.0,1685426409.0
3,Bredasdorp,55.45,91.0,5.61,1015776.0,ZA,20.0403,-34.5322,76.0,1685426413.0
4,Kindersley,68.02,45.0,11.5,5992154.0,CA,-109.1682,51.4668,40.0,1685426416.0
5,Kavieng,85.26,71.0,8.63,2094342.0,PG,150.7967,-2.5744,56.0,1685426418.0
6,Brae,48.94,91.0,13.87,2654970.0,GB,-1.353,60.3964,0.0,1685426420.0
7,Hithadhoo,84.09,69.0,9.75,1282256.0,MV,73.0833,-0.6,27.0,1685426422.0
8,Ponta Delgada,63.32,88.0,2.3,3372783.0,PT,-25.6667,37.7333,20.0,1685426425.0
9,Kaitangata,45.43,95.0,3.4,2208248.0,NZ,169.8464,-46.2817,98.0,1685426427.0
10,Neiafu,79.48,89.0,6.91,4032420.0,TO,-173.9833,-18.65,20.0,1685426429.0
11,Busselton,67.91,82.0,19.53,2075265.0,AU,115.3333,-33.65,66.0,1685426432.0
12,Kudahuvadhoo,84.22,73.0,14.5,1337607.0,MV,72.8944,2.6708,32.0,1685426435.0
13,Port Macquarie,64.89,55.0,5.7,2152659.0,AU,152.9167,-31.4333,6.0,1685426342.0
14,Jamestown,64.78,66.0,4.61,5122534.0,US,-79.2353,42.097,0.0,1685426379.0
15,Nantucket,48.06,91.0,6.91,4944903.0,US,-70.0995,41.2835,0.0,1685426289.0
16,São João da Barra,64.18,92.0,4.79,3448903.0,BR,-41.0511,-21.6403,55.0,1685426446.0
17,Castlebar,52.0,88.0,2.3,2965654.0,IE,-9.3,53.85,69.0,1685426303.0
18,Katobu,84.7,68.0,7.85,1640972.0,ID,122.5276,-4.9408,66.0,1685426452.0
19,Port Lincoln,64.45,73.0,15.01,2063036.0,AU,135.8667,-34.7333,72.0,1685426454.0
20,Padampur,88.27,35.0,1.88,1260938.0,IN,73.6167,29.6833,46.0,1685426456.0
21,Cayenne,73.44,100.0,1.14,3382160.0,GF,-52.3333,4.9333,75.0,1685426404.0
22,Norman Wells,55.44,67.0,6.91,6089245.0,CA,-126.8329,65.282,75.0,1685426460.0
23,Upernavik,24.4,77.0,6.08,3418910.0,GL,-56.1549,72.7868,100.0,1685426463.0
24,Ushuaia,42.46,87.0,0.0,3833367.0,AR,-68.3,-54.8,0.0,1685426304.0
25,Tasiilaq,25.45,86.0,8.12,3424607.0,GL,-37.6368,65.6145,60.0,1685426468.0
26,Thunder Bay,48.11,71.0,3.44,6166142.0,CA,-89.3168,48.4001,40.0,1685426470.0
27,Provideniya,33.91,75.0,17.9,4031574.0,RU,-173.3,64.3833,75.0,1685426472.0
28,Cap Malheureux,79.47,58.0,3.0,934649.0,MU,57.6142,-19.9842,0.0,1685426474.0
29,West Wendover,65.41,39.0,6.91,5710035.0,US,-114.0733,40.7391,0.0,1685426342.0
30,Tautira,80.11,78.0,5.66,4033557.0,PF,-149.15,-17.7333,12.0,1685426478.0
31,Avarua,73.45,73.0,8.05,4035715.0,CK,-159.775,-21.2078,100.0,1685426480.0
32,Punta Arenas,42.91,87.0,10.36,3874787.0,CL,-70.9167,-53.15,100.0,1685426421.0
33,Ozernovskiy,44.82,86.0,12.35,2122293.0,RU,156.5167,51.5,76.0,1685426485.0
34,Aksu,75.74,16.0,4.63,1529660.0,CN,80.2644,41.1231,0.0,1685426488.0
35,Arrondissement d'Ajaccio,57.18,77.0,6.91,3038333.0,FR,8.9167,42.0,0.0,1685426490.0
36,Cabedelo,75.87,86.0,9.82,3404558.0,BR,-34.8339,-6.9811,31.0,1685426492.0
37,Dikson,34.39,87.0,16.87,1507390.0,RU,80.5464,73.5069,100.0,1685426494.0
38,Hobart,59.61,74.0,18.41,2163355.0,AU,147.3294,-42.8794,75.0,1685426405.0
39,Vestmannaeyjar,47.12,87.0,18.79,3412093.0,IS,-20.2734,63.4427,100.0,1685426499.0
40,Alofi,75.09,94.0,12.66,4036284.0,NU,-169.9187,-19.0595,64.0,1685426501.0
41,Carnarvon,75.51,53.0,5.95,2074865.0,AU,113.6333,-24.8667,38.0,1685426417.0
42,Saint-Philippe,78.39,64.0,5.7,935215.0,RE,55.7679,-21.3585,35.0,1685426505.0
43,Cabra,57.47,87.0,2.26,2520645.0,ES,-4.4421,37.4725,88.0,1685426508.0
44,Feldbach,60.89,69.0,3.09,2779685.0,AT,15.8883,46.9531,23.0,1685426510.0
45,Tual,81.79,79.0,23.8,1623197.0,ID,132.75,-5.6667,92.0,1685426512.0
46,Longyearbyen,37.24,81.0,14.97,2729907.0,SJ,15.6401,78.2186,75.0,1685426514.0
47,Dukat,54.72,36.0,3.85,2125906.0,RU,155.55,62.55,40.0,1685426516.0
48,Jalu,79.95,25.0,15.93,86049.0,LY,21.5482,29.0331,89.0,1685426518.0
49,Vaini,77.16,88.0,12.66,4032243.0,TO,-175.2,-21.2,75.0,1685426520.0
50,Albany,57.2,64.0,1.01,5106841.0,US,-73.9662,42.6001,10.0,1685426461.0
51,Karaton,87.13,61.0,4.56,1630058.0,ID,106.1045,-6.3424,71.0,1685426525.0
52,Saldanha,53.65,89.0,12.5,3361934.0,ZA,17.9442,-33.0117,99.0,1685426527.0
53,Castro,52.65,93.0,7.49,3466704.0,BR,-50.0119,-24.7911,100.0,1685426529.0
54,Inhambane,66.0,88.0,0.0,1045114.0,MZ,35.3833,-23.865,40.0,1685426531.0
55,Mataura,44.74,95.0,4.85,6201424.0,NZ,168.8643,-46.1927,97.0,1685426534.0
56,Puerto Ayora,77.56,95.0,1.01,3652764.0,EC,-90.3518,-0.7393,22.0,1685426536.0
57,Arraial do Cabo,71.17,71.0,14.36,3471451.0,BR,-42.0278,-22.9661,99.0,1685426538.0
58,Obihiro,63.81,70.0,12.44,2128815.0,JP,143.2044,42.9172,57.0,1685426540.0
59,Penzance,52.48,73.0,17.74,2640377.0,GB,-5.5371,50.1186,87.0,1685426547.0
60,Butaritari,83.52,71.0,5.82,2110227.0,KI,172.7902,3.0707,82.0,1685426549.0
61,Rikitea,75.13,62.0,8.86,4030556.0,PF,-134.9692,-23.1203,90.0,1685426551.0
62,Namatanai,83.89,74.0,6.91,2090021.0,PG,152.4333,-3.6667,55.0,1685426553.0
63,Isangel,78.91,65.0,8.05,2136825.0,VU,169.2667,-19.55,75.0,1685426556.0
64,Saint George,70.43,24.0,6.91,5546220.0,US,-113.5841,37.1041,0.0,1685426475.0
65,Kruisfontein,60.89,93.0,8.52,986717.0,ZA,24.7314,-34.0033,100.0,1685426560.0
66,Mwinilunga,63.68,64.0,4.47,902620.0,ZM,24.4293,-11.7358,65.0,1685426562.0
67,Port Alfred,67.39,80.0,20.74,964432.0,ZA,26.891,-33.5906,99.0,1685426564.0
68,Marzuq,83.37,42.0,3.74,72181.0,YE,46.4667,14.4,99.0,1685426566.0
69,Puerto Escondido,82.78,79.0,5.59,3520994.0,MX,-97.0667,15.85,4.0,1685426568.0
70,Sivaki,65.64,29.0,2.35,2016477.0,RU,126.75,52.6333,41.0,1685426570.0
71,Yellowknife,46.92,87.0,10.36,6185377.0,CA,-114.3525,62.456,75.0,1685426461.0
72,Canchungo,80.73,84.0,7.96,2373951.0,GW,-16.0333,12.0672,93.0,1685426576.0
73,Östersund,43.25,39.0,32.01,2685750.0,SE,14.6357,63.1792,75.0,1685426530.0
74,Fort Nelson,49.95,36.0,4.61,5955902.0,CA,-122.7002,58.8053,40.0,1685426580.0
75,Castelo Branco,57.22,94.0,2.13,2269514.0,PT,-7.4909,39.8222,99.0,1685426582.0
76,Black River,78.53,89.0,2.91,3491355.0,JM,-77.8487,18.0264,69.0,1685426584.0
77,Atuona,81.27,69.0,15.99,4020109.0,PF,-139.0333,-9.8,1.0,1685426586.0
78,Birao,79.2,68.0,3.0,240210.0,CF,22.7882,10.2849,73.0,1685426589.0
79,Ekhabi,36.73,94.0,15.21,2122614.0,RU,142.9671,53.5102,100.0,1685426591.0
80,Barrow,35.62,87.0,6.91,5880054.0,US,-156.7887,71.2906,100.0,1685426593.0
81,Hilo,69.53,96.0,1.99,5855927.0,US,-155.09,19.7297,39.0,1685426595.0
82,Mehamn,42.71,76.0,25.7,778707.0,NO,27.8492,71.0357,99.0,1685426598.0
83,Shingū,70.84,98.0,1.9,1847947.0,JP,135.9833,33.7333,100.0,1685426600.0
84,George Town,93.15,59.0,6.91,1735106.0,MY,100.3354,5.4112,20.0,1685426371.0
85,Russell,59.7,94.0,0.0,4047434.0,US,-85.1999,32.3502,0.0,1685426604.0
86,Sidhi,103.42,20.0,4.63,1256369.0,IN,81.8833,24.4167,5.0,1685426606.0
87,Laramie,48.45,61.0,8.43,5830062.0,US,-105.5911,41.3114,82.0,1685426412.0
88,Bluff,50.04,72.0,23.64,2206939.0,NZ,168.3333,-46.6,90.0,1685426610.0
89,Bayir,64.92,76.0,4.16,304183.0,TR,28.2167,37.2687,95.0,1685426613.0
90,Vila Velha,71.55,78.0,8.05,3445026.0,BR,-40.2925,-20.3297,75.0,1685426615.0
91,Kapaa,72.86,85.0,4.0,5848280.0,US,-159.319,22.0752,11.0,1685426617.0
92,Margate,51.84,75.0,11.01,2643044.0,GB,1.3862,51.3813,54.0,1685426619.0
93,Kamaishi,61.27,69.0,2.13,2112444.0,JP,141.8833,39.2667,48.0,1685426621.0
94,Stăncuţa,66.69,63.0,10.71,666309.0,RO,27.8333,44.9,100.0,1685426623.0
95,Ankang,85.35,61.0,3.11,1789065.0,CN,109.0172,32.68,65.0,1685426625.0
96,Port Elizabeth,61.2,97.0,6.91,964420.0,ZA,25.5701,-33.918,20.0,1685426627.0
97,Morant Bay,83.82,86.0,3.98,3489440.0,JM,-76.4093,17.8815,79.0,1685426630.0
98,São Miguel,75.97,91.0,9.46,3388304.0,BR,-35.3667,-5.4667,44.0,1685426632.0
99,Guerrero Negro,59.92,79.0,13.91,4021858.0,MX,-114.0611,27.9769,0.0,1685426634.0
100,Husavik,49.8,71.0,4.92,2629833.0,IS,-17.3389,66.0449,24.0,1685426636.0
101,Ahipara,57.81,88.0,5.53,2194098.0,NZ,173.1667,-35.1667,20.0,1685426638.0
102,Saint Paul Harbor,45.91,76.0,5.75,5866583.0,US,-152.4072,57.79,75.0,1685426640.0
103,Mahébourg,73.69,83.0,5.75,934322.0,MU,57.7,-20.4081,20.0,1685426529.0
104,Mount Isa,76.77,15.0,8.05,2065594.0,AU,139.5,-20.7333,1.0,1685426591.0
105,Te Anau,43.66,84.0,4.52,2181625.0,NZ,167.7167,-45.4167,88.0,1685426646.0
106,Alenquer,73.17,95.0,4.05,3407980.0,BR,-54.7383,-1.9417,99.0,1685426649.0
107,São Miguel do Araguaia,76.59,50.0,0.6,3448455.0,BR,-50.1628,-13.275,83.0,1685426651.0
108,Kriel,49.8,67.0,8.08,987202.0,ZA,29.2253,-26.2739,99.0,1685426653.0
109,Marsh Harbour,79.61,75.0,4.43,3571913.0,BS,-77.0636,26.5412,94.0,1685426655.0
110,Souillac,73.78,83.0,5.75,933995.0,MU,57.5167,-20.5167,20.0,1685426528.0
111,Tigil',65.46,46.0,15.73,2120612.0,RU,158.6667,57.8,63.0,1685426659.0
112,Kaeo,57.78,92.0,5.41,2189343.0,NZ,173.7833,-35.1,41.0,1685426661.0
113,Cape Town,54.81,88.0,10.36,3369157.0,ZA,18.4232,-33.9258,75.0,1685426664.0
114,Cidreira,63.66,68.0,12.17,3466165.0,BR,-50.2056,-30.1811,77.0,1685426666.0
115,Khatanga,34.83,88.0,5.01,2022572.0,RU,102.5,71.9667,15.0,1685426668.0
116,Karlshamn,57.69,42.0,7.74,2701727.0,SE,14.8619,56.1706,56.0,1685426670.0
117,Pevek,33.04,92.0,14.38,2122090.0,RU,170.3133,69.7008,100.0,1685426672.0
118,Mar del Plata,51.6,78.0,6.91,3430863.0,AR,-57.5575,-38.0023,0.0,1685426429.0
119,Gobabis,51.35,36.0,3.18,3357247.0,NA,18.9667,-22.45,30.0,1685426677.0
120,Gaoyou,76.93,74.0,3.87,1810309.0,CN,119.4278,32.7858,96.0,1685426679.0
121,Bethel,50.85,81.0,4.61,5282297.0,US,-73.414,41.3712,0.0,1685426681.0
122,Santa Maria da Vitória,73.99,44.0,2.59,3450063.0,BR,-44.1886,-13.3947,67.0,1685426683.0
123,Banda Aceh,87.64,63.0,17.87,1215502.0,ID,95.3222,5.5577,98.0,1685426685.0
124,Georgiyevka,77.04,22.0,6.71,1524243.0,KZ,74.7114,43.0369,0.0,1685426687.0
125,Zonguldak,58.98,89.0,1.03,737021.0,TR,31.8333,41.25,99.0,1685426524.0
126,Booué,73.04,98.0,0.29,2401495.0,GA,11.9385,-0.0921,49.0,1685426692.0
127,Siyabuswa,58.42,68.0,5.73,955313.0,ZA,29.0445,-25.1132,62.0,1685426429.0
128,Dunedin,52.81,77.0,8.01,2191562.0,NZ,170.5036,-45.8742,79.0,1685426696.0
129,Roald,47.64,87.0,19.57,3141667.0,NO,6.1333,62.5833,75.0,1685426698.0
130,Tweed,51.06,84.0,5.59,6170799.0,CA,-77.3162,44.4751,39.0,1685426700.0
131,Nanortalik,37.9,70.0,4.94,3421765.0,GL,-45.2371,60.1432,51.0,1685426702.0
132,Port Blair,89.64,66.0,12.66,1259385.0,IN,92.75,11.6667,75.0,1685426704.0
133,Lubango,57.67,57.0,3.87,3347762.0,AO,13.4925,-14.9172,38.0,1685426707.0
134,Shumskiy,48.52,93.0,5.23,1491977.0,RU,99.1328,54.8318,100.0,1685426709.0
135,San Cristobal,68.18,98.0,2.06,3628473.0,VE,-72.225,7.7669,100.0,1685426711.0
136,Nioro,80.71,74.0,7.52,2412408.0,GM,-15.75,13.35,95.0,1685426713.0
137,Thompson,60.96,94.0,0.0,6165406.0,CA,-97.8558,55.7435,75.0,1685426525.0
138,Manaus,77.49,88.0,3.44,3663517.0,BR,-60.025,-3.1019,0.0,1685426718.0
139,Laguna,58.66,72.0,12.66,5364271.0,US,-121.4238,38.421,0.0,1685426720.0
140,Hermanus,50.81,82.0,8.97,3366880.0,ZA,19.2345,-34.4187,65.0,1685426722.0
141,Westport,53.53,76.0,10.0,4845585.0,US,-73.3579,41.1415,0.0,1685426724.0
142,Dicabisagan,87.22,65.0,5.17,1715015.0,PH,122.4157,17.0818,100.0,1685426727.0
143,Newport,49.33,81.0,9.66,2641598.0,GB,-2.9984,51.5877,23.0,1685426434.0
144,Tateyama,67.21,84.0,7.74,1850523.0,JP,139.8667,34.9833,100.0,1685426545.0
145,Kuznechikha,66.02,50.0,3.91,537760.0,RU,42.3348,57.2161,8.0,1685426733.0
146,Poum,72.43,77.0,12.01,2138555.0,NC,164.0167,-20.2333,100.0,1685426735.0
147,Chokurdakh,48.54,80.0,13.53,2126123.0,RU,147.9167,70.6333,23.0,1685426737.0
148,Coquimbo,56.93,88.0,2.3,3893629.0,CL,-71.3436,-29.9533,100.0,1685426739.0
149,Ust-Nera,62.78,48.0,2.37,2120048.0,RU,143.2,64.5667,83.0,1685426741.0
150,Kavaratti,85.84,73.0,9.73,1267390.0,IN,72.642,10.5669,72.0,1685426743.0
151,Eruwa,73.99,93.0,3.53,2338669.0,NG,3.4167,7.5333,97.0,1685426746.0
152,Polyarny,44.92,61.0,13.11,506763.0,RU,33.4478,69.1989,94.0,1685426748.0
153,Ribeira Grande,60.78,86.0,8.01,3372707.0,PT,-28.7,38.5167,22.0,1685426750.0
154,Kalemie,76.91,69.0,7.76,214974.0,CD,29.1947,-5.9475,36.0,1685426752.0
155,Tuktoyaktuk,39.04,81.0,6.06,6170031.0,CA,-133.0374,69.4541,85.0,1685426754.0
156,Tomatlán,73.15,92.0,1.83,3981391.0,MX,-105.25,19.9333,1.0,1685426756.0
157,Bratca,65.17,73.0,0.4,683837.0,RO,22.6167,46.9333,47.0,1685426758.0
158,Chiang Khong,103.69,30.0,3.49,1611197.0,TH,100.4046,20.2613,8.0,1685426760.0
159,Gijang,69.53,83.0,13.49,1842966.0,KR,129.2139,35.2442,93.0,1685426763.0
160,Vao,71.02,67.0,14.45,2137773.0,NC,167.4833,-22.6667,100.0,1685426765.0
161,Marawi,83.35,59.0,8.16,1701054.0,PH,124.2928,7.9986,77.0,1685426767.0
162,Kununurra,80.58,21.0,11.5,2068110.0,AU,128.7333,-15.7667,20.0,1685426769.0
163,Ponta do Sol,66.25,72.0,5.23,2264557.0,PT,-17.1,32.6667,28.0,1685426771.0
164,Vanimo,85.62,67.0,6.11,2084442.0,PG,141.3028,-2.6741,78.0,1685426773.0
165,Kenai,44.94,86.0,13.8,5866063.0,US,-151.2583,60.5544,0.0,1685426775.0
166,Tarnogskiy Gorodok,63.7,51.0,6.33,484314.0,RU,43.5761,60.4997,31.0,1685426777.0
167,Tottori-shi,69.87,73.0,10.36,1849892.0,JP,134.2333,35.5,40.0,1685426781.0
168,Baracoa,77.7,88.0,3.62,3567834.0,CU,-74.4958,20.3467,87.0,1685426783.0
169,Krasnyy Kholm,61.65,61.0,2.64,541704.0,RU,37.1203,58.0607,60.0,1685426785.0
170,Nabire,88.52,63.0,5.88,1634614.0,ID,135.4833,-3.3667,60.0,1685426787.0
171,Zaysan,58.87,48.0,13.76,1517060.0,KZ,84.8667,47.4667,100.0,1685426789.0
172,New Norfolk,54.3,75.0,4.0,2155415.0,AU,147.0587,-42.7826,100.0,1685426791.0
173,Muhos,47.77,78.0,4.68,645765.0,FI,25.9931,64.808,96.0,1685426794.0
174,Sabzawār,83.48,16.0,16.11,118063.0,IR,57.6819,36.2126,0.0,1685426796.0
175,Catuday,84.6,70.0,19.22,1717787.0,PH,119.8062,16.2923,100.0,1685426798.0
176,Enshi,87.57,69.0,1.14,1811720.0,CN,109.4833,30.3,81.0,1685426800.0
177,Timiryazevskiy,75.31,26.0,13.0,1489597.0,RU,84.8769,56.49,68.0,1685426802.0
178,Aklavik,61.5,54.0,4.32,5882953.0,CA,-135.0107,68.2191,92.0,1685426804.0
179,Pochutla,79.83,77.0,4.09,3517970.0,MX,-96.4661,15.7432,0.0,1685426806.0
180,Bathsheba,81.21,83.0,9.22,3374083.0,BB,-59.5167,13.2167,75.0,1685426809.0
181,Salalah,89.69,66.0,10.36,286621.0,OM,54.0924,17.0151,20.0,1685426811.0
182,Airai,68.79,69.0,3.51,1651810.0,TL,125.4092,-8.9266,60.0,1685426813.0
183,Fuyang,74.3,75.0,7.16,1810845.0,CN,115.8167,32.9,97.0,1685426815.0
184,Makakilo City,74.17,70.0,10.36,5850554.0,US,-158.0858,21.3469,0.0,1685426817.0
185,Impfondo,74.05,93.0,1.28,2259655.0,CG,18.0667,1.6381,100.0,1685426819.0
186,Anloga,80.74,79.0,2.62,2304548.0,GH,0.8973,5.7947,100.0,1685426822.0
187,Chui,49.68,82.0,2.53,3443061.0,UY,-53.4616,-33.6971,100.0,1685426824.0
188,Nishihara,83.48,79.0,17.27,1855342.0,JP,127.7558,26.1842,75.0,1685426827.0
189,Bariloche,38.95,87.0,3.44,7647007.0,AR,-71.3082,-41.1456,75.0,1685426569.0
190,Kristianstad,55.54,50.0,5.75,2699310.0,SE,14.1524,56.0313,0.0,1685426831.0
191,Cabo San Lucas,75.54,57.0,4.0,3985710.0,MX,-109.9124,22.8909,0.0,1685426752.0
192,Hunchun,75.22,26.0,7.76,2036653.0,CN,130.3581,42.8675,52.0,1685426836.0
193,Aykhal,44.64,85.0,17.54,2027296.0,RU,111.5,66.0,98.0,1685426838.0
194,Nchelenge,71.64,63.0,4.45,175499.0,ZM,28.734,-9.3451,61.0,1685426840.0
195,Hobyo,85.66,62.0,16.75,57000.0,SO,48.5268,5.3505,90.0,1685426843.0
196,Pechenga,41.86,83.0,7.65,511865.0,RU,31.1703,69.5259,90.0,1685426845.0
197,Hambantota,89.94,74.0,10.36,1244926.0,LK,81.1185,6.1241,40.0,1685426847.0
198,Lompoc,56.93,88.0,0.0,5367788.0,US,-120.4579,34.6391,100.0,1685426849.0
199,Hasaki,77.4,86.0,6.33,2112802.0,JP,140.8333,35.7333,100.0,1685426554.0
200,Departamento de Maldonado,48.13,74.0,5.01,3441890.0,UY,-54.9167,-34.6667,100.0,1685426606.0
201,Naze,75.6,91.0,9.31,1855540.0,JP,129.4833,28.3667,66.0,1685426855.0
202,Nikolskoye,52.52,50.0,6.89,546105.0,RU,30.7861,59.7035,100.0,1685426858.0
203,Dul'durga,74.64,18.0,2.8,2024812.0,RU,113.5931,50.6761,85.0,1685426860.0
204,Leh,48.24,51.0,3.09,1264976.0,IN,77.5833,34.1667,100.0,1685426862.0
205,Lata,59.92,99.0,1.36,2738381.0,PT,-8.3327,40.1629,99.0,1685426864.0
206,Tiksi,35.26,91.0,10.33,2015306.0,RU,128.8694,71.6872,100.0,1685426866.0
207,Qaanaaq,11.8,63.0,8.32,3831208.0,GL,-69.3632,77.484,11.0,1685426868.0
208,Ilulissat,33.82,80.0,18.41,3423146.0,GL,-51.1,69.2167,100.0,1685426870.0
209,Saint-Augustin,39.36,55.0,6.17,6137462.0,CA,-58.6502,51.226,67.0,1685426872.0
210,Saskylakh,36.64,81.0,12.88,2017155.0,RU,114.0833,71.9167,100.0,1685426875.0
211,Tessalit,82.29,23.0,9.8,2449893.0,ML,1.0114,20.1986,52.0,1685426877.0
212,Rayong,94.3,59.0,6.44,1607016.0,TH,101.4333,12.8333,59.0,1685426879.0
213,Sur,96.96,41.0,11.27,286245.0,OM,59.5289,22.5667,0.0,1685426881.0
214,Bereket,97.38,7.0,20.15,161974.0,TM,55.5154,39.2446,100.0,1685426883.0
215,Staraya Kulatka,70.77,64.0,14.9,489164.0,RU,47.6167,52.7167,94.0,1685426885.0
216,Roswell,59.29,90.0,4.61,4219934.0,US,-84.3616,34.0232,0.0,1685426810.0
217,Santa Luzia,61.7,97.0,4.38,3450144.0,BR,-43.8514,-19.7697,22.0,1685426888.0
218,São Filipe,76.26,74.0,10.45,3374210.0,CV,-24.4956,14.8961,77.0,1685426891.0
219,San Luis,48.43,67.0,8.48,3837056.0,AR,-66.3356,-33.295,31.0,1685426894.0
220,Fairbanks,46.87,90.0,6.91,5861897.0,US,-147.7164,64.8378,100.0,1685426892.0
221,Sibolga,87.01,61.0,5.37,1213855.0,ID,98.7792,1.7427,95.0,1685426841.0
222,Pahrump,73.2,17.0,5.01,5509851.0,US,-115.9839,36.2083,2.0,1685426900.0
223,Narsaq,37.62,88.0,7.74,3421719.0,GL,-46.05,60.9167,68.0,1685426902.0
224,Hamilton,67.17,79.0,0.0,4513583.0,US,-84.5333,39.1834,40.0,1685426613.0
225,Fortuna,50.81,95.0,5.75,5563839.0,US,-124.1573,40.5982,100.0,1685426633.0
226,Ayan,46.49,59.0,1.99,2027316.0,RU,138.1667,56.45,95.0,1685426909.0
227,El Dorado,53.13,86.0,1.99,5345659.0,US,-120.5177,38.7666,95.0,1685426911.0
228,Leonidovo,55.96,51.0,13.22,2123805.0,RU,142.8667,49.2833,95.0,1685426913.0
229,Chicama,70.34,84.0,5.53,3698359.0,PE,-79.1469,-7.8447,86.0,1685426915.0
230,Umluj,83.77,71.0,3.44,100926.0,SA,37.2685,25.0213,0.0,1685426678.0
231,Acapulco de Juárez,85.82,74.0,4.61,3533462.0,MX,-99.8901,16.8634,75.0,1685426919.0
232,Santa Maria,49.05,96.0,4.79,3450083.0,BR,-53.8069,-29.6842,100.0,1685426921.0
233,Ubinskoye,68.65,37.0,7.56,1488708.0,RU,79.6802,55.3068,0.0,1685426924.0
234,Flinders,68.16,58.0,7.0,6255012.0,AU,150.8552,-34.5833,45.0,1685426926.0
235,Broome,61.36,61.0,5.01,5110365.0,US,-75.833,42.2506,96.0,1685426928.0
236,Mossamedes,63.01,65.0,8.46,3347019.0,AO,12.1522,-15.1961,66.0,1685426930.0
237,Orange Cove,66.69,52.0,8.05,5379533.0,US,-119.3137,36.6244,100.0,1685426932.0
238,Barra Patuca,76.44,90.0,5.01,3614835.0,HN,-84.2833,15.8,100.0,1685426934.0
239,Arlit,88.47,15.0,4.25,2447513.0,NE,7.3853,18.7369,67.0,1685426936.0
240,Chilia Veche,68.56,61.0,11.88,682117.0,RO,29.2833,45.4167,100.0,1685426938.0
241,Conde,74.66,100.0,6.91,3385077.0,BR,-34.9075,-7.2597,20.0,1685426680.0
242,Bulungu,74.16,84.0,1.03,2316259.0,CD,18.6,-4.55,62.0,1685426943.0
243,Baker City,50.74,95.0,3.44,5712169.0,US,-117.8344,44.7749,0.0,1685426705.0
244,Rājākhera,97.81,28.0,2.08,1258930.0,IN,78.1714,26.8961,0.0,1685426947.0
245,Portland,56.17,70.0,10.36,5746545.0,US,-122.6762,45.5234,0.0,1685426858.0
246,Birkeland,55.89,57.0,6.91,3161532.0,NO,8.2323,58.3309,0.0,1685426951.0
247,Dvinskoy Bereznik,61.38,35.0,9.01,577240.0,RU,42.7072,62.8551,14.0,1685426953.0
248,Jalingo,80.06,68.0,3.94,2336589.0,NG,11.3667,8.8833,78.0,1685426956.0
249,Yar-Sale,62.67,57.0,20.24,1486321.0,RU,70.8333,66.8333,99.0,1685426958.0
250,Tafresh,76.75,30.0,3.42,113636.0,IR,50.013,34.692,86.0,1685426960.0
251,Homer,48.67,73.0,6.91,5864145.0,US,-151.5483,59.6425,100.0,1685426666.0
252,Mandalgovi,48.09,81.0,17.58,2030065.0,MN,106.2708,45.7625,100.0,1685426964.0
253,Kibala,78.31,71.0,6.31,2425791.0,TD,18.3463,9.1104,85.0,1685426966.0
254,Ulladulla,61.77,54.0,7.96,2145554.0,AU,150.4667,-35.35,45.0,1685426968.0
255,Sitka,44.49,81.0,6.91,5557293.0,US,-135.33,57.0531,100.0,1685426970.0
256,Leningradskiy,31.91,85.0,18.45,2123814.0,RU,178.4167,69.3833,99.0,1685426973.0
257,Takāb,72.43,39.0,11.3,113508.0,IR,47.1133,36.4009,82.0,1685426975.0
258,Tarancón,54.27,92.0,3.6,3108317.0,ES,-3.0073,40.0085,55.0,1685426977.0
259,Goderich,54.91,78.0,9.13,5962442.0,CA,-81.7165,43.7501,9.0,1685426979.0
260,Rosa Zarate,74.12,97.0,2.21,3652257.0,EC,-79.4667,0.3333,87.0,1685426981.0
261,Luganville,78.28,75.0,9.24,2136150.0,VU,167.1667,-15.5333,91.0,1685426983.0
262,Druzhba,62.06,62.0,7.2,709584.0,UA,33.9453,52.0428,24.0,1685426986.0
263,Valea lui Mihai,62.31,76.0,4.0,663692.0,RO,22.15,47.5167,72.0,1685426988.0
264,Ancud,48.25,89.0,10.0,3899695.0,CL,-73.8203,-41.8697,100.0,1685426990.0
265,Matagami,48.31,61.0,5.75,6067747.0,CA,-77.6328,49.7502,0.0,1685426784.0
266,Peniche,62.28,94.0,10.11,2264923.0,PT,-9.3811,39.3558,98.0,1685426994.0
267,Miraflores,61.27,74.0,3.89,3761194.0,MX,-98.8083,19.2167,25.0,1685426996.0
268,Lebu,51.22,66.0,0.45,3883457.0,CL,-73.65,-37.6167,100.0,1685426998.0
269,Crawley,50.95,79.0,14.97,2652053.0,GB,-0.1831,51.113,75.0,1685427000.0
270,Khonsa,88.75,41.0,5.1,1266668.0,IN,95.5667,27.0167,8.0,1685427003.0
271,Yumen,77.54,15.0,27.42,1528998.0,CN,97.2,40.2833,27.0,1685427005.0
272,Bubaque,81.68,83.0,15.9,2374583.0,GW,-15.8333,11.2833,100.0,1685427008.0
273,Ribas do Rio Pardo,64.94,90.0,2.37,3451399.0,BR,-53.7592,-20.4431,100.0,1685427010.0
274,Malbork,52.97,67.0,1.14,3092472.0,PL,19.0266,54.0359,9.0,1685427012.0
275,Saint-Leu,77.56,86.0,2.84,6690297.0,RE,55.2833,-21.15,7.0,1685427014.0
276,Arkhara,64.53,36.0,7.58,2027487.0,RU,130.0842,49.4212,46.0,1685427016.0
277,Tura,95.74,36.0,4.36,1254046.0,IN,90.2201,25.5198,27.0,1685427018.0
278,Ingham,59.65,76.0,7.29,4997130.0,US,-84.3833,42.6,0.0,1685427021.0
279,Sarandi,58.75,84.0,9.15,3447998.0,BR,-51.8739,-23.4436,100.0,1685426971.0
280,Biak,83.12,69.0,10.29,1637001.0,ID,122.8766,-0.9131,18.0,1685427025.0
281,Nieuw Amsterdam,76.01,93.0,4.97,3383434.0,SR,-55.0833,5.8833,100.0,1685427027.0
282,Boundiali,74.97,81.0,6.08,2290836.0,CI,-6.4869,9.5217,88.0,1685427029.0
283,Aitape,85.48,68.0,5.91,2101169.0,PG,142.3475,-3.1374,43.0,1685427031.0
284,Manadhoo,84.6,73.0,11.74,1337618.0,MV,73.3833,5.7667,23.0,1685427033.0
285,Ca Mau,92.19,53.0,12.62,1586443.0,VN,105.15,9.1769,85.0,1685427035.0
286,San Patricio,75.56,83.0,4.83,4726521.0,US,-97.5169,28.017,69.0,1685427038.0
287,Portree,48.52,95.0,4.45,2640006.0,GB,-6.1942,57.4129,22.0,1685427040.0
288,Srednekolymsk,66.43,20.0,11.16,2121025.0,RU,153.6833,67.45,12.0,1685427042.0
289,Zhangaözen,90.79,11.0,23.35,607610.0,KZ,52.8,43.3,80.0,1685427045.0
290,Mayo,58.69,91.0,13.0,4362001.0,US,-76.5119,38.8876,20.0,1685426935.0
291,Hualmay,69.33,85.0,8.03,3939761.0,PE,-77.6139,-11.0964,54.0,1685427049.0
292,Púchov,56.26,73.0,5.21,3057963.0,SK,18.326,49.1249,100.0,1685427051.0
293,Hong Kong,95.05,95.0,12.01,1819729.0,HK,114.1577,22.2855,7.0,1685427053.0
294,Dzilam González,75.34,88.0,4.36,3529654.0,MX,-88.9333,21.2833,0.0,1685427055.0
295,Sistranda,46.36,89.0,21.9,3139597.0,NO,8.834,63.7256,52.0,1685427057.0
296,Ondjiva,56.57,34.0,1.16,3346821.0,AO,15.7333,-17.0667,22.0,1685427060.0
297,Taguatinga,73.13,48.0,4.18,6319623.0,BR,-46.5711,-12.3857,40.0,1685427062.0
298,Evensk,56.48,38.0,19.75,2125693.0,RU,159.2333,61.95,44.0,1685427064.0
299,Katsuura,68.0,82.0,3.8,2112309.0,JP,140.3,35.1333,100.0,1685427066.0
300,Ambovombe,72.43,71.0,9.31,1079048.0,MG,46.0833,-25.1667,1.0,1685427068.0
301,Pisco,62.65,82.0,4.61,3932145.0,PE,-76.2167,-13.7,1.0,1685427070.0
302,Lala,88.36,63.0,7.83,1707944.0,PH,123.7458,7.9745,99.0,1685427073.0
303,East London,65.34,82.0,8.05,1006984.0,ZA,27.9116,-33.0153,0.0,1685427075.0
304,Nyurba,68.97,27.0,1.9,2018735.0,RU,118.3319,63.2842,32.0,1685427077.0
305,Baykit,69.46,28.0,7.16,1510689.0,RU,96.37,61.67,20.0,1685427079.0
306,Muyezerskiy,50.52,42.0,4.99,524100.0,RU,31.65,63.9333,99.0,1685427081.0
307,Umarkot,97.72,36.0,11.88,1162959.0,PK,69.7362,25.3616,5.0,1685427083.0
308,Paamiut,35.38,81.0,4.97,3421193.0,GL,-49.6678,61.994,17.0,1685427086.0
309,Gberia Fotombu,71.11,97.0,4.74,2409019.0,SL,-11.1667,9.8833,100.0,1685427088.0
310,Auki,76.69,92.0,3.98,2109701.0,SB,160.7034,-8.7676,100.0,1685427090.0
311,Timmins,60.21,81.0,5.75,6166739.0,CA,-81.3331,48.4669,22.0,1685427092.0
312,Pachino,67.55,68.0,1.77,6539213.0,IT,15.0907,36.7186,75.0,1685426960.0
313,Arrondissement d'Arcachon,57.25,100.0,3.44,6621469.0,FR,-1.0519,44.5875,2.0,1685427096.0
314,Avera,59.88,81.0,5.21,4231997.0,US,-82.5271,33.194,15.0,1685427098.0
315,Bonthe,80.11,85.0,5.64,2409914.0,SL,-12.505,7.5264,56.0,1685427101.0
316,Songjianghe,69.03,28.0,8.95,2034691.0,CN,127.479,42.1859,54.0,1685427103.0
317,Salisbury,49.23,81.0,17.27,2638664.0,GB,-1.7957,51.0693,40.0,1685427105.0
318,Xi'an,86.86,41.0,1.43,1790630.0,CN,108.9286,34.2583,21.0,1685427107.0
319,Touros,74.84,92.0,9.1,3386213.0,BR,-35.4608,-5.1989,51.0,1685427109.0
320,Boda,72.86,76.0,1.57,2388614.0,CF,17.4695,4.3189,99.0,1685427111.0
321,Mayumba,74.3,91.0,6.71,2399001.0,GA,10.6554,-3.432,36.0,1685427113.0
322,Chul'man,58.86,34.0,5.12,2025261.0,RU,124.9104,56.8479,100.0,1685427115.0
323,Tambacounda,82.45,61.0,4.61,2244991.0,SN,-13.7586,13.7539,0.0,1685427117.0
324,Bushehr,89.69,58.0,9.22,139817.0,IR,50.8385,28.9684,0.0,1685427120.0
325,Port Hardy,50.0,84.0,10.98,6111862.0,CA,-127.4199,50.6996,4.0,1685427122.0
326,Shashi,81.37,69.0,14.36,1795816.0,CN,112.2447,30.3072,92.0,1685427124.0
327,Grand-Lahou,79.25,87.0,7.65,2288105.0,CI,-5.0242,5.1367,94.0,1685427126.0
328,State College,64.58,39.0,5.75,5213681.0,US,-77.86,40.7934,40.0,1685426941.0
329,Teguise,61.02,82.0,2.3,2510573.0,ES,-13.564,29.0605,40.0,1685427131.0
330,Magdagachi,64.33,32.0,4.88,2020591.0,RU,125.8,53.45,52.0,1685427133.0
331,Gaozhou,94.68,54.0,5.73,1810295.0,CN,110.8461,21.9392,60.0,1685427135.0
332,Meulaboh,85.8,63.0,6.04,1214488.0,ID,96.1285,4.1363,93.0,1685427137.0
333,Río Gallegos,51.85,54.0,14.97,3838859.0,AR,-69.2181,-51.6226,0.0,1685427086.0
334,Chaihe,66.34,34.0,9.13,2038198.0,CN,129.7,44.7667,72.0,1685427141.0
335,Nikel,44.78,79.0,8.75,522260.0,RU,30.222,69.4128,99.0,1685427143.0
336,Beringovskiy,38.44,66.0,20.83,2126710.0,RU,179.3167,63.05,24.0,1685427146.0
337,Coyhaique,42.75,87.0,8.05,3894426.0,CL,-72.0662,-45.5752,0.0,1685427148.0
338,Vardø,46.38,57.0,19.57,777019.0,NO,31.1107,70.3705,0.0,1685427150.0
339,Talnakh,43.21,80.0,8.81,1490256.0,RU,88.3972,69.4865,99.0,1685427152.0
340,Faya,64.92,60.0,1.68,110690.0,SA,42.4509,18.3851,100.0,1685427154.0
341,Znamenskoye,66.63,49.0,10.83,1485020.0,RU,73.8282,57.1281,100.0,1685427157.0
342,Manavgat,68.56,72.0,6.38,304854.0,TR,31.4431,36.7867,98.0,1685427159.0
343,Cairns,78.66,47.0,17.27,2172797.0,AU,145.7667,-16.9167,70.0,1685427161.0
344,Klaksvík,49.12,81.0,18.34,2618795.0,FO,-6.589,62.2266,13.0,1685427163.0
345,Fonte Boa,73.58,97.0,0.49,6319315.0,BR,-66.2662,-2.4959,100.0,1685427165.0
346,Piaçabuçu,75.09,81.0,7.05,3454005.0,BR,-36.4344,-10.4056,15.0,1685427167.0
347,Havøysund,39.43,75.0,23.55,779622.0,NO,24.6622,70.9963,98.0,1685427169.0
348,Boden,46.4,43.0,5.03,606531.0,SE,21.6886,65.8252,31.0,1685427051.0
349,Nhulunbuy,81.21,61.0,19.57,2064735.0,AU,136.7667,-12.2333,75.0,1685427174.0
350,Kamenka,59.23,83.0,12.03,553766.0,RU,42.7678,51.3223,100.0,1685427176.0
351,Kazachinskoye,67.19,41.0,9.4,1504075.0,RU,93.2761,57.6953,100.0,1685427178.0
352,Geraldton,79.21,50.0,14.97,2070998.0,AU,114.6,-28.7667,72.0,1685427180.0
353,Maxixe,73.06,74.0,4.18,1039536.0,MZ,35.3472,-23.8597,68.0,1685427182.0
354,Leon Valley,64.69,93.0,4.61,4705923.0,US,-98.6186,29.4952,75.0,1685426983.0
355,Nome,33.87,93.0,8.05,5870133.0,US,-165.4064,64.5011,100.0,1685427187.0
356,Manokwari,84.58,73.0,8.23,1636308.0,ID,134.0833,-0.8667,64.0,1685427189.0
357,Grand-Santi,73.56,100.0,1.61,3381538.0,GF,-54.3833,4.25,100.0,1685427191.0
358,Faanui,80.26,81.0,4.99,4034551.0,PF,-151.75,-16.4833,2.0,1685427193.0
359,Clyde River,25.03,100.0,11.5,5924351.0,CA,-68.5914,70.4692,100.0,1685427195.0
360,Kosa,66.72,40.0,6.26,544318.0,RU,54.9977,59.9445,3.0,1685427198.0
361,Blackwater,72.75,19.0,13.29,2175403.0,AU,148.8833,-23.5833,0.0,1685427200.0
362,Assiniboia,60.62,67.0,11.5,5887798.0,CA,-105.9845,49.6334,48.0,1685427202.0
363,Bambous Virieux,79.05,69.0,8.05,1106677.0,MU,57.7575,-20.3428,20.0,1685427204.0
364,Arona,60.21,65.0,5.75,2521582.0,ES,-16.681,28.0996,40.0,1685427206.0
365,Belyy Yar,55.29,71.0,4.47,1510377.0,RU,91.3903,53.6039,40.0,1685427208.0
366,San Miguel,75.81,95.0,1.86,3583446.0,SV,-88.1833,13.4833,97.0,1685427157.0
367,Maniitsoq,33.91,68.0,18.07,3421982.0,GL,-52.9,65.4167,100.0,1685427213.0
368,Freeport,54.75,77.0,8.05,5117949.0,US,-73.5832,40.6576,0.0,1685427215.0
369,Constitución,54.54,61.0,1.88,3893726.0,CL,-72.4167,-35.3333,100.0,1685427217.0
370,Tarakan,87.3,70.0,3.44,1624725.0,ID,117.6333,3.3,40.0,1685427219.0
371,Nirmal,94.77,31.0,3.49,1261288.0,IN,78.35,19.1,91.0,1685427221.0
372,Zmeinogorsk,57.96,70.0,0.81,1485042.0,RU,82.195,51.1567,40.0,1685427223.0
373,Valparaíso,59.0,63.0,0.0,3868626.0,CL,-71.6273,-33.0393,0.0,1685427072.0
374,Caravelas,71.82,89.0,9.62,3466980.0,BR,-39.2481,-17.7125,33.0,1685427228.0
375,Torbay,33.51,88.0,9.22,6167817.0,CA,-52.7314,47.6666,20.0,1685427230.0
376,Le Port,78.71,86.0,0.58,935616.0,RE,55.2919,-20.9373,13.0,1685427232.0
377,Kumul,70.79,20.0,9.17,1529484.0,CN,93.45,42.8,23.0,1685427234.0
378,Inverell,63.1,48.0,5.01,2162662.0,AU,151.1167,-29.7833,4.0,1685427236.0
379,Tortolì,64.22,82.0,11.5,2522890.0,IT,9.6572,39.9256,20.0,1685427238.0
380,Beipiao,77.79,14.0,5.95,2038342.0,CN,120.7792,41.7919,100.0,1685427240.0
381,Novo Aripuanã,72.84,95.0,0.81,3663142.0,BR,-60.3797,-5.1206,49.0,1685426952.0
382,Akdepe,88.77,9.0,15.84,601551.0,TM,59.3788,42.0551,41.0,1685427245.0
383,Pangnirtung,34.93,99.0,4.25,6096551.0,CA,-65.7125,66.1451,100.0,1685427247.0
384,Komatipoort,67.05,60.0,2.39,988290.0,ZA,31.9548,-25.4332,98.0,1685427249.0
385,Kailua,76.01,75.0,10.36,5847486.0,US,-157.7394,21.4022,0.0,1685427251.0
386,Massakory,87.42,48.0,9.75,2428228.0,TD,15.7293,12.996,65.0,1685427254.0
387,Byron Bay,63.95,54.0,5.01,2172880.0,AU,153.6167,-28.65,0.0,1685427256.0
388,Dawson Creek,51.44,37.0,0.0,5935804.0,CA,-120.2362,55.7666,0.0,1685427258.0
389,Port-Gentil,77.07,88.0,13.49,2396518.0,GA,8.7815,-0.7193,37.0,1685427257.0
390,Augusto Corrêa,75.83,92.0,3.36,3406961.0,BR,-46.635,-1.0217,76.0,1685427262.0
391,Araouane,84.06,20.0,11.25,2460954.0,ML,-3.5265,18.9048,76.0,1685427264.0
392,Coahuayana Viejo,78.08,87.0,2.08,4013679.0,MX,-103.6833,18.7333,42.0,1685427266.0
393,Mount Gambier,60.24,81.0,11.34,2156643.0,AU,140.7667,-37.8333,99.0,1685427268.0
394,Swan River,57.09,100.0,3.44,6160362.0,CA,-101.2676,52.1058,100.0,1685427271.0
395,Bima,88.48,55.0,5.84,1648759.0,ID,118.7167,-8.4667,53.0,1685427273.0
396,Cherskiy,59.16,31.0,17.67,2126199.0,RU,161.3,68.75,34.0,1685427275.0
397,Adrar,76.69,47.0,11.81,2381972.0,MR,-10.0711,20.5022,70.0,1685427278.0
398,Egvekinot,33.28,68.0,3.96,4031742.0,RU,-179.1667,66.3167,64.0,1685427280.0
399,Comodoro Rivadavia,57.06,44.0,9.22,3860443.0,AR,-67.5,-45.8667,0.0,1685427017.0
400,Volchikha,67.03,40.0,14.85,1486983.0,RU,80.3833,52.0333,2.0,1685427284.0
401,Paita,73.71,80.0,11.45,3694112.0,PE,-81.1144,-5.0892,15.0,1685427286.0
402,Calama,41.49,22.0,17.27,3897347.0,CL,-68.9333,-22.4667,0.0,1685427248.0
403,Abalak,79.27,44.0,9.62,1512223.0,RU,68.5944,58.1286,18.0,1685427290.0
404,Atar,80.65,36.0,12.66,2381334.0,MR,-13.0499,20.5169,76.0,1685427292.0
405,Venado Tuerto,51.76,62.0,7.34,3833062.0,AR,-61.9688,-33.7456,89.0,1685427294.0
406,Ostrovnoy,44.56,79.0,6.93,556268.0,RU,39.5131,68.0531,98.0,1685427297.0
407,Praia,77.54,53.0,17.27,3374333.0,CV,-23.5087,14.9215,0.0,1685427299.0
408,Campoverde,72.32,99.0,1.79,3733380.0,PE,-74.8058,-8.4753,53.0,1685427301.0
409,Peebles,47.57,85.0,1.99,2640526.0,GB,-3.1888,55.6519,7.0,1685427303.0
410,Ngunguru,60.35,86.0,5.26,2186111.0,NZ,174.5,-35.6167,65.0,1685427305.0
411,Haines Junction,40.95,52.0,11.5,5969025.0,CA,-137.5108,60.7522,100.0,1685427307.0
412,Chernyshevsk,67.41,18.0,7.96,2025458.0,RU,117.0174,52.5243,26.0,1685427309.0
413,Makiyivka,67.37,76.0,5.32,702320.0,UA,37.9258,48.0478,52.0,1685427312.0
414,Petropavlovsk-Kamchatskiy,45.19,100.0,15.66,2122104.0,RU,158.6483,53.0452,75.0,1685427314.0
415,Los Llanos de Aridane,59.13,74.0,8.99,2514651.0,ES,-17.9182,28.6585,0.0,1685427316.0
416,Nuevo Progreso,75.47,87.0,2.62,3522526.0,MX,-97.95,23.1667,65.0,1685427318.0
417,Norsup,78.73,74.0,13.67,2135517.0,VU,167.3833,-16.0667,95.0,1685427320.0
418,Yulara,70.18,27.0,9.22,6355222.0,AU,130.9889,-25.2406,68.0,1685427322.0
419,Hohhot,62.89,77.0,6.71,2036892.0,CN,111.6522,40.8106,75.0,1685427325.0
420,Bowen,71.08,50.0,18.5,2174444.0,AU,148.2333,-20.0167,0.0,1685427327.0
421,Smoky Lake,54.16,82.0,3.44,6150293.0,CA,-112.4686,54.1169,97.0,1685427329.0
422,Angoram,90.12,59.0,4.79,2100765.0,PG,144.0661,-4.0625,57.0,1685427332.0
423,Itarema,76.05,91.0,10.18,3393692.0,BR,-39.9167,-2.9248,55.0,1685427334.0
424,La Asuncion,80.33,94.0,11.5,3480908.0,VE,-63.8628,11.0333,85.0,1685427336.0
425,Berlevåg,42.75,70.0,20.71,780687.0,NO,29.0864,70.8578,75.0,1685427339.0
426,Ambilobe,81.63,61.0,2.35,1082243.0,MG,49.05,-13.2,2.0,1685427341.0
427,Teya,71.24,27.0,7.27,1489656.0,RU,92.6267,60.3778,16.0,1685427343.0
428,Máncora,78.17,72.0,9.84,3695000.0,PE,-81.0475,-4.1078,25.0,1685427345.0
429,Crotone,71.55,68.0,8.05,2524881.0,IT,17.1178,39.0851,0.0,1685427268.0
430,Sechura,74.43,75.0,11.27,3691954.0,PE,-80.8222,-5.5569,31.0,1685427349.0
431,Tarko-Sale,68.04,32.0,18.52,1490085.0,RU,77.785,64.9225,100.0,1685427352.0
432,Yerofey Pavlovich,59.58,38.0,5.21,2012938.0,RU,121.9667,53.9667,52.0,1685427354.0
433,Doha,100.69,24.0,14.97,290030.0,QA,51.5333,25.2867,0.0,1685427304.0
434,Palmer,44.64,82.0,4.61,4946620.0,US,-72.3287,42.1584,0.0,1685427300.0
435,Darhan,68.72,35.0,7.63,2031964.0,MN,105.9228,49.4867,100.0,1685427223.0
436,Rantauprapat,95.09,44.0,3.47,1214073.0,ID,99.8333,2.1,98.0,1685427362.0
437,Arroyo de la Encomienda,56.86,91.0,0.0,3129371.0,ES,-4.7969,41.6096,75.0,1685427364.0
438,Keetmanshoop,42.31,72.0,4.32,3356264.0,NA,18.1333,-26.5833,0.0,1685427366.0
439,Staryy Nadym,68.13,39.0,26.87,1490918.0,RU,72.6842,65.6118,89.0,1685427369.0
440,Beloha,72.66,69.0,11.45,1067565.0,MG,45.05,-25.1667,4.0,1685427371.0
441,Kelvington,60.17,79.0,1.61,5990669.0,CA,-103.5343,52.1667,91.0,1685427373.0
442,Munger,105.13,21.0,5.06,1262482.0,IN,86.4667,25.3833,2.0,1685427375.0
443,Grindavik,45.07,93.0,23.02,3416888.0,IS,-22.4338,63.8424,100.0,1685427377.0
444,Kangaatsiaq,32.54,75.0,14.05,3422683.0,GL,-53.4641,68.3065,100.0,1685427379.0
445,Omsukchan,56.52,36.0,3.36,2122493.0,RU,155.8,62.5333,38.0,1685427382.0
446,Quzhou,91.18,65.0,7.05,1797264.0,CN,118.8686,28.9594,12.0,1685427384.0
447,Neijiang,90.99,53.0,4.18,1799491.0,CN,105.0622,29.5835,56.0,1685427386.0
448,Bonavista,35.82,83.0,12.01,5905393.0,CA,-53.1147,48.6499,41.0,1685427388.0
449,Pauini,72.97,100.0,2.66,3662927.0,BR,-66.9764,-7.7136,93.0,1685427391.0
450,Poso,86.25,68.0,4.54,1630723.0,ID,120.7524,-1.3959,18.0,1685427393.0
451,Hervey Bay,67.59,60.0,10.65,2146219.0,AU,152.8535,-25.2986,0.0,1685427396.0
452,Gambēla,83.61,53.0,2.46,337405.0,ET,34.5833,8.25,66.0,1685427379.0
453,Hede,73.4,74.0,7.25,1808744.0,CN,120.2517,33.7681,99.0,1685427400.0
454,Alice Springs,71.15,28.0,12.28,2077895.0,AU,133.8833,-23.7,20.0,1685427402.0
455,Tazmalt,61.83,79.0,1.57,2477537.0,DZ,4.3989,36.3868,26.0,1685427404.0
456,Mangaratiba,65.26,90.0,3.4,3457991.0,BR,-44.0406,-22.9597,100.0,1685427406.0
457,Porto-Novo,76.82,82.0,2.66,2392087.0,BJ,2.6036,6.4965,100.0,1685427408.0
458,Sabha,81.07,8.0,7.58,2212775.0,LY,14.4283,27.0377,36.0,1685427410.0
459,Salinópolis,79.34,83.0,10.25,3389822.0,BR,-47.3561,-0.6136,99.0,1685427412.0
460,Riyadh,95.14,30.0,12.19,108410.0,SA,46.7219,24.6877,100.0,1685427196.0
461,Jönköping,53.31,66.0,9.22,2702979.0,SE,14.1562,57.7814,0.0,1685427417.0
462,Yatou,67.86,56.0,8.5,1786855.0,CN,122.3833,37.15,96.0,1685427419.0
463,Jaru,71.58,97.0,3.65,3925040.0,BR,-62.4664,-10.4389,100.0,1685427421.0
464,Yashan,94.5,54.0,2.73,1786867.0,CN,109.9419,22.1975,62.0,1685427423.0
465,Bamiantong,66.67,36.0,10.54,2038482.0,CN,130.5333,44.9333,71.0,1685427425.0
466,Boa Vista,75.18,88.0,9.22,3664980.0,BR,-60.6733,2.8197,75.0,1685427333.0
467,Barra do Bugres,66.94,95.0,1.66,3470718.0,BR,-57.1811,-15.0725,95.0,1685427429.0
468,Butembo,67.48,63.0,4.23,217562.0,CD,29.2833,0.15,47.0,1685427432.0
469,Talaya,55.67,50.0,5.03,2120769.0,RU,152.75,61.3833,77.0,1685427434.0
470,Vengurla,85.5,68.0,2.53,1253257.0,IN,73.6333,15.8667,81.0,1685427358.0
471,Maracaçumé,72.93,99.0,2.73,3395497.0,BR,-45.9592,-2.0428,100.0,1685427438.0
472,Nouadhibou,69.78,73.0,21.85,2377457.0,MR,-17.0347,20.931,67.0,1685427440.0
473,La Celia,59.4,99.0,1.25,3679542.0,CO,-76.0167,5.0433,100.0,1685427442.0
474,Lüderitz,51.93,74.0,4.23,3355672.0,NA,15.1594,-26.6481,0.0,1685427445.0
475,Carutapera,77.5,87.0,6.8,3402648.0,BR,-46.02,-1.195,70.0,1685427447.0
476,Yauya,49.41,89.0,1.74,3690733.0,PE,-77.3,-8.9833,91.0,1685427449.0
477,Port Said,70.43,77.0,1.88,358619.0,EG,32.2841,31.2565,0.0,1685427451.0
478,Sambava,79.88,70.0,12.82,1056899.0,MG,50.1667,-14.2667,4.0,1685427453.0
479,Kafanchan,72.28,85.0,1.39,2335713.0,NG,8.3,9.5833,97.0,1685427455.0
480,Neftçala,81.73,51.0,2.37,147425.0,AZ,49.2472,39.3742,100.0,1685427457.0
481,Yhú,64.24,89.0,3.29,3436595.0,PY,-55.9167,-25.05,98.0,1685427460.0
482,Necochea,49.55,68.0,12.17,3430443.0,AR,-58.7368,-38.5473,100.0,1685427437.0
483,Muros,61.39,88.0,4.72,3115824.0,ES,-9.0603,42.7762,84.0,1685427464.0
484,Linxia Chengguanzhen,76.48,44.0,9.98,1803331.0,CN,103.2064,35.6003,51.0,1685427466.0
485,Tripoli,68.81,78.0,21.3,2210247.0,LY,13.1875,32.8752,97.0,1685427386.0
486,Ixtapa,73.15,91.0,1.66,4004293.0,MX,-105.2,20.7,26.0,1685427470.0
487,Santiago del Estero,51.35,78.0,1.9,3835869.0,AR,-64.2615,-27.7951,2.0,1685427472.0
488,Uribia,82.35,73.0,9.06,3666409.0,CO,-72.266,11.7139,95.0,1685427474.0
489,Rome,62.06,66.0,6.91,5134295.0,US,-75.4557,43.2128,0.0,1685427476.0
490,Xuanzhou,78.89,82.0,4.23,1788081.0,CN,118.7553,30.9525,100.0,1685427479.0
491,Arrondissement de Muret,55.87,98.0,1.52,2991152.0,FR,1.25,43.3333,76.0,1685427481.0
492,Orlik,50.72,49.0,7.87,1496073.0,RU,99.825,52.5178,100.0,1685427483.0
493,Toyoake,80.82,49.0,7.36,1856057.0,JP,137.0137,35.0594,100.0,1685427485.0
494,Ibrā’,93.27,36.0,6.42,287832.0,OM,58.5334,22.6906,0.0,1685427487.0
495,Ayagoz,59.49,60.0,3.76,1525988.0,KZ,80.4392,47.9714,97.0,1685427489.0
496,Deputatsky,47.84,79.0,3.65,2028164.0,RU,139.9,69.3,86.0,1685427492.0
497,Moyale,69.75,78.0,9.95,186180.0,KE,39.0584,3.5167,85.0,1685427494.0
498,Gresik,80.98,56.0,9.93,1643776.0,ID,112.6561,-7.1539,49.0,1685427496.0
499,Tsushima,82.17,55.0,8.14,1849539.0,JP,136.7167,35.1667,100.0,1685427498.0
500,Boralday,71.46,24.0,4.47,1526384.0,KZ,76.8594,43.3578,0.0,1685427500.0
501,Mahina,78.57,83.0,6.91,4034307.0,PF,-149.489,-17.5065,75.0,1685427502.0
502,Ust-Maya,67.71,30.0,4.09,2013918.0,RU,134.5333,60.4167,93.0,1685427504.0
503,General Pico,44.64,69.0,7.7,3855075.0,AR,-63.7568,-35.6566,21.0,1685427507.0
504,Labuan,89.96,62.0,5.75,1733782.0,MY,115.2417,5.2767,20.0,1685427509.0
505,Saint Anthony,68.63,46.0,10.36,5044290.0,US,-93.218,45.0205,0.0,1685427511.0
506,Iqaluit,34.7,93.0,9.22,5983720.0,CA,-68.5145,63.7506,100.0,1685427513.0
507,Haapiti,77.72,77.0,5.12,4034438.0,PF,-149.8667,-17.5667,7.0,1685427515.0
508,Sarankhola,100.58,35.0,3.74,1185239.0,BD,89.7897,22.3082,97.0,1685427517.0
509,Odienné,75.52,80.0,4.0,2283016.0,CI,-7.5692,9.51,88.0,1685427519.0
510,Miles City,59.97,88.0,6.91,5666176.0,US,-105.8406,46.4083,0.0,1685427522.0
511,Daru,80.46,81.0,14.72,2098329.0,PG,143.2092,-9.0763,59.0,1685427524.0
512,Umm Kaddadah,83.62,42.0,4.16,364933.0,SD,26.6876,13.6017,8.0,1685427526.0
513,Skegness,54.16,78.0,13.38,2637762.0,GB,0.3363,53.1436,6.0,1685427528.0
514,Saint-François,54.84,94.0,1.14,2980080.0,FR,3.9054,46.4154,0.0,1685427530.0
515,Semey,71.82,21.0,17.9,1519422.0,KZ,80.2275,50.4111,0.0,1685427532.0
516,Esperance,71.8,33.0,7.52,2071860.0,AU,121.9,-33.8667,100.0,1685427534.0
517,Selkirk,64.63,79.0,7.0,6144054.0,CA,-96.8845,50.1436,63.0,1685427536.0
518,Mahajanga,80.37,59.0,12.55,1062663.0,MG,46.3167,-15.7167,0.0,1685427529.0
519,Ruwi,91.09,39.0,4.61,287286.0,OM,58.5507,23.5996,0.0,1685427541.0
520,Pucallpa,72.28,99.0,2.1,3693345.0,PE,-74.5539,-8.3791,58.0,1685427543.0
521,Ginda,78.08,35.0,5.84,1253628.0,IN,78.4932,30.6945,75.0,1685427545.0
522,Hare Bay,33.4,92.0,4.74,5970873.0,CA,-54.0148,48.8499,43.0,1685427318.0
523,Kabalo,74.66,68.0,3.15,215668.0,CD,26.9167,-6.05,65.0,1685427376.0
524,Cockburn Town,81.43,76.0,17.13,3576994.0,TC,-71.1419,21.4612,47.0,1685427551.0
525,Kolomyia,61.97,67.0,2.06,705392.0,UA,25.0403,48.5306,11.0,1685427429.0
526,Odawara,70.54,89.0,3.42,1854747.0,JP,139.1597,35.2556,100.0,1685427555.0
527,Santa Cruz de la Sierra,60.26,94.0,14.97,3904906.0,BO,-63.1667,-17.8,100.0,1685427557.0
528,Derzhavīnsk,86.38,19.0,10.51,1524606.0,KZ,66.3167,51.1,15.0,1685427560.0
529,Raduzhny,72.28,26.0,14.07,1540356.0,RU,77.475,62.0961,40.0,1685427562.0
530,Gulariyā,103.89,19.0,5.3,1283368.0,NP,81.3333,28.2333,23.0,1685427564.0
531,Oudtshoorn,53.96,89.0,3.38,967106.0,ZA,22.2014,-33.5907,25.0,1685427566.0
532,Ruteng,72.39,63.0,1.68,1629380.0,ID,120.4721,-8.6136,22.0,1685427568.0
533,Sokolac,54.57,91.0,1.41,3190385.0,BA,18.8017,43.9397,73.0,1685427570.0
534,Jieshi,86.41,75.0,12.5,1805857.0,CN,115.8257,22.8134,10.0,1685427573.0
535,Porto Velho,77.05,88.0,3.44,3662762.0,BR,-63.9039,-8.7619,0.0,1685427461.0
536,Olinda,74.93,88.0,5.75,3393536.0,BR,-34.8553,-8.0089,75.0,1685427577.0
537,Vallenar,61.09,54.0,3.38,3868633.0,CL,-70.7581,-28.5708,51.0,1685427579.0
538,Bud,62.11,68.0,4.92,4255151.0,US,-86.1758,39.447,27.0,1685427581.0
539,Dhārchula,86.05,34.0,6.6,1272864.0,IN,80.5333,29.85,45.0,1685427583.0
540,Mabaruma,73.63,98.0,2.17,3377301.0,GY,-59.7833,8.2,95.0,1685427586.0
541,Nemuro,47.61,78.0,14.74,2128975.0,JP,145.575,43.3236,46.0,1685427588.0
542,Caucayá,72.73,99.0,0.74,3671437.0,CO,-74.7819,-0.1934,76.0,1685427591.0
543,Vanderhoof,50.18,46.0,5.57,6173361.0,CA,-124.0198,54.0166,67.0,1685427593.0
544,Maravilha,58.62,96.0,3.27,3457809.0,BR,-53.1725,-26.7608,48.0,1685427595.0
545,Nanlong,91.76,50.0,6.33,1799908.0,CN,106.0631,31.3533,3.0,1685427597.0
546,Seryshevo,66.2,28.0,6.64,2016942.0,RU,128.3786,51.0933,71.0,1685427599.0
547,Les Cayes,77.95,86.0,2.55,3728097.0,HT,-73.75,18.2,73.0,1685427602.0
548,Lagoa,62.98,82.0,11.5,3372964.0,PT,-27.9833,39.05,33.0,1685427604.0
549,Pacifica,54.64,87.0,8.05,5380420.0,US,-122.4869,37.6138,20.0,1685427606.0
550,Northam,51.04,82.0,15.37,2641434.0,GB,-4.2167,51.0333,68.0,1685427608.0
551,Rio Grande,48.94,78.0,6.78,3451138.0,BR,-52.0986,-32.035,95.0,1685427610.0
552,Gejiu,82.31,39.0,5.93,1810240.0,CN,103.1635,23.306,12.0,1685427612.0
553,Opuwo,51.76,39.0,2.66,3354077.0,NA,13.84,-18.0607,0.0,1685427615.0
554,La Ronge,55.65,71.0,2.3,6050066.0,CA,-105.2842,55.1001,100.0,1685427617.0
555,Yazykovo,67.77,59.0,8.7,468483.0,RU,56.1353,55.2199,84.0,1685427619.0
556,Batticaloa,86.22,62.0,5.17,1250161.0,LK,81.6924,7.7102,87.0,1685427621.0
557,Khasan,62.51,59.0,8.3,2039557.0,RU,130.6434,42.4308,48.0,1685427623.0
558,Kattivākkam,91.08,78.0,14.25,1267433.0,IN,80.3167,13.2167,93.0,1685427625.0
559,Arrondissement de Saint-Denis,55.06,69.0,18.41,2980915.0,FR,2.3333,48.9167,0.0,1685427628.0
560,Ende,84.2,64.0,4.76,1644932.0,ID,121.6623,-8.8432,17.0,1685427630.0
561,Harlingen,75.43,96.0,4.61,4696233.0,US,-97.6961,26.1906,0.0,1685427632.0
562,Zhicheng,82.06,69.0,10.04,1784554.0,CN,111.5047,30.2956,80.0,1685427634.0
563,Havelock,63.63,89.0,4.61,4470244.0,US,-76.9013,34.8791,100.0,1685427636.0
564,Madimba,78.3,76.0,10.07,878141.0,TZ,40.3333,-10.4,12.0,1685427638.0
565,Pacific Grove,54.63,87.0,4.61,5380437.0,US,-121.9166,36.6177,100.0,1685427480.0
566,Esim,77.97,87.0,5.14,2303611.0,GH,-2.2405,4.8699,86.0,1685427380.0
567,Gorontalo,87.89,63.0,8.84,1643837.0,ID,123.0595,0.5412,18.0,1685427644.0
568,Vaitape,80.2,81.0,4.76,4033077.0,PF,-151.75,-16.5167,1.0,1685427647.0
569,Ottawa,51.3,54.0,10.36,6094817.0,CA,-75.6981,45.4112,0.0,1685427548.0
570,Petropavl,85.98,21.0,11.18,1520172.0,KZ,69.1628,54.8753,0.0,1685427651.0
571,Bossangoa,70.92,90.0,2.64,2388036.0,CF,17.4552,6.4926,98.0,1685427653.0
572,Lavrentiya,34.59,75.0,10.13,4031637.0,RU,-171.0,65.5833,98.0,1685427655.0
573,Muskegon,60.28,64.0,3.44,5003136.0,US,-86.1334,43.3,0.0,1685427657.0
574,Lālmohan,92.32,51.0,5.99,1185251.0,BD,90.7419,22.3384,55.0,1685427659.0
575,Gainesville,67.33,72.0,0.0,4156404.0,US,-82.3248,29.6516,0.0,1685427444.0
