,City,Temp_max,Humidity,wind_speed,city_id,country_code,long,lat,Cloudiness,datetime
0,Flin Flon,69.64,60.0,6.91,5954718.0,CA,-101.865,54.7682,0.0,1685559603.0
1,Severo-Kuril'sk,37.9,90.0,9.98,2121385.0,RU,156.125,50.6789,100.0,1685559611.0
2,Codrington,54.16,65.0,14.83,2171099.0,AU,141.9667,-38.2667,100.0,1685559550.0
3,Bredasdorp,59.41,94.0,9.48,1015776.0,ZA,20.0403,-34.5322,100.0,1685559393.0
4,Kindersley,84.22,18.0,13.8,5992154.0,CA,-109.1682,51.4668,20.0,1685559632.0
5,Kavieng,81.86,79.0,5.39,2094342.0,PG,150.7967,-2.5744,100.0,1685559483.0
6,Brae,49.08,76.0,13.69,2654970.0,GB,-1.353,60.3964,100.0,1685559638.0
7,Hithadhoo,82.06,79.0,8.77,1282256.0,MV,73.0833,-0.6,100.0,1685559418.0
8,Ponta Delgada,66.92,77.0,12.66,3372783.0,PT,-25.6667,37.7333,40.0,1685559647.0
9,Kaitangata,46.76,85.0,5.39,2208248.0,NZ,169.8464,-46.2817,98.0,1685559474.0
10,Neiafu,75.88,94.0,4.61,4032420.0,TO,-173.9833,-18.65,20.0,1685559651.0
11,Busselton,55.45,91.0,12.1,2075265.0,AU,115.3333,-33.65,19.0,1685559373.0
12,Kudahuvadhoo,82.38,78.0,19.53,1337607.0,MV,72.8944,2.6708,100.0,1685559656.0
13,Port Macquarie,48.88,69.0,4.68,2152659.0,AU,152.9167,-31.4333,3.0,1685559359.0
14,Jamestown,80.11,38.0,6.91,5122534.0,US,-79.2353,42.097,0.0,1685559660.0
15,Nantucket,57.25,88.0,8.9,4944903.0,US,-70.0995,41.2835,0.0,1685559662.0
16,São João da Barra,75.29,68.0,10.71,3448903.0,BR,-41.0511,-21.6403,100.0,1685559664.0
17,Castlebar,62.58,77.0,8.1,2965654.0,IE,-9.3,53.85,1.0,1685559667.0
18,Katobu,74.23,92.0,4.21,1640972.0,ID,122.5276,-4.9408,99.0,1685559669.0
19,Port Lincoln,59.04,92.0,8.23,2063036.0,AU,135.8667,-34.7333,33.0,1685559671.0
20,Padampur,68.88,75.0,28.43,1260938.0,IN,73.6167,29.6833,95.0,1685559673.0
21,Cayenne,84.24,70.0,11.5,3382160.0,GF,-52.3333,4.9333,43.0,1685559676.0
22,Norman Wells,50.04,87.0,8.05,6089245.0,CA,-126.8329,65.282,100.0,1685559678.0
23,Upernavik,32.85,99.0,1.23,3418910.0,GL,-56.1549,72.7868,100.0,1685559436.0
24,Ushuaia,44.26,81.0,2.3,3833367.0,AR,-68.3,-54.8,0.0,1685559682.0
25,Tasiilaq,37.56,97.0,3.53,3424607.0,GL,-37.6368,65.6145,100.0,1685559684.0
26,Thunder Bay,69.71,49.0,17.27,6166142.0,CA,-89.3168,48.4001,75.0,1685559614.0
27,Provideniya,39.61,67.0,6.6,4031574.0,RU,-173.3,64.3833,80.0,1685559689.0
28,Cap Malheureux,71.47,73.0,1.01,934649.0,MU,57.6142,-19.9842,1.0,1685559691.0
29,West Wendover,74.41,29.0,12.66,5710035.0,US,-114.0733,40.7391,0.0,1685559563.0
30,Tautira,75.6,68.0,14.29,4033557.0,PF,-149.15,-17.7333,32.0,1685559696.0
31,Avarua,71.65,53.0,4.61,4035715.0,CK,-159.775,-21.2078,13.0,1685559698.0
32,Punta Arenas,44.42,76.0,9.22,3874787.0,CL,-70.9167,-53.15,0.0,1685559663.0
33,Ozernovskiy,38.03,93.0,6.02,2122293.0,RU,156.5167,51.5,100.0,1685559703.0
34,Aksu,72.36,23.0,3.89,1529660.0,CN,80.2644,41.1231,84.0,1685559626.0
35,Arrondissement d'Ajaccio,62.58,73.0,5.75,3038333.0,FR,8.9167,42.0,100.0,1685559707.0
36,Cabedelo,86.67,80.0,11.61,3404558.0,BR,-34.8339,-6.9811,79.0,1685559490.0
37,Dikson,29.88,97.0,7.61,1507390.0,RU,80.5464,73.5069,96.0,1685559711.0
38,Hobart,43.83,77.0,19.57,2163355.0,AU,147.3294,-42.8794,75.0,1685559636.0
39,Vestmannaeyjar,49.19,87.0,16.11,3412093.0,IS,-20.2734,63.4427,20.0,1685559715.0
40,Alofi,64.29,100.0,1.14,4036284.0,NU,-169.9187,-19.0595,100.0,1685559419.0
41,Carnarvon,69.66,79.0,13.15,2074865.0,AU,113.6333,-24.8667,19.0,1685559720.0
42,Saint-Philippe,69.39,78.0,8.86,935215.0,RE,55.7679,-21.3585,42.0,1685559727.0
43,Cabra,72.19,39.0,1.72,2520645.0,ES,-4.4421,37.4725,7.0,1685559729.0
44,Feldbach,68.58,88.0,2.3,2779685.0,AT,15.8883,46.9531,14.0,1685559732.0
45,Tual,81.39,82.0,15.95,1623197.0,ID,132.75,-5.6667,67.0,1685559739.0
46,Longyearbyen,35.44,69.0,13.8,2729907.0,SJ,15.6401,78.2186,75.0,1685559741.0
47,Dukat,47.35,50.0,2.46,2125906.0,RU,155.55,62.55,100.0,1685559743.0
48,Jalu,90.18,18.0,9.71,86049.0,LY,21.5482,29.0331,2.0,1685559745.0
49,Vaini,73.56,100.0,3.44,4032243.0,TO,-175.2,-21.2,75.0,1685559747.0
50,Albany,85.23,34.0,1.99,5106841.0,US,-73.9662,42.6001,0.0,1685559569.0
51,Karaton,73.89,92.0,1.97,1630058.0,ID,106.1045,-6.3424,97.0,1685559752.0
52,Saldanha,59.05,92.0,4.45,3361934.0,ZA,17.9442,-33.0117,16.0,1685559754.0
53,Castro,64.11,68.0,1.83,3466704.0,BR,-50.0119,-24.7911,82.0,1685559756.0
54,Inhambane,71.01,88.0,5.99,1045114.0,MZ,35.3833,-23.865,20.0,1685559758.0
55,Mataura,46.67,86.0,4.5,6201424.0,NZ,168.8643,-46.1927,100.0,1685559760.0
56,Puerto Ayora,78.55,90.0,14.0,3652764.0,EC,-90.3518,-0.7393,80.0,1685559763.0
57,Arraial do Cabo,71.46,83.0,10.36,3471451.0,BR,-42.0278,-22.9661,75.0,1685559761.0
58,Obihiro,46.92,65.0,5.37,2128815.0,JP,143.2044,42.9172,100.0,1685559610.0
59,Penzance,63.28,84.0,8.52,2640377.0,GB,-5.5371,50.1186,0.0,1685559769.0
60,Butaritari,82.04,77.0,9.62,2110227.0,KI,172.7902,3.0707,96.0,1685559771.0
61,Rikitea,76.91,86.0,25.3,4030556.0,PF,-134.9692,-23.1203,100.0,1685559773.0
62,Namatanai,79.48,85.0,7.14,2090021.0,PG,152.4333,-3.6667,100.0,1685559775.0
63,Isangel,75.22,78.0,9.33,2136825.0,VU,169.2667,-19.55,100.0,1685559777.0
64,Saint George,84.16,13.0,8.05,5546220.0,US,-113.5841,37.1041,0.0,1685559685.0
65,Kruisfontein,53.19,91.0,3.89,986717.0,ZA,24.7314,-34.0033,0.0,1685559782.0
66,Mwinilunga,64.27,57.0,4.76,902620.0,ZM,24.4293,-11.7358,70.0,1685559784.0
67,Port Alfred,59.56,84.0,6.93,964432.0,ZA,26.891,-33.5906,12.0,1685559786.0
68,Marzuq,81.7,50.0,5.64,72181.0,YE,46.4667,14.4,55.0,1685559788.0
69,Puerto Escondido,90.43,66.0,8.05,3520994.0,MX,-97.0667,15.85,0.0,1685559791.0
70,Sivaki,47.08,78.0,4.36,2016477.0,RU,126.75,52.6333,85.0,1685559793.0
71,Yellowknife,63.12,39.0,9.22,6185377.0,CA,-114.3525,62.456,75.0,1685559695.0
72,Canchungo,86.13,72.0,9.26,2373951.0,GW,-16.0333,12.0672,100.0,1685559797.0
73,Östersund,39.65,38.0,14.97,2685750.0,SE,14.6357,63.1792,75.0,1685559799.0
74,Fort Nelson,61.95,30.0,8.01,5955902.0,CA,-122.7002,58.8053,40.0,1685559802.0
75,Castelo Branco,68.22,64.0,6.13,2269514.0,PT,-7.4909,39.8222,73.0,1685559804.0
76,Black River,84.45,71.0,13.89,3491355.0,JM,-77.8487,18.0264,100.0,1685559806.0
77,Atuona,80.44,77.0,14.94,4020109.0,PF,-139.0333,-9.8,100.0,1685559808.0
78,Birao,84.33,50.0,8.81,240210.0,CF,22.7882,10.2849,43.0,1685559810.0
79,Ekhabi,36.09,97.0,10.6,2122614.0,RU,142.9671,53.5102,100.0,1685559813.0
80,Barrow,30.22,93.0,16.11,5880054.0,US,-156.7887,71.2906,100.0,1685559815.0
81,Hilo,73.38,90.0,5.01,5855927.0,US,-155.09,19.7297,100.0,1685559817.0
82,Mehamn,39.15,93.0,11.5,778707.0,NO,27.8492,71.0357,75.0,1685559819.0
83,Shingū,59.18,97.0,3.11,1847947.0,JP,135.9833,33.7333,1.0,1685559659.0
84,George Town,86.77,72.0,6.91,1735106.0,MY,100.3354,5.4112,20.0,1685559823.0
85,Russell,82.87,50.0,9.69,4047434.0,US,-85.1999,32.3502,100.0,1685559825.0
86,Sidhi,90.21,26.0,9.98,1256369.0,IN,81.8833,24.4167,1.0,1685559828.0
87,Laramie,74.61,14.0,5.99,5830062.0,US,-105.5911,41.3114,0.0,1685559536.0
88,Bluff,55.62,77.0,16.04,2206939.0,NZ,168.3333,-46.6,100.0,1685559832.0
89,Bayir,64.92,85.0,1.25,304183.0,TR,28.2167,37.2687,7.0,1685559834.0
90,Vila Velha,75.94,83.0,5.75,3445026.0,BR,-40.2925,-20.3297,75.0,1685559836.0
91,Kapaa,77.88,81.0,14.97,5848280.0,US,-159.319,22.0752,40.0,1685559838.0
92,Margate,52.84,84.0,15.01,2643044.0,GB,1.3862,51.3813,42.0,1685559840.0
93,Kamaishi,53.37,73.0,6.04,2112444.0,JP,141.8833,39.2667,8.0,1685559842.0
94,Stăncuţa,66.54,56.0,3.8,666309.0,RO,27.8333,44.9,41.0,1685559845.0
95,Ankang,67.42,92.0,1.41,1789065.0,CN,109.0172,32.68,100.0,1685559847.0
96,Port Elizabeth,57.31,97.0,5.75,964420.0,ZA,25.5701,-33.918,0.0,1685559713.0
97,Morant Bay,85.62,80.0,8.7,3489440.0,JM,-76.4093,17.8815,100.0,1685559851.0
98,São Miguel,84.97,76.0,13.91,3388304.0,BR,-35.3667,-5.4667,73.0,1685559853.0
99,Guerrero Negro,65.89,57.0,19.01,4021858.0,MX,-114.0611,27.9769,17.0,1685559855.0
100,Husavik,52.03,60.0,2.95,2629833.0,IS,-17.3389,66.0449,1.0,1685559857.0
101,Ahipara,56.82,92.0,9.28,2194098.0,NZ,173.1667,-35.1667,21.0,1685559860.0
102,Saint Paul Harbor,47.71,76.0,9.22,5866583.0,US,-152.4072,57.79,100.0,1685559862.0
103,Mahébourg,71.89,83.0,0.0,934322.0,MU,57.7,-20.4081,40.0,1685559670.0
104,Mount Isa,38.97,70.0,0.0,2065594.0,AU,139.5,-20.7333,0.0,1685559866.0
105,Te Anau,51.78,95.0,6.69,2181625.0,NZ,167.7167,-45.4167,100.0,1685559868.0
106,Alenquer,85.66,64.0,5.37,3407980.0,BR,-54.7383,-1.9417,58.0,1685559703.0
107,São Miguel do Araguaia,86.86,44.0,2.39,3448455.0,BR,-50.1628,-13.275,90.0,1685559667.0
108,Kriel,49.8,54.0,8.3,987202.0,ZA,29.2253,-26.2739,84.0,1685559874.0
109,Marsh Harbour,78.24,78.0,10.94,3571913.0,BS,-77.0636,26.5412,100.0,1685559877.0
110,Souillac,71.98,83.0,0.0,933995.0,MU,57.5167,-20.5167,40.0,1685559879.0
111,Tigil',49.12,62.0,17.72,2120612.0,RU,158.6667,57.8,100.0,1685559881.0
112,Kaeo,56.79,95.0,5.53,2189343.0,NZ,173.7833,-35.1,25.0,1685559883.0
113,Cape Town,59.97,87.0,10.36,3369157.0,ZA,18.4232,-33.9258,20.0,1685559594.0
114,Cidreira,70.16,65.0,6.58,3466165.0,BR,-50.2056,-30.1811,6.0,1685559888.0
115,Khatanga,43.11,58.0,8.43,2022572.0,RU,102.5,71.9667,85.0,1685559890.0
116,Karlshamn,66.69,62.0,10.83,2701727.0,SE,14.8619,56.1706,11.0,1685559892.0
117,Pevek,27.01,78.0,7.09,2122090.0,RU,170.3133,69.7008,21.0,1685559894.0
118,Mar del Plata,61.95,77.0,9.22,3430863.0,AR,-57.5575,-38.0023,40.0,1685559897.0
119,Gobabis,55.06,23.0,11.1,3357247.0,NA,18.9667,-22.45,92.0,1685559899.0
120,Gaoyou,69.31,89.0,5.06,1810309.0,CN,119.4278,32.7858,100.0,1685559901.0
121,Bethel,76.64,38.0,11.5,5282297.0,US,-73.414,41.3712,0.0,1685559903.0
122,Santa Maria da Vitória,90.01,31.0,4.65,3450063.0,BR,-44.1886,-13.3947,53.0,1685559906.0
123,Banda Aceh,79.86,79.0,14.34,1215502.0,ID,95.3222,5.5577,100.0,1685559909.0
124,Georgiyevka,71.64,23.0,17.9,1524243.0,KZ,74.7114,43.0369,0.0,1685559911.0
125,Zonguldak,52.93,91.0,2.71,737021.0,TR,31.8333,41.25,1.0,1685559913.0
126,Booué,75.49,95.0,1.74,2401495.0,GA,11.9385,-0.0921,100.0,1685559915.0
127,Siyabuswa,61.75,59.0,7.81,955313.0,ZA,29.0445,-25.1132,0.0,1685559918.0
128,Dunedin,49.86,80.0,7.38,2191562.0,NZ,170.5036,-45.8742,78.0,1685559812.0
129,Roald,47.05,93.0,6.91,3141667.0,NO,6.1333,62.5833,75.0,1685559922.0
130,Tweed,86.86,41.0,7.52,6170799.0,CA,-77.3162,44.4751,6.0,1685559924.0
131,Nanortalik,39.81,93.0,8.59,3421765.0,GL,-45.2371,60.1432,100.0,1685559665.0
132,Port Blair,80.64,89.0,2.3,1259385.0,IN,92.75,11.6667,40.0,1685559928.0
133,Lubango,58.87,58.0,4.09,3347762.0,AO,13.4925,-14.9172,4.0,1685559930.0
134,Shumskiy,48.07,92.0,3.13,1491977.0,RU,99.1328,54.8318,100.0,1685559933.0
135,San Cristobal,84.38,52.0,7.72,3628473.0,VE,-72.225,7.7669,29.0,1685559935.0
136,Nioro,92.84,37.0,10.58,2412408.0,GM,-15.75,13.35,71.0,1685559937.0
137,Thompson,53.76,71.0,9.22,6165406.0,CA,-97.8558,55.7435,75.0,1685559939.0
138,Manaus,90.09,58.0,6.91,3663517.0,BR,-60.025,-3.1019,40.0,1685559941.0
139,Laguna,69.4,62.0,8.05,5364271.0,US,-121.4238,38.421,0.0,1685559943.0
140,Hermanus,59.81,89.0,3.31,3366880.0,ZA,19.2345,-34.4187,98.0,1685559946.0
141,Westport,73.08,38.0,5.75,4845585.0,US,-73.3579,41.1415,0.0,1685559930.0
142,Dicabisagan,79.97,76.0,7.4,1715015.0,PH,122.4157,17.0818,94.0,1685559950.0
143,Newport,59.85,75.0,13.69,2641598.0,GB,-2.9984,51.5877,100.0,1685559671.0
144,Tateyama,65.07,74.0,5.48,1850523.0,JP,139.8667,34.9833,84.0,1685559959.0
145,Kuznechikha,52.12,93.0,6.73,537760.0,RU,42.3348,57.2161,38.0,1685559961.0
146,Poum,72.7,71.0,8.79,2138555.0,NC,164.0167,-20.2333,15.0,1685559963.0
147,Chokurdakh,27.73,83.0,7.36,2126123.0,RU,147.9167,70.6333,45.0,1685559965.0
148,Coquimbo,67.73,55.0,12.66,3893629.0,CL,-71.3436,-29.9533,0.0,1685559736.0
149,Ust-Nera,46.09,84.0,8.16,2120048.0,RU,143.2,64.5667,84.0,1685559970.0
150,Kavaratti,85.5,71.0,3.6,1267390.0,IN,72.642,10.5669,77.0,1685559972.0
151,Eruwa,80.17,80.0,9.26,2338669.0,NG,3.4167,7.5333,76.0,1685559974.0
152,Polyarny,45.68,82.0,5.48,506763.0,RU,33.4478,69.1989,100.0,1685559976.0
153,Ribeira Grande,68.4,73.0,9.22,3372707.0,PT,-28.7,38.5167,40.0,1685559978.0
154,Kalemie,72.18,67.0,1.16,214974.0,CD,29.1947,-5.9475,0.0,1685559980.0
155,Tuktoyaktuk,41.0,87.0,10.36,6170031.0,CA,-133.0374,69.4541,75.0,1685559983.0
156,Tomatlán,93.09,39.0,11.83,3981391.0,MX,-105.25,19.9333,0.0,1685559985.0
157,Bratca,58.01,85.0,4.25,683837.0,RO,22.6167,46.9333,34.0,1685559987.0
158,Chiang Khong,74.86,90.0,1.16,1611197.0,TH,100.4046,20.2613,94.0,1685559989.0
159,Gijang,58.73,60.0,4.94,1842966.0,KR,129.2139,35.2442,100.0,1685559991.0
160,Vao,71.65,66.0,18.5,2137773.0,NC,167.4833,-22.6667,80.0,1685559993.0
161,Marawi,70.74,90.0,6.33,1701054.0,PH,124.2928,7.9986,100.0,1685559996.0
162,Kununurra,53.58,76.0,2.3,2068110.0,AU,128.7333,-15.7667,100.0,1685559998.0
163,Ponta do Sol,69.44,91.0,8.88,2264557.0,PT,-17.1,32.6667,51.0,1685560000.0
164,Vanimo,78.21,87.0,1.95,2084442.0,PG,141.3028,-2.6741,96.0,1685559739.0
165,Kenai,49.24,70.0,5.75,5866063.0,US,-151.2583,60.5544,20.0,1685559706.0
166,Tarnogskiy Gorodok,52.5,90.0,4.5,484314.0,RU,43.5761,60.4997,89.0,1685560006.0
167,Tottori-shi,60.04,73.0,7.25,1849892.0,JP,134.2333,35.5,82.0,1685560008.0
168,Baracoa,85.35,68.0,1.66,3567834.0,CU,-74.4958,20.3467,100.0,1685560010.0
169,Krasnyy Kholm,48.78,63.0,6.76,541704.0,RU,37.1203,58.0607,97.0,1685560012.0
170,Nabire,76.89,91.0,2.55,1634614.0,ID,135.4833,-3.3667,100.0,1685560014.0
171,Zaysan,54.1,53.0,10.2,1517060.0,KZ,84.8667,47.4667,7.0,1685560017.0
172,New Norfolk,39.61,71.0,5.99,2155415.0,AU,147.0587,-42.7826,44.0,1685560019.0
173,Muhos,51.58,58.0,10.98,645765.0,FI,25.9931,64.808,100.0,1685560021.0
174,Sabzawār,82.87,8.0,8.88,118063.0,IR,57.6819,36.2126,59.0,1685560023.0
175,Catuday,82.44,75.0,10.33,1717787.0,PH,119.8062,16.2923,100.0,1685560025.0
176,Enshi,73.45,96.0,0.47,1811720.0,CN,109.4833,30.3,100.0,1685560027.0
177,Timiryazevskiy,55.76,69.0,0.92,1489597.0,RU,84.8769,56.49,18.0,1685560030.0
178,Aklavik,55.08,56.0,4.23,5882953.0,CA,-135.0107,68.2191,100.0,1685560032.0
179,Pochutla,91.81,47.0,11.07,3517970.0,MX,-96.4661,15.7432,5.0,1685560034.0
180,Bathsheba,84.09,72.0,16.2,3374083.0,BB,-59.5167,13.2167,76.0,1685560036.0
181,Salalah,86.09,79.0,3.44,286621.0,OM,54.0924,17.0151,40.0,1685560038.0
182,Airai,54.91,86.0,3.06,1651810.0,TL,125.4092,-8.9266,84.0,1685560040.0
183,Fuyang,72.23,70.0,2.66,1810845.0,CN,115.8167,32.9,77.0,1685560043.0
184,Makakilo City,79.7,65.0,10.36,5850554.0,US,-158.0858,21.3469,20.0,1685560045.0
185,Impfondo,75.2,82.0,1.43,2259655.0,CG,18.0667,1.6381,92.0,1685560050.0
186,Anloga,82.87,78.0,12.01,2304548.0,GH,0.8973,5.7947,87.0,1685560052.0
187,Chui,66.0,65.0,0.89,3443061.0,UY,-53.4616,-33.6971,100.0,1685560054.0
188,Nishihara,78.08,94.0,29.93,1855342.0,JP,127.7558,26.1842,75.0,1685560056.0
189,Bariloche,47.73,77.0,13.42,7647007.0,AR,-71.3082,-41.1456,12.0,1685560059.0
190,Kristianstad,60.94,59.0,12.66,2699310.0,SE,14.1524,56.0313,94.0,1685560061.0
191,Cabo San Lucas,79.25,50.0,16.11,3985710.0,MX,-109.9124,22.8909,0.0,1685560063.0
192,Hunchun,53.11,81.0,1.66,2036653.0,CN,130.3581,42.8675,100.0,1685560065.0
193,Aykhal,35.78,59.0,3.91,2027296.0,RU,111.5,66.0,1.0,1685560067.0
194,Nchelenge,70.27,61.0,4.83,175499.0,ZM,28.734,-9.3451,4.0,1685560069.0
195,Hobyo,82.85,79.0,22.06,57000.0,SO,48.5268,5.3505,31.0,1685560071.0
196,Pechenga,44.01,92.0,9.71,511865.0,RU,31.1703,69.5259,100.0,1685560073.0
197,Hambantota,80.94,94.0,9.22,1244926.0,LK,81.1185,6.1241,20.0,1685560076.0
198,Lompoc,64.58,73.0,17.0,5367788.0,US,-120.4579,34.6391,2.0,1685560078.0
199,Hasaki,52.47,75.0,3.15,2112802.0,JP,140.8333,35.7333,36.0,1685560080.0
200,Departamento de Maldonado,61.72,65.0,4.65,3441890.0,UY,-54.9167,-34.6667,100.0,1685560082.0
201,Naze,74.16,92.0,13.53,1855540.0,JP,129.4833,28.3667,100.0,1685560084.0
202,Nikolskoye,53.51,79.0,3.67,546105.0,RU,30.7861,59.7035,95.0,1685560086.0
203,Dul'durga,46.58,69.0,6.02,2024812.0,RU,113.5931,50.6761,95.0,1685560089.0
204,Leh,48.06,61.0,3.02,1264976.0,IN,77.5833,34.1667,99.0,1685559835.0
205,Lata,67.51,85.0,4.32,2738381.0,PT,-8.3327,40.1629,88.0,1685560093.0
206,Tiksi,27.18,84.0,5.01,2015306.0,RU,128.8694,71.6872,99.0,1685560095.0
207,Qaanaaq,22.15,68.0,4.65,3831208.0,GL,-69.3632,77.484,0.0,1685560097.0
208,Ilulissat,37.42,93.0,8.05,3423146.0,GL,-51.1,69.2167,75.0,1685560099.0
209,Saint-Augustin,58.69,58.0,9.19,6137462.0,CA,-58.6502,51.226,50.0,1685560102.0
210,Saskylakh,35.91,82.0,7.0,2017155.0,RU,114.0833,71.9167,100.0,1685560104.0
211,Tessalit,92.64,6.0,10.85,2449893.0,ML,1.0114,20.1986,68.0,1685560106.0
212,Rayong,84.78,76.0,9.01,1607016.0,TH,101.4333,12.8333,100.0,1685560108.0
213,Sur,90.77,47.0,15.35,286245.0,OM,59.5289,22.5667,11.0,1685560111.0
214,Bereket,89.58,11.0,3.24,161974.0,TM,55.5154,39.2446,100.0,1685560113.0
215,Staraya Kulatka,61.36,88.0,4.65,489164.0,RU,47.6167,52.7167,100.0,1685560115.0
216,Roswell,76.1,70.0,4.61,4219934.0,US,-84.3616,34.0232,100.0,1685559911.0
217,Santa Luzia,77.76,48.0,2.3,3450144.0,BR,-43.8514,-19.7697,75.0,1685559903.0
218,São Filipe,77.92,63.0,13.15,3374210.0,CV,-24.4956,14.8961,57.0,1685560121.0
219,San Luis,70.09,42.0,4.52,3837056.0,AR,-66.3356,-33.295,78.0,1685559997.0
220,Fairbanks,48.54,73.0,12.66,5861897.0,US,-147.7164,64.8378,100.0,1685559902.0
221,Sibolga,76.69,88.0,2.89,1213855.0,ID,98.7792,1.7427,91.0,1685560128.0
222,Pahrump,78.73,22.0,8.01,5509851.0,US,-115.9839,36.2083,23.0,1685559994.0
223,Narsaq,43.02,98.0,4.23,3421719.0,GL,-46.05,60.9167,100.0,1685560132.0
224,Hamilton,85.39,47.0,9.22,4513583.0,US,-84.5333,39.1834,20.0,1685560062.0
225,Fortuna,58.69,79.0,10.36,5563839.0,US,-124.1573,40.5982,100.0,1685560136.0
226,Ayan,40.59,97.0,4.43,2027316.0,RU,138.1667,56.45,100.0,1685560138.0
227,El Dorado,65.55,65.0,3.0,5345659.0,US,-120.5177,38.7666,6.0,1685560140.0
228,Leonidovo,40.19,90.0,5.06,2123805.0,RU,142.8667,49.2833,70.0,1685560143.0
229,Chicama,75.74,62.0,10.49,3698359.0,PE,-79.1469,-7.8447,10.0,1685560145.0
230,Umluj,83.08,57.0,8.84,100926.0,SA,37.2685,25.0213,0.0,1685560147.0
231,Acapulco de Juárez,91.22,55.0,8.05,3533462.0,MX,-99.8901,16.8634,0.0,1685560128.0
232,Santa Maria,71.19,62.0,2.21,3450083.0,BR,-53.8069,-29.6842,7.0,1685560151.0
233,Ubinskoye,58.03,51.0,2.01,1488708.0,RU,79.6802,55.3068,9.0,1685560153.0
234,Flinders,65.8,62.0,5.99,6255012.0,AU,150.8552,-34.5833,100.0,1685560156.0
235,Broome,84.54,35.0,5.75,5110365.0,US,-75.833,42.2506,0.0,1685560117.0
236,Mossamedes,67.78,71.0,2.68,3347019.0,AO,12.1522,-15.1961,5.0,1685560160.0
237,Orange Cove,73.8,51.0,8.05,5379533.0,US,-119.3137,36.6244,0.0,1685560162.0
238,Barra Patuca,90.72,54.0,9.06,3614835.0,HN,-84.2833,15.8,98.0,1685560164.0
239,Arlit,95.76,12.0,11.81,2447513.0,NE,7.3853,18.7369,66.0,1685560166.0
240,Chilia Veche,66.42,55.0,5.14,682117.0,RO,29.2833,45.4167,53.0,1685560168.0
241,Conde,83.66,70.0,11.5,3385077.0,BR,-34.9075,-7.2597,20.0,1685560171.0
242,Bulungu,73.85,83.0,2.28,2316259.0,CD,18.6,-4.55,56.0,1685560173.0
243,Baker City,61.72,41.0,4.61,5712169.0,US,-117.8344,44.7749,100.0,1685560172.0
244,Rājākhera,88.12,35.0,3.06,1258930.0,IN,78.1714,26.8961,0.0,1685560177.0
245,Portland,59.76,52.0,8.05,5746545.0,US,-122.6762,45.5234,75.0,1685560003.0
246,Birkeland,63.43,36.0,14.97,3161532.0,NO,8.2323,58.3309,0.0,1685560181.0
247,Dvinskoy Bereznik,50.2,68.0,5.12,577240.0,RU,42.7072,62.8551,87.0,1685560183.0
248,Jalingo,76.15,88.0,7.38,2336589.0,NG,11.3667,8.8833,100.0,1685560186.0
249,Yar-Sale,52.88,87.0,7.92,1486321.0,RU,70.8333,66.8333,100.0,1685560188.0
250,Tafresh,65.86,50.0,0.34,113636.0,IR,50.013,34.692,82.0,1685560190.0
251,Homer,46.94,77.0,11.5,5864145.0,US,-151.5483,59.6425,40.0,1685560010.0
252,Mandalgovi,43.72,89.0,12.24,2030065.0,MN,106.2708,45.7625,100.0,1685560095.0
253,Kibala,85.05,53.0,3.69,2425791.0,TD,18.3463,9.1104,16.0,1685560196.0
254,Ulladulla,54.77,61.0,10.83,2145554.0,AU,150.4667,-35.35,100.0,1685560198.0
255,Sitka,48.09,71.0,5.75,5557293.0,US,-135.33,57.0531,75.0,1685560200.0
256,Leningradskiy,29.75,85.0,7.76,2123814.0,RU,178.4167,69.3833,100.0,1685560202.0
257,Takāb,58.93,58.0,3.96,113508.0,IR,47.1133,36.4009,0.0,1685560077.0
258,Tarancón,64.35,60.0,3.98,3108317.0,ES,-3.0073,40.0085,100.0,1685560207.0
259,Goderich,74.91,53.0,3.67,5962442.0,CA,-81.7165,43.7501,0.0,1685560209.0
260,Rosa Zarate,81.73,85.0,4.81,3652257.0,EC,-79.4667,0.3333,95.0,1685560212.0
261,Luganville,77.49,88.0,9.89,2136150.0,VU,167.1667,-15.5333,99.0,1685560214.0
262,Druzhba,51.6,65.0,4.23,709584.0,UA,33.9453,52.0428,0.0,1685560216.0
263,Valea lui Mihai,73.11,61.0,5.75,663692.0,RO,22.15,47.5167,64.0,1685560218.0
264,Ancud,53.62,83.0,7.31,3899695.0,CL,-73.8203,-41.8697,100.0,1685560125.0
265,Matagami,87.57,25.0,12.44,6067747.0,CA,-77.6328,49.7502,14.0,1685560223.0
266,Peniche,66.43,81.0,8.14,2264923.0,PT,-9.3811,39.3558,0.0,1685560225.0
267,Miraflores,76.08,34.0,3.11,3761194.0,MX,-98.8083,19.2167,65.0,1685560227.0
268,Lebu,57.6,86.0,6.29,3883457.0,CL,-73.65,-37.6167,100.0,1685560210.0
269,Crawley,59.31,64.0,17.27,2652053.0,GB,-0.1831,51.113,20.0,1685560231.0
270,Khonsa,72.39,70.0,3.36,1266668.0,IN,95.5667,27.0167,5.0,1685560233.0
271,Yumen,57.29,35.0,10.07,1528998.0,CN,97.2,40.2833,100.0,1685560235.0
272,Bubaque,82.06,82.0,13.27,2374583.0,GW,-15.8333,11.2833,97.0,1685560238.0
273,Ribas do Rio Pardo,74.44,69.0,2.48,3451399.0,BR,-53.7592,-20.4431,100.0,1685560240.0
274,Malbork,60.85,69.0,4.21,3092472.0,PL,19.0266,54.0359,12.0,1685560242.0
275,Saint-Leu,68.86,76.0,8.25,6690297.0,RE,55.2833,-21.15,14.0,1685560244.0
276,Arkhara,45.27,94.0,5.46,2027487.0,RU,130.0842,49.4212,74.0,1685560246.0
277,Tura,79.56,50.0,4.43,1254046.0,IN,90.2201,25.5198,11.0,1685560253.0
278,Ingham,87.53,36.0,9.22,4997130.0,US,-84.3833,42.6,40.0,1685560255.0
279,Sarandi,67.53,79.0,3.42,3447998.0,BR,-51.8739,-23.4436,89.0,1685560262.0
280,Biak,76.21,88.0,5.68,1637001.0,ID,122.8766,-0.9131,100.0,1685560265.0
281,Nieuw Amsterdam,83.17,84.0,6.91,3383434.0,SR,-55.0833,5.8833,40.0,1685560267.0
282,Boundiali,78.3,80.0,5.08,2290836.0,CI,-6.4869,9.5217,100.0,1685560269.0
283,Aitape,79.05,85.0,2.24,2101169.0,PG,142.3475,-3.1374,52.0,1685560271.0
284,Manadhoo,83.57,77.0,13.8,1337618.0,MV,73.3833,5.7667,100.0,1685560273.0
285,Ca Mau,79.7,87.0,4.83,1586443.0,VN,105.15,9.1769,67.0,1685560276.0
286,San Patricio,88.09,55.0,11.34,4726521.0,US,-97.5169,28.017,44.0,1685560279.0
287,Portree,57.52,81.0,11.3,2640006.0,GB,-6.1942,57.4129,4.0,1685560281.0
288,Srednekolymsk,40.73,54.0,11.12,2121025.0,RU,153.6833,67.45,95.0,1685560269.0
289,Zhangaözen,85.53,9.0,12.66,607610.0,KZ,52.8,43.3,100.0,1685560285.0
290,Mayo,74.1,59.0,4.61,4362001.0,US,-76.5119,38.8876,0.0,1685560287.0
291,Hualmay,73.74,67.0,9.33,3939761.0,PE,-77.6139,-11.0964,7.0,1685560263.0
292,Púchov,66.69,75.0,4.85,3057963.0,SK,18.326,49.1249,2.0,1685560291.0
293,Hong Kong,86.47,88.0,3.18,1819729.0,HK,114.1577,22.2855,68.0,1685560047.0
294,Dzilam González,80.91,71.0,9.31,3529654.0,MX,-88.9333,21.2833,80.0,1685560296.0
295,Sistranda,44.56,70.0,21.68,3139597.0,NO,8.834,63.7256,75.0,1685560298.0
296,Ondjiva,69.48,37.0,5.79,3346821.0,AO,15.7333,-17.0667,12.0,1685560300.0
297,Taguatinga,92.12,30.0,4.9,6319623.0,BR,-46.5711,-12.3857,49.0,1685560302.0
298,Evensk,48.83,75.0,9.86,2125693.0,RU,159.2333,61.95,100.0,1685560304.0
299,Katsuura,64.06,76.0,4.88,2112309.0,JP,140.3,35.1333,53.0,1685560306.0
300,Ambovombe,69.85,76.0,14.16,1079048.0,MG,46.0833,-25.1667,93.0,1685560099.0
301,Pisco,69.85,73.0,5.75,3932145.0,PE,-76.2167,-13.7,100.0,1685560311.0
302,Lala,76.62,95.0,1.16,1707944.0,PH,123.7458,7.9745,100.0,1685560313.0
303,East London,61.88,81.0,6.04,1006984.0,ZA,27.9116,-33.0153,58.0,1685560041.0
304,Nyurba,39.47,76.0,3.62,2018735.0,RU,118.3319,63.2842,82.0,1685560317.0
305,Baykit,51.31,61.0,1.45,1510689.0,RU,96.37,61.67,56.0,1685560319.0
306,Muyezerskiy,44.87,85.0,4.85,524100.0,RU,31.65,63.9333,87.0,1685560326.0
307,Umarkot,85.96,58.0,18.97,1162959.0,PK,69.7362,25.3616,2.0,1685560131.0
308,Paamiut,36.21,97.0,31.92,3421193.0,GL,-49.6678,61.994,100.0,1685560330.0
309,Gberia Fotombu,75.65,90.0,5.53,2409019.0,SL,-11.1667,9.8833,100.0,1685560333.0
310,Auki,77.59,88.0,3.89,2109701.0,SB,160.7034,-8.7676,58.0,1685560335.0
311,Timmins,86.72,28.0,11.18,6166739.0,CA,-81.3331,48.4669,57.0,1685560104.0
312,Pachino,66.88,79.0,6.26,6539213.0,IT,15.0907,36.7186,12.0,1685560339.0
313,Arrondissement d'Arcachon,71.67,64.0,5.75,6621469.0,FR,-1.0519,44.5875,0.0,1685560341.0
314,Avera,75.83,56.0,10.27,4231997.0,US,-82.5271,33.194,100.0,1685560343.0
315,Bonthe,81.23,80.0,7.47,2409914.0,SL,-12.505,7.5264,76.0,1685560345.0
316,Songjianghe,55.67,75.0,10.18,2034691.0,CN,127.479,42.1859,100.0,1685560348.0
317,Salisbury,61.66,69.0,14.97,2638664.0,GB,-1.7957,51.0693,40.0,1685560350.0
318,Xi'an,61.12,87.0,2.33,1790630.0,CN,108.9286,34.2583,98.0,1685560352.0
319,Touros,82.45,75.0,13.2,3386213.0,BR,-35.4608,-5.1989,93.0,1685560354.0
320,Boda,74.68,80.0,2.91,2388614.0,CF,17.4695,4.3189,72.0,1685560356.0
321,Mayumba,75.38,92.0,6.44,2399001.0,GA,10.6554,-3.432,40.0,1685560358.0
322,Chul'man,40.33,91.0,4.85,2025261.0,RU,124.9104,56.8479,45.0,1685560361.0
323,Tambacounda,100.45,34.0,6.91,2244991.0,SN,-13.7586,13.7539,0.0,1685560363.0
324,Bushehr,87.89,58.0,9.22,139817.0,IR,50.8385,28.9684,0.0,1685560365.0
325,Port Hardy,53.78,66.0,8.05,6111862.0,CA,-127.4199,50.6996,75.0,1685560367.0
326,Shashi,73.78,79.0,5.95,1795816.0,CN,112.2447,30.3072,100.0,1685560369.0
327,Grand-Lahou,80.53,84.0,7.78,2288105.0,CI,-5.0242,5.1367,100.0,1685560372.0
328,State College,82.83,30.0,11.5,5213681.0,US,-77.86,40.7934,0.0,1685560374.0
329,Teguise,68.22,73.0,5.75,2510573.0,ES,-13.564,29.0605,20.0,1685560376.0
330,Magdagachi,42.76,91.0,4.14,2020591.0,RU,125.8,53.45,20.0,1685560379.0
331,Gaozhou,79.65,86.0,2.17,1810295.0,CN,110.8461,21.9392,9.0,1685560381.0
332,Meulaboh,76.33,88.0,3.87,1214488.0,ID,96.1285,4.1363,99.0,1685560383.0
333,Río Gallegos,48.25,61.0,3.44,3838859.0,AR,-69.2181,-51.6226,0.0,1685560385.0
334,Chaihe,53.58,97.0,3.89,2038198.0,CN,129.7,44.7667,100.0,1685560387.0
335,Nikel,46.58,84.0,8.7,522260.0,RU,30.222,69.4128,100.0,1685560389.0
336,Beringovskiy,47.41,58.0,8.88,2126710.0,RU,179.3167,63.05,38.0,1685560391.0
337,Coyhaique,49.95,71.0,5.75,3894426.0,CL,-72.0662,-45.5752,75.0,1685560393.0
338,Vardø,42.78,93.0,9.22,777019.0,NO,31.1107,70.3705,75.0,1685560216.0
339,Talnakh,43.21,81.0,7.52,1490256.0,RU,88.3972,69.4865,86.0,1685560398.0
340,Faya,61.32,59.0,2.08,110690.0,SA,42.4509,18.3851,100.0,1685560275.0
341,Znamenskoye,58.46,66.0,3.83,1485020.0,RU,73.8282,57.1281,93.0,1685560402.0
342,Manavgat,67.15,83.0,1.66,304854.0,TR,31.4431,36.7867,73.0,1685560404.0
343,Cairns,69.91,92.0,10.36,2172797.0,AU,145.7667,-16.9167,75.0,1685560406.0
344,Klaksvík,47.32,78.0,7.05,2618795.0,FO,-6.589,62.2266,95.0,1685560408.0
345,Fonte Boa,83.82,84.0,4.0,6319315.0,BR,-66.2662,-2.4959,16.0,1685560410.0
346,Piaçabuçu,78.96,84.0,10.29,3454005.0,BR,-36.4344,-10.4056,15.0,1685560260.0
347,Havøysund,37.63,98.0,18.16,779622.0,NO,24.6622,70.9963,100.0,1685560415.0
348,Boden,46.4,35.0,15.05,606531.0,SE,21.6886,65.8252,87.0,1685560417.0
349,Nhulunbuy,74.01,78.0,10.36,2064735.0,AU,136.7667,-12.2333,27.0,1685560419.0
350,Kamenka,55.47,89.0,9.78,553766.0,RU,42.7678,51.3223,4.0,1685560421.0
351,Kazachinskoye,49.71,85.0,2.13,1504075.0,RU,93.2761,57.6953,1.0,1685560423.0
352,Geraldton,63.01,88.0,12.66,2070998.0,AU,114.6,-28.7667,75.0,1685560425.0
353,Maxixe,71.42,88.0,4.61,1039536.0,MZ,35.3472,-23.8597,20.0,1685560427.0
354,Leon Valley,86.34,54.0,13.8,4705923.0,US,-98.6186,29.4952,40.0,1685560435.0
355,Nome,33.89,74.0,6.91,5870133.0,US,-165.4064,64.5011,75.0,1685560437.0
356,Manokwari,78.6,82.0,3.6,1636308.0,ID,134.0833,-0.8667,71.0,1685560439.0
357,Grand-Santi,88.88,56.0,3.22,3381538.0,GF,-54.3833,4.25,89.0,1685560441.0
358,Faanui,77.54,67.0,15.17,4034551.0,PF,-151.75,-16.4833,24.0,1685560443.0
359,Clyde River,26.83,93.0,20.71,5924351.0,CA,-68.5914,70.4692,20.0,1685560446.0
360,Kosa,55.99,99.0,2.04,544318.0,RU,54.9977,59.9445,98.0,1685560448.0
361,Blackwater,54.48,87.0,4.97,2175403.0,AU,148.8833,-23.5833,0.0,1685560455.0
362,Assiniboia,82.22,24.0,10.36,5887798.0,CA,-105.9845,49.6334,100.0,1685560457.0
363,Bambous Virieux,70.05,83.0,0.0,1106677.0,MU,57.7575,-20.3428,40.0,1685560459.0
364,Arona,66.27,75.0,17.27,2521582.0,ES,-16.681,28.0996,20.0,1685560461.0
365,Belyy Yar,48.09,87.0,4.47,1510377.0,RU,91.3903,53.6039,0.0,1685560463.0
366,San Miguel,87.57,60.0,5.68,3583446.0,SV,-88.1833,13.4833,100.0,1685560192.0
367,Maniitsoq,35.47,98.0,32.68,3421982.0,GL,-52.9,65.4167,100.0,1685560468.0
368,Freeport,71.6,61.0,10.36,5117949.0,US,-73.5832,40.6576,0.0,1685560309.0
369,Constitución,61.47,72.0,7.18,3893726.0,CL,-72.4167,-35.3333,100.0,1685560331.0
370,Tarakan,81.66,79.0,4.99,1624725.0,ID,117.6333,3.3,100.0,1685560474.0
371,Nirmal,94.26,30.0,5.44,1261288.0,IN,78.35,19.1,100.0,1685560476.0
372,Zmeinogorsk,50.97,68.0,6.17,1485042.0,RU,82.195,51.1567,0.0,1685560478.0
373,Valparaíso,77.23,27.0,14.97,3868626.0,CL,-71.6273,-33.0393,0.0,1685560480.0
374,Caravelas,76.89,73.0,6.51,3466980.0,BR,-39.2481,-17.7125,17.0,1685560482.0
375,Torbay,54.68,58.0,11.5,6167817.0,CA,-52.7314,47.6666,20.0,1685560485.0
376,Le Port,69.76,78.0,1.88,935616.0,RE,55.2919,-20.9373,30.0,1685560487.0
377,Kumul,66.04,17.0,14.56,1529484.0,CN,93.45,42.8,2.0,1685560489.0
378,Inverell,44.71,86.0,2.62,2162662.0,AU,151.1167,-29.7833,52.0,1685560491.0
379,Tortolì,64.4,83.0,5.23,2522890.0,IT,9.6572,39.9256,2.0,1685560493.0
380,Beipiao,63.48,60.0,6.11,2038342.0,CN,120.7792,41.7919,1.0,1685560495.0
381,Novo Aripuanã,85.84,71.0,4.45,3663142.0,BR,-60.3797,-5.1206,73.0,1685560347.0
382,Akdepe,77.09,7.0,7.0,601551.0,TM,59.3788,42.0551,100.0,1685560499.0
383,Pangnirtung,30.2,93.0,11.5,6096551.0,CA,-65.7125,66.1451,100.0,1685560502.0
384,Komatipoort,63.05,73.0,2.75,988290.0,ZA,31.9548,-25.4332,4.0,1685560504.0
385,Kailua,80.17,78.0,4.61,5847486.0,US,-157.7394,21.4022,100.0,1685560506.0
386,Massakory,89.51,45.0,11.14,2428228.0,TD,15.7293,12.996,99.0,1685560508.0
387,Byron Bay,55.71,73.0,7.02,2172880.0,AU,153.6167,-28.65,92.0,1685560511.0
388,Dawson Creek,58.64,31.0,11.5,5935804.0,CA,-120.2362,55.7666,0.0,1685560513.0
389,Port-Gentil,78.71,83.0,12.64,2396518.0,GA,8.7815,-0.7193,100.0,1685560515.0
390,Augusto Corrêa,83.08,76.0,7.49,3406961.0,BR,-46.635,-1.0217,4.0,1685560517.0
391,Araouane,95.95,13.0,10.92,2460954.0,ML,-3.5265,18.9048,33.0,1685560520.0
392,Coahuayana Viejo,93.96,40.0,9.13,4013679.0,MX,-103.6833,18.7333,0.0,1685560522.0
393,Mount Gambier,53.42,66.0,8.72,2156643.0,AU,140.7667,-37.8333,100.0,1685560524.0
394,Swan River,76.89,47.0,11.5,6160362.0,CA,-101.2676,52.1058,0.0,1685560526.0
395,Bima,75.38,92.0,4.09,1648759.0,ID,118.7167,-8.4667,92.0,1685560528.0
396,Cherskiy,32.85,61.0,8.72,2126199.0,RU,161.3,68.75,100.0,1685560530.0
397,Adrar,93.69,15.0,7.0,2381972.0,MR,-10.0711,20.5022,100.0,1685560255.0
398,Egvekinot,33.17,96.0,1.1,4031742.0,RU,-179.1667,66.3167,100.0,1685560535.0
399,Comodoro Rivadavia,62.46,36.0,31.07,3860443.0,AR,-67.5,-45.8667,20.0,1685560423.0
400,Volchikha,56.55,60.0,5.48,1486983.0,RU,80.3833,52.0333,6.0,1685560539.0
401,Paita,78.48,71.0,10.54,3694112.0,PE,-81.1144,-5.0892,49.0,1685560541.0
402,Calama,75.69,8.0,20.71,3897347.0,CL,-68.9333,-22.4667,0.0,1685560543.0
403,Abalak,66.16,59.0,7.14,1512223.0,RU,68.5944,58.1286,100.0,1685560545.0
404,Atar,96.64,16.0,12.66,2381334.0,MR,-13.0499,20.5169,100.0,1685560547.0
405,Venado Tuerto,69.76,50.0,9.75,3833062.0,AR,-61.9688,-33.7456,8.0,1685560550.0
406,Ostrovnoy,46.71,84.0,15.52,556268.0,RU,39.5131,68.0531,100.0,1685560552.0
407,Praia,79.34,61.0,23.02,3374333.0,CV,-23.5087,14.9215,0.0,1685560554.0
408,Campoverde,82.09,76.0,3.0,3733380.0,PE,-74.8058,-8.4753,91.0,1685560556.0
409,Peebles,56.62,78.0,4.0,2640526.0,GB,-3.1888,55.6519,27.0,1685560558.0
410,Ngunguru,54.05,89.0,7.45,2186111.0,NZ,174.5,-35.6167,17.0,1685560560.0
411,Haines Junction,49.95,32.0,10.36,5969025.0,CA,-137.5108,60.7522,100.0,1685560563.0
412,Chernyshevsk,47.08,64.0,6.69,2025458.0,RU,117.0174,52.5243,100.0,1685560565.0
413,Makiyivka,61.56,77.0,6.08,702320.0,UA,37.9258,48.0478,98.0,1685560567.0
414,Petropavlovsk-Kamchatskiy,37.99,100.0,6.71,2122104.0,RU,158.6483,53.0452,100.0,1685560569.0
415,Los Llanos de Aridane,66.13,83.0,4.0,2514651.0,ES,-17.9182,28.6585,40.0,1685560571.0
416,Nuevo Progreso,89.89,52.0,4.0,3522526.0,MX,-97.95,23.1667,3.0,1685560573.0
417,Norsup,77.36,86.0,12.48,2135517.0,VU,167.3833,-16.0667,92.0,1685560575.0
418,Yulara,53.82,47.0,4.12,6355222.0,AU,130.9889,-25.2406,0.0,1685560578.0
419,Hohhot,48.49,81.0,6.71,2036892.0,CN,111.6522,40.8106,0.0,1685560580.0
420,Bowen,67.15,80.0,10.18,2174444.0,AU,148.2333,-20.0167,16.0,1685560582.0
421,Smoky Lake,64.56,64.0,3.71,6150293.0,CA,-112.4686,54.1169,84.0,1685560584.0
422,Angoram,74.12,98.0,1.7,2100765.0,PG,144.0661,-4.0625,94.0,1685560586.0
423,Itarema,82.45,73.0,12.59,3393692.0,BR,-39.9167,-2.9248,33.0,1685560588.0
424,La Asuncion,85.73,66.0,18.41,3480908.0,VE,-63.8628,11.0333,100.0,1685560591.0
425,Berlevåg,40.95,87.0,17.27,780687.0,NO,29.0864,70.8578,75.0,1685560593.0
426,Ambilobe,72.0,83.0,4.38,1082243.0,MG,49.05,-13.2,1.0,1685560595.0
427,Teya,53.38,50.0,2.44,1489656.0,RU,92.6267,60.3778,95.0,1685560597.0
428,Máncora,79.38,72.0,7.29,3695000.0,PE,-81.0475,-4.1078,94.0,1685560599.0
429,Crotone,68.2,83.0,1.57,2524881.0,IT,17.1178,39.0851,3.0,1685560601.0
430,Sechura,81.97,62.0,11.16,3691954.0,PE,-80.8222,-5.5569,30.0,1685560603.0
431,Tarko-Sale,56.53,52.0,8.77,1490085.0,RU,77.785,64.9225,100.0,1685560606.0
432,Yerofey Pavlovich,42.21,86.0,4.76,2012938.0,RU,121.9667,53.9667,51.0,1685560608.0
433,Doha,93.49,34.0,11.5,290030.0,QA,51.5333,25.2867,0.0,1685560418.0
434,Palmer,81.27,29.0,9.22,4946620.0,US,-72.3287,42.1584,0.0,1685560340.0
435,Darhan,51.85,70.0,8.19,2031964.0,MN,105.9228,49.4867,100.0,1685560614.0
436,Rantauprapat,74.05,92.0,2.62,1214073.0,ID,99.8333,2.1,89.0,1685560616.0
437,Arroyo de la Encomienda,62.89,80.0,3.44,3129371.0,ES,-4.7969,41.6096,40.0,1685560618.0
438,Keetmanshoop,56.34,49.0,5.57,3356264.0,NA,18.1333,-26.5833,0.0,1685560620.0
439,Staryy Nadym,57.74,78.0,7.07,1490918.0,RU,72.6842,65.6118,100.0,1685560623.0
440,Beloha,68.5,75.0,11.61,1067565.0,MG,45.05,-25.1667,100.0,1685560626.0
441,Kelvington,77.07,47.0,13.49,5990669.0,CA,-103.5343,52.1667,0.0,1685560628.0
442,Munger,94.71,23.0,7.14,1262482.0,IN,86.4667,25.3833,4.0,1685560630.0
443,Grindavik,50.47,87.0,10.36,3416888.0,IS,-22.4338,63.8424,100.0,1685560632.0
444,Kangaatsiaq,36.14,92.0,30.78,3422683.0,GL,-53.4641,68.3065,100.0,1685560634.0
445,Omsukchan,48.34,50.0,2.44,2122493.0,RU,155.8,62.5333,100.0,1685560636.0
446,Quzhou,74.3,95.0,5.12,1797264.0,CN,118.8686,28.9594,91.0,1685560639.0
447,Neijiang,72.1,86.0,8.52,1799491.0,CN,105.0622,29.5835,100.0,1685560641.0
448,Bonavista,43.34,84.0,12.88,5905393.0,CA,-53.1147,48.6499,13.0,1685560643.0
449,Pauini,86.68,64.0,1.79,3662927.0,BR,-66.9764,-7.7136,37.0,1685560645.0
450,Poso,76.75,86.0,5.08,1630723.0,ID,120.7524,-1.3959,64.0,1685560647.0
451,Hervey Bay,60.66,84.0,7.02,2146219.0,AU,152.8535,-25.2986,59.0,1685560649.0
452,Gambēla,78.48,67.0,4.16,337405.0,ET,34.5833,8.25,66.0,1685560651.0
453,Hede,66.4,93.0,7.38,1808744.0,CN,120.2517,33.7681,100.0,1685560654.0
454,Alice Springs,40.55,60.0,4.52,2077895.0,AU,133.8833,-23.7,0.0,1685560656.0
455,Tazmalt,63.1,79.0,5.44,2477537.0,DZ,4.3989,36.3868,22.0,1685560658.0
456,Mangaratiba,65.26,88.0,2.75,3457991.0,BR,-44.0406,-22.9597,100.0,1685560660.0
457,Porto-Novo,84.02,79.0,9.48,2392087.0,BJ,2.6036,6.4965,20.0,1685560662.0
458,Sabha,86.9,18.0,11.5,2212775.0,LY,14.4283,27.0377,0.0,1685560664.0
459,Salinópolis,83.46,75.0,10.89,3389822.0,BR,-47.3561,-0.6136,5.0,1685560666.0
460,Riyadh,91.54,31.0,6.62,108410.0,SA,46.7219,24.6877,6.0,1685560669.0
461,Jönköping,65.91,45.0,6.91,2702979.0,SE,14.1562,57.7814,0.0,1685560671.0
462,Yatou,64.27,73.0,8.05,1786855.0,CN,122.3833,37.15,100.0,1685560673.0
463,Jaru,85.35,66.0,2.91,3925040.0,BR,-62.4664,-10.4389,38.0,1685560675.0
464,Yashan,78.49,85.0,3.06,1786867.0,CN,109.9419,22.1975,33.0,1685560677.0
465,Bamiantong,53.78,95.0,5.88,2038482.0,CN,130.5333,44.9333,100.0,1685560679.0
466,Boa Vista,89.58,55.0,10.36,3664980.0,BR,-60.6733,2.8197,40.0,1685560389.0
467,Barra do Bugres,79.61,67.0,2.21,3470718.0,BR,-57.1811,-15.0725,77.0,1685560683.0
468,Butembo,57.92,92.0,3.87,217562.0,CD,29.2833,0.15,8.0,1685560686.0
469,Talaya,52.23,60.0,3.36,2120769.0,RU,152.75,61.3833,100.0,1685560688.0
470,Vengurla,83.48,84.0,5.12,1253257.0,IN,73.6333,15.8667,85.0,1685560695.0
471,Maracaçumé,84.47,74.0,3.44,3395497.0,BR,-45.9592,-2.0428,48.0,1685560697.0
472,Nouadhibou,71.58,68.0,19.57,2377457.0,MR,-17.0347,20.931,70.0,1685560699.0
473,La Celia,74.79,74.0,2.21,3679542.0,CO,-76.0167,5.0433,73.0,1685560702.0
474,Lüderitz,59.47,73.0,11.32,3355672.0,NA,15.1594,-26.6481,0.0,1685560704.0
475,Carutapera,82.78,78.0,8.46,3402648.0,BR,-46.02,-1.195,43.0,1685560706.0
476,Yauya,61.65,42.0,4.16,3690733.0,PE,-77.3,-8.9833,57.0,1685560708.0
477,Port Said,73.38,83.0,12.66,358619.0,EG,32.2841,31.2565,0.0,1685560710.0
478,Sambava,73.06,82.0,12.06,1056899.0,MG,50.1667,-14.2667,3.0,1685560712.0
479,Kafanchan,69.94,87.0,4.21,2335713.0,NG,8.3,9.5833,94.0,1685560714.0
480,Neftçala,71.49,79.0,4.47,147425.0,AZ,49.2472,39.3742,84.0,1685560717.0
481,Yhú,73.02,65.0,3.71,3436595.0,PY,-55.9167,-25.05,76.0,1685560719.0
482,Necochea,62.82,64.0,14.14,3430443.0,AR,-58.7368,-38.5473,85.0,1685560638.0
483,Muros,66.43,81.0,3.89,3115824.0,ES,-9.0603,42.7762,100.0,1685560723.0
484,Linxia Chengguanzhen,49.39,85.0,2.04,1803331.0,CN,103.2064,35.6003,6.0,1685560725.0
485,Tripoli,69.93,75.0,9.42,2210247.0,LY,13.1875,32.8752,5.0,1685560719.0
486,Ixtapa,83.43,70.0,13.8,4004293.0,MX,-105.2,20.7,40.0,1685560730.0
487,Santiago del Estero,76.78,50.0,13.73,3835869.0,AR,-64.2615,-27.7951,0.0,1685560599.0
488,Uribia,88.11,59.0,6.51,3666409.0,CO,-72.266,11.7139,100.0,1685560734.0
489,Rome,85.46,35.0,4.0,5134295.0,US,-75.4557,43.2128,0.0,1685560706.0
490,Xuanzhou,71.96,95.0,3.38,1788081.0,CN,118.7553,30.9525,99.0,1685560738.0
491,Arrondissement de Muret,59.72,93.0,1.99,2991152.0,FR,1.25,43.3333,100.0,1685560740.0
492,Orlik,39.96,92.0,1.9,1496073.0,RU,99.825,52.5178,100.0,1685560742.0
493,Toyoake,66.0,79.0,3.51,1856057.0,JP,137.0137,35.0594,100.0,1685560745.0
494,Ibrā’,86.99,41.0,8.21,287832.0,OM,58.5334,22.6906,6.0,1685560747.0
495,Ayagoz,51.87,50.0,8.3,1525988.0,KZ,80.4392,47.9714,0.0,1685560749.0
496,Deputatsky,25.83,91.0,2.35,2028164.0,RU,139.9,69.3,100.0,1685560751.0
497,Moyale,73.94,53.0,3.91,186180.0,KE,39.0584,3.5167,99.0,1685560753.0
498,Gresik,76.91,83.0,2.95,1643776.0,ID,112.6561,-7.1539,94.0,1685560761.0
499,Tsushima,66.16,88.0,3.44,1849539.0,JP,136.7167,35.1667,100.0,1685560763.0
500,Boralday,58.86,55.0,4.47,1526384.0,KZ,76.8594,43.3578,40.0,1685560765.0
501,Mahina,78.57,61.0,18.41,4034307.0,PF,-149.489,-17.5065,20.0,1685560767.0
502,Ust-Maya,48.58,84.0,2.17,2013918.0,RU,134.5333,60.4167,100.0,1685560769.0
503,General Pico,72.61,34.0,5.12,3855075.0,AR,-63.7568,-35.6566,3.0,1685560772.0
504,Labuan,80.96,83.0,0.0,1733782.0,MY,115.2417,5.2767,20.0,1685560774.0
505,Saint Anthony,87.08,42.0,16.11,5044290.0,US,-93.218,45.0205,0.0,1685560776.0
506,Iqaluit,34.7,74.0,23.02,5983720.0,CA,-68.5145,63.7506,100.0,1685560778.0
507,Haapiti,74.71,65.0,15.35,4034438.0,PF,-149.8667,-17.5667,1.0,1685560780.0
508,Sarankhola,83.53,77.0,7.45,1185239.0,BD,89.7897,22.3082,89.0,1685560782.0
509,Odienné,78.8,75.0,11.01,2283016.0,CI,-7.5692,9.51,100.0,1685560784.0
510,Miles City,81.57,39.0,6.91,5666176.0,US,-105.8406,46.4083,0.0,1685560620.0
511,Daru,77.65,87.0,14.65,2098329.0,PG,143.2092,-9.0763,25.0,1685560789.0
512,Umm Kaddadah,90.05,15.0,11.59,364933.0,SD,26.6876,13.6017,5.0,1685560791.0
513,Skegness,51.89,80.0,15.7,2637762.0,GB,0.3363,53.1436,100.0,1685560793.0
514,Saint-François,69.24,56.0,5.75,2980080.0,FR,3.9054,46.4154,0.0,1685560795.0
515,Semey,60.46,47.0,7.16,1519422.0,KZ,80.2275,50.4111,6.0,1685560797.0
516,Esperance,60.96,89.0,13.87,2071860.0,AU,121.9,-33.8667,100.0,1685560799.0
517,Selkirk,80.22,64.0,5.68,6144054.0,CA,-96.8845,50.1436,64.0,1685560529.0
518,Mahajanga,79.47,58.0,6.42,1062663.0,MG,46.3167,-15.7167,5.0,1685560803.0
519,Ruwi,98.29,41.0,7.11,287286.0,OM,58.5507,23.5996,0.0,1685560811.0
520,Pucallpa,82.44,74.0,11.5,3693345.0,PE,-74.5539,-8.3791,75.0,1685560813.0
521,Ginda,53.55,74.0,6.55,1253628.0,IN,78.4932,30.6945,5.0,1685560815.0
522,Hare Bay,65.8,48.0,8.77,5970873.0,CA,-54.0148,48.8499,10.0,1685560817.0
523,Kabalo,76.82,47.0,4.97,215668.0,CD,26.9167,-6.05,0.0,1685560820.0
524,Cockburn Town,81.66,80.0,15.84,3576994.0,TC,-71.1419,21.4612,100.0,1685560822.0
525,Kolomyia,58.46,78.0,2.1,705392.0,UA,25.0403,48.5306,98.0,1685560824.0
526,Odawara,59.9,85.0,1.66,1854747.0,JP,139.1597,35.2556,100.0,1685560826.0
527,Santa Cruz de la Sierra,73.45,73.0,9.22,3904906.0,BO,-63.1667,-17.8,75.0,1685560828.0
528,Derzhavīnsk,74.41,36.0,9.04,1524606.0,KZ,66.3167,51.1,42.0,1685560830.0
529,Raduzhny,58.6,59.0,2.89,1540356.0,RU,77.475,62.0961,100.0,1685560833.0
530,Gulariyā,86.18,38.0,9.48,1283368.0,NP,81.3333,28.2333,0.0,1685560835.0
531,Oudtshoorn,57.56,84.0,3.62,967106.0,ZA,22.2014,-33.5907,100.0,1685560837.0
532,Ruteng,61.66,94.0,3.83,1629380.0,ID,120.4721,-8.6136,100.0,1685560839.0
533,Sokolac,55.58,97.0,3.0,3190385.0,BA,18.8017,43.9397,100.0,1685560841.0
534,Jieshi,79.29,89.0,6.71,1805857.0,CN,115.8257,22.8134,2.0,1685560843.0
535,Porto Velho,84.25,65.0,2.3,3662762.0,BR,-63.9039,-8.7619,75.0,1685560845.0
536,Olinda,82.13,74.0,12.66,3393536.0,BR,-34.8553,-8.0089,40.0,1685560837.0
537,Vallenar,86.83,13.0,4.32,3868633.0,CL,-70.7581,-28.5708,9.0,1685560850.0
538,Bud,85.35,50.0,8.84,4255151.0,US,-86.1758,39.447,81.0,1685560852.0
539,Dhārchula,64.11,67.0,7.96,1272864.0,IN,80.5333,29.85,61.0,1685560854.0
540,Mabaruma,81.77,90.0,4.63,3377301.0,GY,-59.7833,8.2,100.0,1685560856.0
541,Nemuro,48.07,73.0,12.97,2128975.0,JP,145.575,43.3236,6.0,1685560858.0
542,Caucayá,80.92,87.0,1.7,3671437.0,CO,-74.7819,-0.1934,46.0,1685560860.0
543,Vanderhoof,56.62,29.0,6.38,6173361.0,CA,-124.0198,54.0166,100.0,1685560862.0
544,Maravilha,73.8,64.0,4.0,3457809.0,BR,-53.1725,-26.7608,38.0,1685560865.0
545,Nanlong,73.26,69.0,5.77,1799908.0,CN,106.0631,31.3533,100.0,1685560867.0
546,Seryshevo,42.8,89.0,7.49,2016942.0,RU,128.3786,51.0933,29.0,1685560869.0
547,Les Cayes,85.3,67.0,12.95,3728097.0,HT,-73.75,18.2,98.0,1685560871.0
548,Lagoa,63.54,82.0,12.57,3372964.0,PT,-27.9833,39.05,32.0,1685560873.0
549,Pacifica,59.2,76.0,16.11,5380420.0,US,-122.4869,37.6138,75.0,1685560875.0
550,Northam,60.57,76.0,13.22,2641434.0,GB,-4.2167,51.0333,26.0,1685560877.0
551,Rio Grande,68.11,73.0,4.09,3451138.0,BR,-52.0986,-32.035,8.0,1685560879.0
552,Gejiu,62.55,84.0,2.77,1810240.0,CN,103.1635,23.306,62.0,1685560882.0
553,Opuwo,65.1,32.0,5.97,3354077.0,NA,13.84,-18.0607,1.0,1685560884.0
554,La Ronge,70.05,52.0,12.66,6050066.0,CA,-105.2842,55.1001,75.0,1685560886.0
555,Yazykovo,70.52,51.0,10.76,468483.0,RU,56.1353,55.2199,100.0,1685560888.0
556,Batticaloa,82.0,77.0,5.21,1250161.0,LK,81.6924,7.7102,100.0,1685560890.0
557,Khasan,52.59,89.0,0.92,2039557.0,RU,130.6434,42.4308,100.0,1685560893.0
558,Kattivākkam,86.07,89.0,12.41,1267433.0,IN,80.3167,13.2167,16.0,1685560895.0
559,Arrondissement de Saint-Denis,75.13,43.0,17.27,2980915.0,FR,2.3333,48.9167,0.0,1685560897.0
560,Ende,75.99,89.0,5.7,1644932.0,ID,121.6623,-8.8432,100.0,1685560900.0
561,Harlingen,88.43,75.0,10.36,4696233.0,US,-97.6961,26.1906,40.0,1685560902.0
562,Zhicheng,74.23,79.0,3.71,1784554.0,CN,111.5047,30.2956,100.0,1685560904.0
563,Havelock,71.69,85.0,12.66,4470244.0,US,-76.9013,34.8791,100.0,1685560911.0
564,Madimba,76.28,85.0,10.87,878141.0,TZ,40.3333,-10.4,5.0,1685560914.0
565,Pacific Grove,56.46,81.0,9.22,5380437.0,US,-121.9166,36.6177,75.0,1685560853.0
566,Esim,80.44,84.0,7.74,2303611.0,GH,-2.2405,4.8699,11.0,1685560918.0
567,Gorontalo,75.27,93.0,2.86,1643837.0,ID,123.0595,0.5412,100.0,1685560920.0
568,Vaitape,77.47,67.0,15.37,4033077.0,PF,-151.75,-16.5167,18.0,1685560922.0
569,Ottawa,88.21,31.0,5.75,6094817.0,CA,-75.6981,45.4112,20.0,1685560914.0
570,Petropavl,67.3,47.0,6.44,1520172.0,KZ,69.1628,54.8753,100.0,1685560926.0
571,Bossangoa,80.64,62.0,4.56,2388036.0,CF,17.4552,6.4926,95.0,1685560928.0
572,Lavrentiya,30.88,98.0,6.82,4031637.0,RU,-171.0,65.5833,100.0,1685560931.0
573,Muskegon,86.67,37.0,9.22,5003136.0,US,-86.1334,43.3,20.0,1685560933.0
574,Lālmohan,84.65,75.0,12.06,1185251.0,BD,90.7419,22.3384,14.0,1685560935.0
575,Gainesville,84.6,55.0,1.99,4156404.0,US,-82.3248,29.6516,100.0,1685560937.0
