,City,Temp_max,Humidity,wind_speed,city_id,country_code,long,lat,Cloudiness,datetime
0,Flin Flon,61.47,57.0,5.57,5954718.0,CA,-101.865,54.7682,4.0,1685509202.0
1,Severo-Kuril'sk,39.4,97.0,16.8,2121385.0,RU,156.125,50.6789,100.0,1685509205.0
2,Codrington,65.95,59.0,15.3,2171099.0,AU,141.9667,-38.2667,97.0,1685509209.0
3,Bredasdorp,58.35,89.0,4.43,1015776.0,ZA,20.0403,-34.5322,94.0,1685509216.0
4,Kindersley,71.62,43.0,17.27,5992154.0,CA,-109.1682,51.4668,20.0,1685509218.0
5,Kavieng,84.02,72.0,5.44,2094342.0,PG,150.7967,-2.5744,63.0,1685509220.0
6,Brae,49.51,89.0,16.22,2654970.0,GB,-1.353,60.3964,100.0,1685509222.0
7,Hithadhoo,83.39,77.0,14.58,1282256.0,MV,73.0833,-0.6,90.0,1685509226.0
8,Ponta Delgada,63.32,88.0,13.8,3372783.0,PT,-25.6667,37.7333,20.0,1685509217.0
9,Kaitangata,49.59,78.0,5.14,2208248.0,NZ,169.8464,-46.2817,98.0,1685509231.0
10,Neiafu,78.8,82.0,19.66,4032420.0,TO,-173.9833,-18.65,3.0,1685509233.0
11,Busselton,63.25,80.0,13.47,2075265.0,AU,115.3333,-33.65,100.0,1685509236.0
12,Kudahuvadhoo,82.45,78.0,9.82,1337607.0,MV,72.8944,2.6708,100.0,1685509238.0
13,Port Macquarie,69.89,30.0,4.56,2152659.0,AU,152.9167,-31.4333,71.0,1685509240.0
14,Jamestown,63.39,81.0,5.75,5122534.0,US,-79.2353,42.097,0.0,1685509242.0
15,Nantucket,51.15,91.0,9.15,4944903.0,US,-70.0995,41.2835,3.0,1685509244.0
16,São João da Barra,63.68,96.0,3.47,3448903.0,BR,-41.0511,-21.6403,97.0,1685509246.0
17,Castlebar,54.75,93.0,2.64,2965654.0,IE,-9.3,53.85,6.0,1685509248.0
18,Katobu,81.14,84.0,7.85,1640972.0,ID,122.5276,-4.9408,100.0,1685509250.0
19,Port Lincoln,69.35,42.0,17.4,2063036.0,AU,135.8667,-34.7333,98.0,1685509253.0
20,Padampur,77.86,61.0,3.87,1260938.0,IN,73.6167,29.6833,100.0,1685509255.0
21,Cayenne,75.24,94.0,3.44,3382160.0,GF,-52.3333,4.9333,75.0,1685509204.0
22,Norman Wells,57.24,58.0,9.22,6089245.0,CA,-126.8329,65.282,75.0,1685509259.0
23,Upernavik,30.96,98.0,3.69,3418910.0,GL,-56.1549,72.7868,100.0,1685509180.0
24,Ushuaia,55.06,54.0,11.5,3833367.0,AR,-68.3,-54.8,0.0,1685509263.0
25,Tasiilaq,33.96,77.0,5.14,3424607.0,GL,-37.6368,65.6145,91.0,1685509265.0
26,Thunder Bay,51.71,76.0,5.75,6166142.0,CA,-89.3168,48.4001,40.0,1685509087.0
27,Provideniya,41.11,65.0,6.71,4031574.0,RU,-173.3,64.3833,0.0,1685509270.0
28,Cap Malheureux,77.47,65.0,5.01,934649.0,MU,57.6142,-19.9842,0.0,1685509272.0
29,West Wendover,70.81,26.0,0.0,5710035.0,US,-114.0733,40.7391,0.0,1685509084.0
30,Tautira,78.03,83.0,17.16,4033557.0,PF,-149.15,-17.7333,68.0,1685509276.0
31,Avarua,69.85,60.0,3.44,4035715.0,CK,-159.775,-21.2078,20.0,1685509278.0
32,Punta Arenas,46.51,76.0,11.5,3874787.0,CL,-70.9167,-53.15,40.0,1685509221.0
33,Ozernovskiy,41.34,90.0,8.75,2122293.0,RU,156.5167,51.5,100.0,1685509283.0
34,Aksu,79.61,19.0,4.18,1529660.0,CN,80.2644,41.1231,43.0,1685509226.0
35,Arrondissement d'Ajaccio,56.28,85.0,5.75,3038333.0,FR,8.9167,42.0,0.0,1685509287.0
36,Cabedelo,75.87,86.0,10.38,3404558.0,BR,-34.8339,-6.9811,19.0,1685509289.0
37,Dikson,31.78,98.0,9.4,1507390.0,RU,80.5464,73.5069,100.0,1685509291.0
38,Hobart,63.91,54.0,32.21,2163355.0,AU,147.3294,-42.8794,40.0,1685509294.0
39,Vestmannaeyjar,45.3,87.0,9.44,3412093.0,IS,-20.2734,63.4427,47.0,1685509296.0
40,Alofi,76.89,69.0,11.5,4036284.0,NU,-169.9187,-19.0595,100.0,1685509298.0
41,Carnarvon,75.16,51.0,7.27,2074865.0,AU,113.6333,-24.8667,0.0,1685509300.0
42,Saint-Philippe,74.79,72.0,4.94,935215.0,RE,55.7679,-21.3585,13.0,1685509302.0
43,Cabra,58.98,85.0,0.6,2520645.0,ES,-4.4421,37.4725,53.0,1685509304.0
44,Feldbach,55.83,73.0,2.73,2779685.0,AT,15.8883,46.9531,77.0,1685509306.0
45,Tual,81.39,83.0,19.53,1623197.0,ID,132.75,-5.6667,63.0,1685509309.0
46,Longyearbyen,33.64,86.0,12.66,2729907.0,SJ,15.6401,78.2186,75.0,1685509311.0
47,Dukat,58.78,36.0,6.49,2125906.0,RU,155.55,62.55,50.0,1685509313.0
48,Jalu,86.38,17.0,8.7,86049.0,LY,21.5482,29.0331,73.0,1685509315.0
49,Vaini,77.16,94.0,10.36,4032243.0,TO,-175.2,-21.2,75.0,1685509317.0
50,Albany,56.68,63.0,4.56,5106841.0,US,-73.9662,42.6001,8.0,1685509034.0
51,Karaton,90.43,49.0,0.54,1630058.0,ID,106.1045,-6.3424,19.0,1685509322.0
52,Saldanha,57.25,93.0,13.47,3361934.0,ZA,17.9442,-33.0117,86.0,1685509324.0
53,Castro,53.91,98.0,2.59,3466704.0,BR,-50.0119,-24.7911,100.0,1685509326.0
54,Inhambane,69.51,78.0,5.59,1045114.0,MZ,35.3833,-23.865,23.0,1685509329.0
55,Mataura,52.93,75.0,6.04,6201424.0,NZ,168.8643,-46.1927,100.0,1685509331.0
56,Puerto Ayora,77.56,97.0,3.0,3652764.0,EC,-90.3518,-0.7393,92.0,1685509333.0
57,Arraial do Cabo,70.39,83.0,14.09,3471451.0,BR,-42.0278,-22.9661,93.0,1685509335.0
58,Obihiro,67.41,54.0,9.31,2128815.0,JP,143.2044,42.9172,69.0,1685509337.0
59,Penzance,54.28,86.0,16.08,2640377.0,GB,-5.5371,50.1186,42.0,1685509339.0
60,Butaritari,83.73,69.0,2.24,2110227.0,KI,172.7902,3.0707,33.0,1685509341.0
61,Rikitea,77.31,78.0,21.0,4030556.0,PF,-134.9692,-23.1203,100.0,1685509344.0
62,Namatanai,83.86,77.0,8.19,2090021.0,PG,152.4333,-3.6667,36.0,1685509346.0
63,Isangel,75.51,69.0,15.66,2136825.0,VU,169.2667,-19.55,99.0,1685509348.0
64,Saint George,72.5,18.0,5.75,5546220.0,US,-113.5841,37.1041,0.0,1685509204.0
65,Kruisfontein,56.88,89.0,7.43,986717.0,ZA,24.7314,-34.0033,93.0,1685509352.0
66,Mwinilunga,57.74,76.0,2.73,902620.0,ZM,24.4293,-11.7358,93.0,1685509354.0
67,Port Alfred,56.17,93.0,1.99,964432.0,ZA,26.891,-33.5906,71.0,1685509356.0
68,Marzuq,80.46,45.0,6.67,72181.0,YE,46.4667,14.4,63.0,1685509359.0
69,Puerto Escondido,83.59,78.0,4.88,3520994.0,MX,-97.0667,15.85,26.0,1685509361.0
70,Sivaki,60.73,44.0,5.53,2016477.0,RU,126.75,52.6333,94.0,1685509363.0
71,Yellowknife,55.92,35.0,10.36,6185377.0,CA,-114.3525,62.456,75.0,1685509355.0
72,Canchungo,79.88,85.0,7.49,2373951.0,GW,-16.0333,12.0672,100.0,1685509367.0
73,Östersund,45.05,39.0,27.63,2685750.0,SE,14.6357,63.1792,75.0,1685509319.0
74,Fort Nelson,55.94,43.0,0.0,5955902.0,CA,-122.7002,58.8053,75.0,1685509371.0
75,Castelo Branco,54.23,96.0,1.66,2269514.0,PT,-7.4909,39.8222,71.0,1685509373.0
76,Black River,78.76,86.0,4.29,3491355.0,JM,-77.8487,18.0264,99.0,1685509375.0
77,Atuona,80.76,78.0,15.08,4020109.0,PF,-139.0333,-9.8,5.0,1685509377.0
78,Birao,80.08,65.0,4.45,240210.0,CF,22.7882,10.2849,45.0,1685509347.0
79,Ekhabi,38.43,93.0,9.86,2122614.0,RU,142.9671,53.5102,100.0,1685509382.0
80,Barrow,33.82,86.0,3.44,5880054.0,US,-156.7887,71.2906,100.0,1685509384.0
81,Hilo,70.36,95.0,9.22,5855927.0,US,-155.09,19.7297,100.0,1685509249.0
82,Mehamn,42.75,87.0,1.14,778707.0,NO,27.8492,71.0357,75.0,1685509388.0
83,Shingū,66.43,87.0,1.34,1847947.0,JP,135.9833,33.7333,100.0,1685509391.0
84,George Town,91.15,62.0,7.0,1735106.0,MY,100.3354,5.4112,20.0,1685509393.0
85,Russell,65.97,94.0,0.0,4047434.0,US,-85.1999,32.3502,0.0,1685509395.0
86,Sidhi,99.91,22.0,6.96,1256369.0,IN,81.8833,24.4167,49.0,1685509397.0
87,Laramie,50.49,55.0,4.72,5830062.0,US,-105.5911,41.3114,56.0,1685509232.0
88,Bluff,54.5,76.0,15.1,2206939.0,NZ,168.3333,-46.6,100.0,1685509401.0
89,Bayir,57.72,77.0,0.83,304183.0,TR,28.2167,37.2687,7.0,1685509404.0
90,Vila Velha,67.95,92.0,0.0,3445026.0,BR,-40.2925,-20.3297,75.0,1685509406.0
91,Kapaa,74.44,83.0,3.0,5848280.0,US,-159.319,22.0752,14.0,1685509408.0
92,Margate,52.92,83.0,8.99,2643044.0,GB,1.3862,51.3813,100.0,1685509341.0
93,Kamaishi,64.56,56.0,10.63,2112444.0,JP,141.8833,39.2667,40.0,1685509412.0
94,Stăncuţa,66.38,61.0,8.93,666309.0,RO,27.8333,44.9,3.0,1685509414.0
95,Ankang,77.4,79.0,5.37,1789065.0,CN,109.0172,32.68,100.0,1685509417.0
96,Port Elizabeth,58.8,87.0,6.91,964420.0,ZA,25.5701,-33.918,0.0,1685509137.0
97,Morant Bay,78.42,87.0,7.09,3489440.0,JM,-76.4093,17.8815,100.0,1685509421.0
98,São Miguel,75.97,87.0,11.48,3388304.0,BR,-35.3667,-5.4667,13.0,1685509423.0
99,Guerrero Negro,60.4,79.0,16.49,4021858.0,MX,-114.0611,27.9769,0.0,1685509425.0
100,Husavik,44.65,77.0,2.77,2629833.0,IS,-17.3389,66.0449,4.0,1685509427.0
101,Ahipara,60.82,73.0,10.92,2194098.0,NZ,173.1667,-35.1667,4.0,1685509429.0
102,Saint Paul Harbor,44.11,87.0,3.44,5866583.0,US,-152.4072,57.79,100.0,1685509431.0
103,Mahébourg,71.89,83.0,1.14,934322.0,MU,57.7,-20.4081,20.0,1685509433.0
104,Mount Isa,80.37,17.0,8.05,2065594.0,AU,139.5,-20.7333,41.0,1685509436.0
105,Te Anau,49.95,94.0,6.02,2181625.0,NZ,167.7167,-45.4167,100.0,1685509438.0
106,Alenquer,73.24,95.0,2.62,3407980.0,BR,-54.7383,-1.9417,28.0,1685509440.0
107,São Miguel do Araguaia,74.23,56.0,1.74,3448455.0,BR,-50.1628,-13.275,34.0,1685509352.0
108,Kriel,50.81,90.0,7.25,987202.0,ZA,29.2253,-26.2739,48.0,1685509444.0
109,Marsh Harbour,79.41,77.0,8.1,3571913.0,BS,-77.0636,26.5412,100.0,1685509446.0
110,Souillac,71.98,83.0,1.14,933995.0,MU,57.5167,-20.5167,20.0,1685509448.0
111,Tigil',63.79,42.0,20.36,2120612.0,RU,158.6667,57.8,100.0,1685509451.0
112,Kaeo,58.32,87.0,7.56,2189343.0,NZ,173.7833,-35.1,15.0,1685509453.0
113,Cape Town,59.22,90.0,13.8,3369157.0,ZA,18.4232,-33.9258,75.0,1685509455.0
114,Cidreira,61.9,82.0,6.26,3466165.0,BR,-50.2056,-30.1811,62.0,1685509404.0
115,Khatanga,49.82,48.0,11.45,2022572.0,RU,102.5,71.9667,91.0,1685509459.0
116,Karlshamn,48.69,65.0,9.15,2701727.0,SE,14.8619,56.1706,62.0,1685509461.0
117,Pevek,32.09,81.0,7.14,2122090.0,RU,170.3133,69.7008,83.0,1685509463.0
118,Mar del Plata,54.61,85.0,9.22,3430863.0,AR,-57.5575,-38.0023,0.0,1685509354.0
119,Gobabis,40.73,55.0,3.83,3357247.0,NA,18.9667,-22.45,0.0,1685509468.0
120,Gaoyou,81.41,56.0,4.21,1810309.0,CN,119.4278,32.7858,41.0,1685509470.0
121,Bethel,47.01,81.0,4.61,5282297.0,US,-73.414,41.3712,0.0,1685509472.0
122,Santa Maria da Vitória,69.8,66.0,5.88,3450063.0,BR,-44.1886,-13.3947,14.0,1685509474.0
123,Banda Aceh,87.01,64.0,17.22,1215502.0,ID,95.3222,5.5577,100.0,1685509476.0
124,Georgiyevka,78.84,27.0,4.47,1524243.0,KZ,74.7114,43.0369,0.0,1685509478.0
125,Zonguldak,58.82,85.0,1.72,737021.0,TR,31.8333,41.25,95.0,1685509480.0
126,Booué,73.69,98.0,1.48,2401495.0,GA,11.9385,-0.0921,92.0,1685509482.0
127,Siyabuswa,57.99,74.0,5.01,955313.0,ZA,29.0445,-25.1132,56.0,1685509485.0
128,Dunedin,52.97,72.0,6.22,2191562.0,NZ,170.5036,-45.8742,100.0,1685509450.0
129,Roald,47.53,100.0,11.5,3141667.0,NO,6.1333,62.5833,75.0,1685509489.0
130,Tweed,60.19,77.0,0.78,6170799.0,CA,-77.3162,44.4751,0.0,1685509491.0
131,Nanortalik,40.17,99.0,14.81,3421765.0,GL,-45.2371,60.1432,100.0,1685509493.0
132,Port Blair,84.24,74.0,8.05,1259385.0,IN,92.75,11.6667,40.0,1685509495.0
133,Lubango,56.05,45.0,1.41,3347762.0,AO,13.4925,-14.9172,11.0,1685509497.0
134,Shumskiy,57.61,71.0,6.58,1491977.0,RU,99.1328,54.8318,100.0,1685509499.0
135,San Cristobal,73.58,98.0,4.63,3628473.0,VE,-72.225,7.7669,100.0,1685509501.0
136,Nioro,79.77,76.0,9.33,2412408.0,GM,-15.75,13.35,96.0,1685509504.0
137,Thompson,55.56,76.0,6.91,6165406.0,CA,-97.8558,55.7435,20.0,1685509506.0
138,Manaus,79.29,89.0,2.3,3663517.0,BR,-60.025,-3.1019,75.0,1685509276.0
139,Laguna,58.66,76.0,9.22,5364271.0,US,-121.4238,38.421,0.0,1685509510.0
140,Hermanus,57.79,93.0,7.2,3366880.0,ZA,19.2345,-34.4187,84.0,1685509512.0
141,Westport,49.75,87.0,1.01,4845585.0,US,-73.3579,41.1415,0.0,1685509515.0
142,Dicabisagan,88.61,63.0,7.2,1715015.0,PH,122.4157,17.0818,100.0,1685509517.0
143,Newport,51.98,82.0,16.31,2641598.0,GB,-2.9984,51.5877,65.0,1685509519.0
144,Tateyama,67.93,83.0,13.73,1850523.0,JP,139.8667,34.9833,100.0,1685509521.0
145,Kuznechikha,59.56,81.0,1.66,537760.0,RU,42.3348,57.2161,85.0,1685509523.0
146,Poum,74.64,66.0,7.78,2138555.0,NC,164.0167,-20.2333,91.0,1685509525.0
147,Chokurdakh,38.3,42.0,11.81,2126123.0,RU,147.9167,70.6333,82.0,1685509527.0
148,Coquimbo,55.13,87.0,5.75,3893629.0,CL,-71.3436,-29.9533,0.0,1685509529.0
149,Ust-Nera,65.25,34.0,5.97,2120048.0,RU,143.2,64.5667,100.0,1685509532.0
150,Kavaratti,85.15,71.0,2.1,1267390.0,IN,72.642,10.5669,99.0,1685509534.0
151,Eruwa,74.3,94.0,1.83,2338669.0,NG,3.4167,7.5333,63.0,1685509536.0
152,Polyarny,47.39,62.0,17.58,506763.0,RU,33.4478,69.1989,100.0,1685509538.0
153,Ribeira Grande,63.77,86.0,13.0,3372707.0,PT,-28.7,38.5167,12.0,1685509540.0
154,Kalemie,71.64,74.0,4.56,214974.0,CD,29.1947,-5.9475,43.0,1685509542.0
155,Tuktoyaktuk,43.25,77.0,7.72,6170031.0,CA,-133.0374,69.4541,100.0,1685509544.0
156,Tomatlán,73.71,84.0,1.68,3981391.0,MX,-105.25,19.9333,0.0,1685509547.0
157,Bratca,61.36,84.0,2.51,683837.0,RO,22.6167,46.9333,77.0,1685509549.0
158,Chiang Khong,101.55,33.0,4.36,1611197.0,TH,100.4046,20.2613,42.0,1685509551.0
159,Gijang,76.73,64.0,14.34,1842966.0,KR,129.2139,35.2442,28.0,1685509553.0
160,Vao,71.71,68.0,20.45,2137773.0,NC,167.4833,-22.6667,97.0,1685509555.0
161,Marawi,82.47,61.0,9.06,1701054.0,PH,124.2928,7.9986,82.0,1685509557.0
162,Kununurra,82.38,21.0,11.5,2068110.0,AU,128.7333,-15.7667,14.0,1685509559.0
163,Ponta do Sol,66.94,81.0,7.23,2264557.0,PT,-17.1,32.6667,21.0,1685509562.0
164,Vanimo,84.69,75.0,5.17,2084442.0,PG,141.3028,-2.6741,63.0,1685509564.0
165,Kenai,46.51,78.0,9.22,5866063.0,US,-151.2583,60.5544,100.0,1685509372.0
166,Tarnogskiy Gorodok,60.98,70.0,2.44,484314.0,RU,43.5761,60.4997,61.0,1685509568.0
167,Tottori-shi,69.87,73.0,16.11,1849892.0,JP,134.2333,35.5,20.0,1685509511.0
168,Baracoa,77.52,89.0,3.67,3567834.0,CU,-74.4958,20.3467,100.0,1685509572.0
169,Krasnyy Kholm,48.34,81.0,10.36,541704.0,RU,37.1203,58.0607,97.0,1685509574.0
170,Nabire,88.09,65.0,7.31,1634614.0,ID,135.4833,-3.3667,70.0,1685509576.0
171,Zaysan,62.26,46.0,15.35,1517060.0,KZ,84.8667,47.4667,2.0,1685509578.0
172,New Norfolk,57.33,63.0,7.0,2155415.0,AU,147.0587,-42.7826,90.0,1685509581.0
173,Muhos,46.49,95.0,8.99,645765.0,FI,25.9931,64.808,100.0,1685509583.0
174,Sabzawār,81.68,16.0,11.5,118063.0,IR,57.6819,36.2126,0.0,1685509585.0
175,Catuday,83.98,76.0,17.72,1717787.0,PH,119.8062,16.2923,100.0,1685509587.0
176,Enshi,83.88,71.0,2.13,1811720.0,CN,109.4833,30.3,92.0,1685509589.0
177,Timiryazevskiy,77.92,23.0,6.6,1489597.0,RU,84.8769,56.49,40.0,1685509591.0
178,Aklavik,59.9,62.0,4.41,5882953.0,CA,-135.0107,68.2191,100.0,1685509593.0
179,Pochutla,75.81,75.0,3.89,3517970.0,MX,-96.4661,15.7432,86.0,1685509595.0
180,Bathsheba,81.21,89.0,10.36,3374083.0,BB,-59.5167,13.2167,75.0,1685509598.0
181,Salalah,89.69,66.0,6.91,286621.0,OM,54.0924,17.0151,40.0,1685509600.0
182,Airai,68.07,70.0,3.65,1651810.0,TL,125.4092,-8.9266,88.0,1685509602.0
183,Fuyang,83.98,48.0,8.08,1810845.0,CN,115.8167,32.9,37.0,1685509604.0
184,Makakilo City,77.07,64.0,16.11,5850554.0,US,-158.0858,21.3469,0.0,1685509606.0
185,Impfondo,71.71,88.0,0.56,2259655.0,CG,18.0667,1.6381,100.0,1685509347.0
186,Anloga,81.19,80.0,5.99,2304548.0,GH,0.8973,5.7947,51.0,1685509610.0
187,Chui,54.61,87.0,2.44,3443061.0,UY,-53.4616,-33.6971,43.0,1685509612.0
188,Nishihara,85.28,79.0,26.46,1855342.0,JP,127.7558,26.1842,75.0,1685509614.0
189,Bariloche,46.24,88.0,4.79,7647007.0,AR,-71.3082,-41.1456,100.0,1685509617.0
190,Kristianstad,59.14,63.0,9.22,2699310.0,SE,14.1524,56.0313,0.0,1685509619.0
191,Cabo San Lucas,77.86,76.0,18.03,3985710.0,MX,-109.9124,22.8909,0.0,1685509411.0
192,Hunchun,78.4,24.0,6.58,2036653.0,CN,130.3581,42.8675,100.0,1685509623.0
193,Aykhal,41.95,48.0,12.24,2027296.0,RU,111.5,66.0,54.0,1685509625.0
194,Nchelenge,64.67,67.0,3.4,175499.0,ZM,28.734,-9.3451,25.0,1685509627.0
195,Hobyo,84.33,71.0,20.38,57000.0,SO,48.5268,5.3505,82.0,1685509629.0
196,Pechenga,42.51,92.0,14.27,511865.0,RU,31.1703,69.5259,100.0,1685509631.0
197,Hambantota,88.14,74.0,9.22,1244926.0,LK,81.1185,6.1241,20.0,1685509634.0
198,Lompoc,56.61,82.0,8.99,5367788.0,US,-120.4579,34.6391,100.0,1685509636.0
199,Hasaki,68.52,66.0,13.53,2112802.0,JP,140.8333,35.7333,100.0,1685509638.0
200,Departamento de Maldonado,50.07,93.0,5.7,3441890.0,UY,-54.9167,-34.6667,25.0,1685509640.0
201,Naze,76.89,86.0,9.19,1855540.0,JP,129.4833,28.3667,85.0,1685509642.0
202,Nikolskoye,51.21,54.0,6.93,546105.0,RU,30.7861,59.7035,21.0,1685509644.0
203,Dul'durga,65.21,32.0,12.95,2024812.0,RU,113.5931,50.6761,100.0,1685509646.0
204,Leh,50.47,50.0,2.3,1264976.0,IN,77.5833,34.1667,100.0,1685509648.0
205,Lata,59.92,97.0,1.21,2738381.0,PT,-8.3327,40.1629,95.0,1685509651.0
206,Tiksi,32.43,74.0,3.09,2015306.0,RU,128.8694,71.6872,31.0,1685509653.0
207,Qaanaaq,12.92,71.0,6.46,3831208.0,GL,-69.3632,77.484,21.0,1685509655.0
208,Ilulissat,37.42,87.0,17.27,3423146.0,GL,-51.1,69.2167,100.0,1685509657.0
209,Saint-Augustin,43.27,87.0,8.88,6137462.0,CA,-58.6502,51.226,100.0,1685509659.0
210,Saskylakh,43.9,49.0,8.52,2017155.0,RU,114.0833,71.9167,47.0,1685509661.0
211,Tessalit,80.55,22.0,7.05,2449893.0,ML,1.0114,20.1986,82.0,1685509663.0
212,Rayong,95.63,61.0,8.81,1607016.0,TH,101.4333,12.8333,95.0,1685509666.0
213,Sur,94.78,46.0,11.1,286245.0,OM,59.5289,22.5667,8.0,1685509668.0
214,Bereket,91.96,12.0,14.14,161974.0,TM,55.5154,39.2446,22.0,1685509670.0
215,Staraya Kulatka,71.4,59.0,8.01,489164.0,RU,47.6167,52.7167,51.0,1685509673.0
216,Roswell,67.12,81.0,6.91,4219934.0,US,-84.3616,34.0232,40.0,1685509675.0
217,Santa Luzia,61.7,95.0,3.87,3450144.0,BR,-43.8514,-19.7697,98.0,1685509677.0
218,São Filipe,75.02,73.0,6.24,3374210.0,CV,-24.4956,14.8961,100.0,1685509679.0
219,San Luis,52.25,57.0,5.75,3837056.0,AR,-66.3356,-33.295,98.0,1685509681.0
220,Fairbanks,48.69,92.0,6.91,5861897.0,US,-147.7164,64.8378,100.0,1685509684.0
221,Sibolga,85.69,66.0,5.84,1213855.0,ID,98.7792,1.7427,79.0,1685509686.0
222,Pahrump,72.18,20.0,1.99,5509851.0,US,-115.9839,36.2083,39.0,1685509688.0
223,Narsaq,44.82,99.0,1.21,3421719.0,GL,-46.05,60.9167,100.0,1685509690.0
224,Hamilton,68.09,79.0,0.0,4513583.0,US,-84.5333,39.1834,20.0,1685509692.0
225,Fortuna,51.58,88.0,6.91,5563839.0,US,-124.1573,40.5982,100.0,1685509694.0
226,Ayan,38.86,97.0,7.25,2027316.0,RU,138.1667,56.45,100.0,1685509696.0
227,El Dorado,54.18,78.0,3.0,5345659.0,US,-120.5177,38.7666,99.0,1685509699.0
228,Leonidovo,52.38,56.0,10.65,2123805.0,RU,142.8667,49.2833,93.0,1685509701.0
229,Chicama,72.14,86.0,5.53,3698359.0,PE,-79.1469,-7.8447,23.0,1685509703.0
230,Umluj,82.94,56.0,4.41,100926.0,SA,37.2685,25.0213,0.0,1685509705.0
231,Acapulco de Juárez,85.82,70.0,8.05,3533462.0,MX,-99.8901,16.8634,20.0,1685509707.0
232,Santa Maria,54.45,95.0,1.5,3450083.0,BR,-53.8069,-29.6842,0.0,1685509709.0
233,Ubinskoye,73.18,32.0,2.55,1488708.0,RU,79.6802,55.3068,1.0,1685509711.0
234,Flinders,68.02,61.0,8.99,6255012.0,AU,150.8552,-34.5833,100.0,1685509714.0
235,Broome,56.12,75.0,4.18,5110365.0,US,-75.833,42.2506,8.0,1685509716.0
236,Mossamedes,66.07,59.0,4.36,3347019.0,AO,12.1522,-15.1961,10.0,1685509719.0
237,Orange Cove,66.42,68.0,4.61,5379533.0,US,-119.3137,36.6244,20.0,1685509718.0
238,Barra Patuca,78.58,87.0,6.44,3614835.0,HN,-84.2833,15.8,98.0,1685509723.0
239,Arlit,83.82,22.0,8.99,2447513.0,NE,7.3853,18.7369,80.0,1685509725.0
240,Chilia Veche,66.38,61.0,10.74,682117.0,RO,29.2833,45.4167,72.0,1685509727.0
241,Conde,74.66,100.0,5.75,3385077.0,BR,-34.9075,-7.2597,20.0,1685509729.0
242,Bulungu,70.74,86.0,1.03,2316259.0,CD,18.6,-4.55,80.0,1685509731.0
243,Baker City,60.17,53.0,5.75,5712169.0,US,-117.8344,44.7749,20.0,1685509734.0
244,Rājākhera,95.54,27.0,9.66,1258930.0,IN,78.1714,26.8961,0.0,1685509736.0
245,Portland,54.1,63.0,10.36,5746545.0,US,-122.6762,45.5234,20.0,1685509624.0
246,Birkeland,47.75,87.0,3.44,3161532.0,NO,8.2323,58.3309,0.0,1685509740.0
247,Dvinskoy Bereznik,58.39,45.0,2.71,577240.0,RU,42.7072,62.8551,96.0,1685509742.0
248,Jalingo,77.31,78.0,3.11,2336589.0,NG,11.3667,8.8833,51.0,1685509744.0
249,Yar-Sale,57.43,54.0,8.1,1486321.0,RU,70.8333,66.8333,14.0,1685509746.0
250,Tafresh,72.59,36.0,4.54,113636.0,IR,50.013,34.692,76.0,1685509748.0
251,Homer,49.01,63.0,4.61,5864145.0,US,-151.5483,59.6425,100.0,1685509561.0
252,Mandalgovi,46.33,72.0,19.62,2030065.0,MN,106.2708,45.7625,100.0,1685509697.0
253,Kibala,76.53,76.0,3.98,2425791.0,TD,18.3463,9.1104,21.0,1685509755.0
254,Ulladulla,63.77,52.0,9.73,2145554.0,AU,150.4667,-35.35,100.0,1685509757.0
255,Sitka,44.49,81.0,6.91,5557293.0,US,-135.33,57.0531,100.0,1685509759.0
256,Leningradskiy,32.31,87.0,10.22,2123814.0,RU,178.4167,69.3833,91.0,1685509761.0
257,Takāb,66.13,43.0,0.34,113508.0,IR,47.1133,36.4009,100.0,1685509763.0
258,Tarancón,52.68,89.0,1.81,3108317.0,ES,-3.0073,40.0085,32.0,1685509510.0
259,Goderich,61.92,78.0,10.63,5962442.0,CA,-81.7165,43.7501,5.0,1685509767.0
260,Rosa Zarate,74.19,95.0,2.17,3652257.0,EC,-79.4667,0.3333,33.0,1685509769.0
261,Luganville,79.09,77.0,14.41,2136150.0,VU,167.1667,-15.5333,89.0,1685509772.0
262,Druzhba,53.71,81.0,10.22,709584.0,UA,33.9453,52.0428,87.0,1685509774.0
263,Valea lui Mihai,62.31,85.0,10.36,663692.0,RO,22.15,47.5167,95.0,1685509540.0
264,Ancud,52.3,93.0,15.48,3899695.0,CL,-73.8203,-41.8697,100.0,1685509778.0
265,Matagami,65.79,64.0,7.72,6067747.0,CA,-77.6328,49.7502,0.0,1685509670.0
266,Peniche,55.02,94.0,5.26,2264923.0,PT,-9.3811,39.3558,2.0,1685509782.0
267,Miraflores,65.62,64.0,3.65,3761194.0,MX,-98.8083,19.2167,60.0,1685509784.0
268,Lebu,53.73,94.0,12.59,3883457.0,CL,-73.65,-37.6167,98.0,1685509786.0
269,Crawley,50.63,88.0,11.5,2652053.0,GB,-0.1831,51.113,75.0,1685509788.0
270,Khonsa,88.7,41.0,4.68,1266668.0,IN,95.5667,27.0167,76.0,1685509791.0
271,Yumen,72.46,10.0,6.29,1528998.0,CN,97.2,40.2833,21.0,1685509793.0
272,Bubaque,81.57,86.0,14.63,2374583.0,GW,-15.8333,11.2833,100.0,1685509795.0
273,Ribas do Rio Pardo,64.18,98.0,3.36,3451399.0,BR,-53.7592,-20.4431,99.0,1685509797.0
274,Malbork,47.91,78.0,1.95,3092472.0,PL,19.0266,54.0359,9.0,1685509799.0
275,Saint-Leu,74.41,73.0,5.64,6690297.0,RE,55.2833,-21.15,1.0,1685509801.0
276,Arkhara,53.29,87.0,3.98,2027487.0,RU,130.0842,49.4212,100.0,1685509803.0
277,Tura,94.53,38.0,4.99,1254046.0,IN,90.2201,25.5198,19.0,1685509806.0
278,Ingham,69.03,63.0,9.22,4997130.0,US,-84.3833,42.6,0.0,1685509808.0
279,Sarandi,59.2,97.0,4.81,3447998.0,BR,-51.8739,-23.4436,100.0,1685509810.0
280,Biak,83.66,71.0,9.28,1637001.0,ID,122.8766,-0.9131,41.0,1685509812.0
281,Nieuw Amsterdam,77.02,93.0,6.89,3383434.0,SR,-55.0833,5.8833,99.0,1685509815.0
282,Boundiali,74.53,87.0,6.8,2290836.0,CI,-6.4869,9.5217,64.0,1685509817.0
283,Aitape,84.43,77.0,5.79,2101169.0,PG,142.3475,-3.1374,44.0,1685509819.0
284,Manadhoo,84.07,75.0,8.93,1337618.0,MV,73.3833,5.7667,98.0,1685509821.0
285,Ca Mau,86.94,66.0,12.39,1586443.0,VN,105.15,9.1769,96.0,1685509823.0
286,San Patricio,75.78,79.0,6.22,4726521.0,US,-97.5169,28.017,0.0,1685509826.0
287,Portree,45.52,94.0,7.74,2640006.0,GB,-6.1942,57.4129,35.0,1685509828.0
288,Srednekolymsk,45.68,66.0,18.25,2121025.0,RU,153.6833,67.45,100.0,1685509830.0
289,Zhangaözen,86.41,10.0,19.39,607610.0,KZ,52.8,43.3,96.0,1685509832.0
290,Mayo,56.88,78.0,9.22,4362001.0,US,-76.5119,38.8876,0.0,1685509834.0
291,Hualmay,68.32,83.0,10.2,3939761.0,PE,-77.6139,-11.0964,30.0,1685509836.0
292,Púchov,56.97,76.0,4.68,3057963.0,SK,18.326,49.1249,1.0,1685509838.0
293,Hong Kong,96.85,74.0,9.33,1819729.0,HK,114.1577,22.2855,23.0,1685509782.0
294,Dzilam González,71.6,88.0,4.43,3529654.0,MX,-88.9333,21.2833,1.0,1685509842.0
295,Sistranda,46.36,88.0,22.91,3139597.0,NO,8.834,63.7256,96.0,1685509845.0
296,Ondjiva,55.06,46.0,2.08,3346821.0,AO,15.7333,-17.0667,4.0,1685509847.0
297,Taguatinga,73.06,49.0,5.19,6319623.0,BR,-46.5711,-12.3857,6.0,1685509849.0
298,Evensk,54.79,57.0,1.9,2125693.0,RU,159.2333,61.95,69.0,1685509851.0
299,Katsuura,68.02,85.0,13.2,2112309.0,JP,140.3,35.1333,100.0,1685509853.0
300,Ambovombe,68.36,77.0,7.65,1079048.0,MG,46.0833,-25.1667,17.0,1685509855.0
301,Pisco,68.05,77.0,8.05,3932145.0,PE,-76.2167,-13.7,100.0,1685509857.0
302,Lala,88.68,61.0,9.08,1707944.0,PH,123.7458,7.9745,98.0,1685509803.0
303,East London,60.3,83.0,8.84,1006984.0,ZA,27.9116,-33.0153,78.0,1685509862.0
304,Nyurba,51.53,66.0,10.02,2018735.0,RU,118.3319,63.2842,100.0,1685509864.0
305,Baykit,69.06,33.0,4.0,1510689.0,RU,96.37,61.67,2.0,1685509866.0
306,Muyezerskiy,45.68,68.0,13.06,524100.0,RU,31.65,63.9333,94.0,1685509868.0
307,Umarkot,93.81,35.0,16.08,1162959.0,PK,69.7362,25.3616,1.0,1685509702.0
308,Paamiut,36.41,97.0,24.67,3421193.0,GL,-49.6678,61.994,100.0,1685509872.0
309,Gberia Fotombu,71.1,96.0,3.22,2409019.0,SL,-11.1667,9.8833,100.0,1685509874.0
310,Auki,84.07,70.0,6.08,2109701.0,SB,160.7034,-8.7676,42.0,1685509876.0
311,Timmins,62.15,73.0,5.57,6166739.0,CA,-81.3331,48.4669,6.0,1685509867.0
312,Pachino,65.91,80.0,9.62,6539213.0,IT,15.0907,36.7186,82.0,1685509881.0
313,Arrondissement d'Arcachon,55.45,94.0,0.0,6621469.0,FR,-1.0519,44.5875,0.0,1685509883.0
314,Avera,67.71,79.0,6.35,4231997.0,US,-82.5271,33.194,71.0,1685509885.0
315,Bonthe,79.23,86.0,2.68,2409914.0,SL,-12.505,7.5264,94.0,1685509887.0
316,Songjianghe,75.18,24.0,8.86,2034691.0,CN,127.479,42.1859,94.0,1685509889.0
317,Salisbury,51.89,79.0,13.8,2638664.0,GB,-1.7957,51.0693,100.0,1685509891.0
318,Xi'an,64.98,92.0,12.39,1790630.0,CN,108.9286,34.2583,100.0,1685509894.0
319,Touros,73.94,88.0,10.92,3386213.0,BR,-35.4608,-5.1989,10.0,1685509717.0
320,Boda,69.91,86.0,2.3,2388614.0,CF,17.4695,4.3189,55.0,1685509898.0
321,Mayumba,74.25,94.0,5.39,2399001.0,GA,10.6554,-3.432,96.0,1685509900.0
322,Chul'man,57.52,47.0,9.06,2025261.0,RU,124.9104,56.8479,89.0,1685509902.0
323,Tambacounda,85.73,63.0,9.75,2244991.0,SN,-13.7586,13.7539,100.0,1685509904.0
324,Bushehr,87.89,58.0,11.5,139817.0,IR,50.8385,28.9684,0.0,1685509906.0
325,Port Hardy,48.2,84.0,8.32,6111862.0,CA,-127.4199,50.6996,54.0,1685509908.0
326,Shashi,85.06,53.0,8.28,1795816.0,CN,112.2447,30.3072,43.0,1685509910.0
327,Grand-Lahou,79.14,87.0,4.79,2288105.0,CI,-5.0242,5.1367,71.0,1685509913.0
328,State College,53.82,81.0,2.08,5213681.0,US,-77.86,40.7934,4.0,1685509622.0
329,Teguise,62.82,77.0,2.3,2510573.0,ES,-13.564,29.0605,20.0,1685509917.0
330,Magdagachi,63.3,36.0,4.45,2020591.0,RU,125.8,53.45,61.0,1685509919.0
331,Gaozhou,95.88,53.0,4.59,1810295.0,CN,110.8461,21.9392,15.0,1685509921.0
332,Meulaboh,85.37,65.0,4.5,1214488.0,ID,96.1285,4.1363,79.0,1685509923.0
333,Río Gallegos,48.25,61.0,16.11,3838859.0,AR,-69.2181,-51.6226,0.0,1685509885.0
334,Chaihe,71.53,27.0,10.83,2038198.0,CN,129.7,44.7667,100.0,1685509927.0
335,Nikel,44.78,95.0,9.22,522260.0,RU,30.222,69.4128,100.0,1685509930.0
336,Beringovskiy,50.29,51.0,5.64,2126710.0,RU,179.3167,63.05,7.0,1685509932.0
337,Coyhaique,51.75,82.0,2.3,3894426.0,CL,-72.0662,-45.5752,75.0,1685509934.0
338,Vardø,48.18,66.0,11.5,777019.0,NO,31.1107,70.3705,20.0,1685509936.0
339,Talnakh,53.31,61.0,18.81,1490256.0,RU,88.3972,69.4865,78.0,1685509938.0
340,Faya,66.72,48.0,1.66,110690.0,SA,42.4509,18.3851,99.0,1685509940.0
341,Znamenskoye,73.15,58.0,2.55,1485020.0,RU,73.8282,57.1281,35.0,1685509942.0
342,Manavgat,67.37,72.0,1.28,304854.0,TR,31.4431,36.7867,12.0,1685509944.0
343,Cairns,78.04,74.0,9.22,2172797.0,AU,145.7667,-16.9167,100.0,1685509946.0
344,Klaksvík,45.52,79.0,14.23,2618795.0,FO,-6.589,62.2266,96.0,1685509950.0
345,Fonte Boa,72.77,95.0,1.9,6319315.0,BR,-66.2662,-2.4959,98.0,1685509952.0
346,Piaçabuçu,75.7,85.0,7.09,3454005.0,BR,-36.4344,-10.4056,51.0,1685509954.0
347,Havøysund,41.23,92.0,2.84,779622.0,NO,24.6622,70.9963,100.0,1685509956.0
348,Boden,51.8,51.0,14.34,606531.0,SE,21.6886,65.8252,87.0,1685509958.0
349,Nhulunbuy,81.21,69.0,16.11,2064735.0,AU,136.7667,-12.2333,100.0,1685509960.0
350,Kamenka,57.76,90.0,7.99,553766.0,RU,42.7678,51.3223,100.0,1685509962.0
351,Kazachinskoye,73.92,37.0,2.21,1504075.0,RU,93.2761,57.6953,74.0,1685509964.0
352,Geraldton,64.81,94.0,12.66,2070998.0,AU,114.6,-28.7667,100.0,1685509966.0
353,Maxixe,68.23,80.0,4.68,1039536.0,MZ,35.3472,-23.8597,21.0,1685509969.0
354,Leon Valley,73.36,80.0,6.91,4705923.0,US,-98.6186,29.4952,0.0,1685509815.0
355,Nome,37.47,65.0,20.71,5870133.0,US,-165.4064,64.5011,75.0,1685509973.0
356,Manokwari,83.57,74.0,3.04,1636308.0,ID,134.0833,-0.8667,32.0,1685509975.0
357,Grand-Santi,72.79,99.0,2.13,3381538.0,GF,-54.3833,4.25,100.0,1685509977.0
358,Faanui,79.57,78.0,20.54,4034551.0,PF,-151.75,-16.4833,73.0,1685509979.0
359,Clyde River,23.23,93.0,18.41,5924351.0,CA,-68.5914,70.4692,100.0,1685509981.0
360,Kosa,60.76,83.0,2.62,544318.0,RU,54.9977,59.9445,100.0,1685509983.0
361,Blackwater,74.77,24.0,5.88,2175403.0,AU,148.8833,-23.5833,0.0,1685509986.0
362,Assiniboia,65.82,61.0,8.43,5887798.0,CA,-105.9845,49.6334,58.0,1685509701.0
363,Bambous Virieux,77.25,65.0,4.61,1106677.0,MU,57.7575,-20.3428,20.0,1685509990.0
364,Arona,57.67,80.0,8.05,2521582.0,ES,-16.681,28.0996,20.0,1685509992.0
365,Belyy Yar,55.29,76.0,4.47,1510377.0,RU,91.3903,53.6039,40.0,1685509994.0
366,San Miguel,76.12,88.0,1.43,3583446.0,SV,-88.1833,13.4833,53.0,1685509996.0
367,Maniitsoq,39.16,90.0,20.62,3421982.0,GL,-52.9,65.4167,100.0,1685509998.0
368,Freeport,52.93,85.0,5.75,5117949.0,US,-73.5832,40.6576,0.0,1685510001.0
369,Constitución,56.16,68.0,0.49,3893726.0,CL,-72.4167,-35.3333,94.0,1685509987.0
370,Tarakan,92.7,59.0,5.75,1624725.0,ID,117.6333,3.3,20.0,1685510005.0
371,Nirmal,101.44,17.0,11.99,1261288.0,IN,78.35,19.1,88.0,1685510007.0
372,Zmeinogorsk,66.56,46.0,9.35,1485042.0,RU,82.195,51.1567,4.0,1685510009.0
373,Valparaíso,57.99,65.0,3.44,3868626.0,CL,-71.6273,-33.0393,0.0,1685509920.0
374,Caravelas,72.82,85.0,7.83,3466980.0,BR,-39.2481,-17.7125,43.0,1685510013.0
375,Torbay,41.32,80.0,13.8,6167817.0,CA,-52.7314,47.6666,40.0,1685510015.0
376,Le Port,76.33,76.0,1.7,935616.0,RE,55.2919,-20.9373,2.0,1685510018.0
377,Kumul,75.29,16.0,12.95,1529484.0,CN,93.45,42.8,13.0,1685510020.0
378,Inverell,65.1,56.0,4.0,2162662.0,AU,151.1167,-29.7833,69.0,1685510022.0
379,Tortolì,62.42,82.0,11.5,2522890.0,IT,9.6572,39.9256,40.0,1685510024.0
380,Beipiao,83.95,23.0,20.85,2038342.0,CN,120.7792,41.7919,100.0,1685510026.0
381,Novo Aripuanã,74.95,95.0,2.98,3663142.0,BR,-60.3797,-5.1206,100.0,1685510028.0
382,Akdepe,87.73,7.0,11.86,601551.0,TM,59.3788,42.0551,23.0,1685510030.0
383,Pangnirtung,33.06,99.0,1.43,6096551.0,CA,-65.7125,66.1451,100.0,1685510032.0
384,Komatipoort,64.06,83.0,3.53,988290.0,ZA,31.9548,-25.4332,13.0,1685510034.0
385,Kailua,78.26,73.0,8.05,5847486.0,US,-157.7394,21.4022,40.0,1685510037.0
386,Massakory,89.58,39.0,6.17,2428228.0,TD,15.7293,12.996,86.0,1685510039.0
387,Byron Bay,75.7,51.0,12.55,2172880.0,AU,153.6167,-28.65,29.0,1685510041.0
388,Dawson Creek,49.64,43.0,2.3,5935804.0,CA,-120.2362,55.7666,0.0,1685510043.0
389,Port-Gentil,78.01,85.0,10.45,2396518.0,GA,8.7815,-0.7193,21.0,1685510045.0
390,Augusto Corrêa,74.28,98.0,2.53,3406961.0,BR,-46.635,-1.0217,100.0,1685510047.0
391,Araouane,83.08,25.0,9.62,2460954.0,ML,-3.5265,18.9048,93.0,1685510049.0
392,Coahuayana Viejo,77.29,83.0,0.85,4013679.0,MX,-103.6833,18.7333,13.0,1685510051.0
393,Mount Gambier,65.28,60.0,14.65,2156643.0,AU,140.7667,-37.8333,93.0,1685510054.0
394,Swan River,62.49,82.0,2.3,6160362.0,CA,-101.2676,52.1058,51.0,1685510056.0
395,Bima,87.69,60.0,6.67,1648759.0,ID,118.7167,-8.4667,77.0,1685510058.0
396,Cherskiy,41.2,59.0,15.48,2126199.0,RU,161.3,68.75,94.0,1685510060.0
397,Adrar,76.96,23.0,8.86,2381972.0,MR,-10.0711,20.5022,72.0,1685510062.0
398,Egvekinot,45.27,58.0,6.29,4031742.0,RU,-179.1667,66.3167,71.0,1685510064.0
399,Comodoro Rivadavia,58.86,55.0,14.97,3860443.0,AR,-67.5,-45.8667,0.0,1685510066.0
400,Volchikha,74.44,22.0,8.79,1486983.0,RU,80.3833,52.0333,0.0,1685510068.0
401,Paita,73.24,83.0,12.82,3694112.0,PE,-81.1144,-5.0892,5.0,1685510071.0
402,Calama,41.49,22.0,20.71,3897347.0,CL,-68.9333,-22.4667,0.0,1685510047.0
403,Abalak,73.08,30.0,4.54,1512223.0,RU,68.5944,58.1286,13.0,1685510075.0
404,Atar,82.36,27.0,8.61,2381334.0,MR,-13.0499,20.5169,66.0,1685510077.0
405,Venado Tuerto,50.77,82.0,8.41,3833062.0,AR,-61.9688,-33.7456,43.0,1685510079.0
406,Ostrovnoy,50.22,50.0,14.16,556268.0,RU,39.5131,68.0531,61.0,1685510081.0
407,Praia,79.34,41.0,16.11,3374333.0,CV,-23.5087,14.9215,0.0,1685510083.0
408,Campoverde,76.69,99.0,2.33,3733380.0,PE,-74.8058,-8.4753,47.0,1685510085.0
409,Peebles,48.07,96.0,3.0,2640526.0,GB,-3.1888,55.6519,24.0,1685510088.0
410,Ngunguru,58.32,79.0,9.55,2186111.0,NZ,174.5,-35.6167,38.0,1685510090.0
411,Haines Junction,46.35,42.0,9.22,5969025.0,CA,-137.5108,60.7522,34.0,1685510092.0
412,Chernyshevsk,66.85,27.0,10.36,2025458.0,RU,117.0174,52.5243,53.0,1685510094.0
413,Makiyivka,58.37,93.0,6.67,702320.0,UA,37.9258,48.0478,100.0,1685510096.0
414,Petropavlovsk-Kamchatskiy,43.39,87.0,8.95,2122104.0,RU,158.6483,53.0452,75.0,1685510026.0
415,Los Llanos de Aridane,60.12,70.0,8.05,2514651.0,ES,-17.9182,28.6585,0.0,1685510100.0
416,Nuevo Progreso,73.89,73.0,2.93,3522526.0,MX,-97.95,23.1667,14.0,1685510102.0
417,Norsup,79.79,69.0,17.05,2135517.0,VU,167.3833,-16.0667,88.0,1685510105.0
418,Yulara,73.09,23.0,4.41,6355222.0,AU,130.9889,-25.2406,0.0,1685510107.0
419,Hohhot,71.89,49.0,17.9,2036892.0,CN,111.6522,40.8106,20.0,1685510109.0
420,Bowen,74.1,68.0,19.01,2174444.0,AU,148.2333,-20.0167,51.0,1685510111.0
421,Smoky Lake,52.88,93.0,5.75,6150293.0,CA,-112.4686,54.1169,35.0,1685510113.0
422,Angoram,86.04,73.0,4.47,2100765.0,PG,144.0661,-4.0625,64.0,1685510116.0
423,Itarema,76.53,89.0,10.27,3393692.0,BR,-39.9167,-2.9248,6.0,1685510118.0
424,La Asuncion,78.37,89.0,9.06,3480908.0,VE,-63.8628,11.0333,100.0,1685510120.0
425,Berlevåg,42.87,87.0,8.05,780687.0,NO,29.0864,70.8578,75.0,1685510122.0
426,Ambilobe,76.46,72.0,3.56,1082243.0,MG,49.05,-13.2,0.0,1685510124.0
427,Teya,71.22,25.0,6.06,1489656.0,RU,92.6267,60.3778,18.0,1685510126.0
428,Máncora,77.32,76.0,7.31,3695000.0,PE,-81.0475,-4.1078,33.0,1685510129.0
429,Crotone,66.2,77.0,5.79,2524881.0,IT,17.1178,39.0851,89.0,1685510131.0
430,Sechura,74.86,76.0,13.27,3691954.0,PE,-80.8222,-5.5569,10.0,1685510133.0
431,Tarko-Sale,60.46,71.0,17.16,1490085.0,RU,77.785,64.9225,19.0,1685510135.0
432,Yerofey Pavlovich,63.3,33.0,7.94,2012938.0,RU,121.9667,53.9667,52.0,1685510137.0
433,Doha,97.83,32.0,17.27,290030.0,QA,51.5333,25.2867,0.0,1685509982.0
434,Palmer,48.67,79.0,6.91,4946620.0,US,-72.3287,42.1584,0.0,1685510141.0
435,Darhan,58.24,68.0,20.11,2031964.0,MN,105.9228,49.4867,100.0,1685510143.0
436,Rantauprapat,92.46,46.0,2.59,1214073.0,ID,99.8333,2.1,96.0,1685510146.0
437,Arroyo de la Encomienda,53.08,88.0,4.61,3129371.0,ES,-4.7969,41.6096,0.0,1685510148.0
438,Keetmanshoop,45.0,88.0,3.85,3356264.0,NA,18.1333,-26.5833,42.0,1685510150.0
439,Staryy Nadym,58.91,48.0,12.93,1490918.0,RU,72.6842,65.6118,52.0,1685510152.0
440,Beloha,68.22,78.0,10.07,1067565.0,MG,45.05,-25.1667,53.0,1685510154.0
441,Kelvington,61.52,78.0,7.99,5990669.0,CA,-103.5343,52.1667,2.0,1685510156.0
442,Munger,106.41,18.0,7.14,1262482.0,IN,86.4667,25.3833,41.0,1685510158.0
443,Grindavik,43.27,100.0,11.5,3416888.0,IS,-22.4338,63.8424,100.0,1685510160.0
444,Kangaatsiaq,34.07,97.0,14.92,3422683.0,GL,-53.4641,68.3065,100.0,1685510162.0
445,Omsukchan,59.88,38.0,8.12,2122493.0,RU,155.8,62.5333,53.0,1685510165.0
446,Quzhou,86.72,68.0,8.43,1797264.0,CN,118.8686,28.9594,74.0,1685510167.0
447,Neijiang,90.79,56.0,3.65,1799491.0,CN,105.0622,29.5835,63.0,1685510169.0
448,Bonavista,39.85,88.0,9.24,5905393.0,CA,-53.1147,48.6499,94.0,1685510171.0
449,Pauini,72.19,93.0,2.26,3662927.0,BR,-66.9764,-7.7136,89.0,1685510173.0
450,Poso,88.02,61.0,5.88,1630723.0,ID,120.7524,-1.3959,45.0,1685510175.0
451,Hervey Bay,67.59,57.0,3.11,2146219.0,AU,152.8535,-25.2986,0.0,1685510149.0
452,Gambēla,75.0,79.0,2.68,337405.0,ET,34.5833,8.25,31.0,1685510179.0
453,Hede,77.4,69.0,11.9,1808744.0,CN,120.2517,33.7681,48.0,1685510182.0
454,Alice Springs,76.55,15.0,3.58,2077895.0,AU,133.8833,-23.7,0.0,1685510184.0
455,Tazmalt,59.45,90.0,3.49,2477537.0,DZ,4.3989,36.3868,90.0,1685510186.0
456,Mangaratiba,65.26,83.0,4.56,3457991.0,BR,-44.0406,-22.9597,97.0,1685510188.0
457,Porto-Novo,80.42,85.0,4.83,2392087.0,BJ,2.6036,6.4965,88.0,1685510190.0
458,Sabha,72.5,46.0,13.0,2212775.0,LY,14.4283,27.0377,1.0,1685510192.0
459,Salinópolis,77.99,88.0,8.7,3389822.0,BR,-47.3561,-0.6136,85.0,1685510194.0
460,Riyadh,82.54,48.0,3.96,108410.0,SA,46.7219,24.6877,100.0,1685509960.0
461,Jönköping,53.31,82.0,11.5,2702979.0,SE,14.1562,57.7814,0.0,1685510054.0
462,Yatou,75.97,57.0,10.33,1786855.0,CN,122.3833,37.15,91.0,1685510201.0
463,Jaru,70.93,95.0,3.27,3925040.0,BR,-62.4664,-10.4389,39.0,1685510203.0
464,Yashan,95.95,53.0,1.48,1786867.0,CN,109.9419,22.1975,5.0,1685510205.0
465,Bamiantong,73.35,26.0,9.66,2038482.0,CN,130.5333,44.9333,85.0,1685510207.0
466,Boa Vista,78.78,83.0,2.3,3664980.0,BR,-60.6733,2.8197,20.0,1685510209.0
467,Barra do Bugres,65.88,99.0,2.82,3470718.0,BR,-57.1811,-15.0725,91.0,1685510211.0
468,Butembo,58.77,86.0,2.82,217562.0,CD,29.2833,0.15,7.0,1685510213.0
469,Talaya,61.66,40.0,8.23,2120769.0,RU,152.75,61.3833,95.0,1685510215.0
470,Vengurla,87.6,65.0,5.82,1253257.0,IN,73.6333,15.8667,58.0,1685510218.0
471,Maracaçumé,72.64,99.0,2.66,3395497.0,BR,-45.9592,-2.0428,64.0,1685510220.0
472,Nouadhibou,67.98,77.0,14.97,2377457.0,MR,-17.0347,20.931,91.0,1685510222.0
473,La Celia,62.19,98.0,2.37,3679542.0,CO,-76.0167,5.0433,100.0,1685510224.0
474,Lüderitz,55.31,83.0,13.06,3355672.0,NA,15.1594,-26.6481,0.0,1685510226.0
475,Carutapera,76.33,94.0,6.31,3402648.0,BR,-46.02,-1.195,98.0,1685510228.0
476,Yauya,45.12,90.0,4.09,3690733.0,PE,-77.3,-8.9833,23.0,1685510230.0
477,Port Said,71.58,83.0,8.05,358619.0,EG,32.2841,31.2565,0.0,1685510233.0
478,Sambava,74.89,85.0,11.7,1056899.0,MG,50.1667,-14.2667,37.0,1685510235.0
479,Kafanchan,69.42,97.0,3.2,2335713.0,NG,8.3,9.5833,75.0,1685510237.0
480,Neftçala,77.83,60.0,9.06,147425.0,AZ,49.2472,39.3742,100.0,1685510239.0
481,Yhú,58.05,99.0,4.14,3436595.0,PY,-55.9167,-25.05,36.0,1685510241.0
482,Necochea,53.35,70.0,12.84,3430443.0,AR,-58.7368,-38.5473,100.0,1685510243.0
483,Muros,59.94,94.0,1.86,3115824.0,ES,-9.0603,42.7762,95.0,1685510245.0
484,Linxia Chengguanzhen,54.45,74.0,2.28,1803331.0,CN,103.2064,35.6003,100.0,1685510248.0
485,Tripoli,67.44,83.0,7.4,2210247.0,LY,13.1875,32.8752,15.0,1685510250.0
486,Ixtapa,81.63,78.0,0.0,4004293.0,MX,-105.2,20.7,100.0,1685510252.0
487,Santiago del Estero,57.56,82.0,6.53,3835869.0,AR,-64.2615,-27.7951,48.0,1685510239.0
488,Uribia,81.64,79.0,8.16,3666409.0,CO,-72.266,11.7139,100.0,1685510256.0
489,Rome,61.77,69.0,6.91,5134295.0,US,-75.4557,43.2128,0.0,1685510258.0
490,Xuanzhou,72.61,89.0,6.17,1788081.0,CN,118.7553,30.9525,100.0,1685510260.0
491,Arrondissement de Muret,55.8,94.0,2.39,2991152.0,FR,1.25,43.3333,93.0,1685510262.0
492,Orlik,46.2,75.0,5.12,1496073.0,RU,99.825,52.5178,100.0,1685510264.0
493,Toyoake,73.9,68.0,8.37,1856057.0,JP,137.0137,35.0594,99.0,1685510267.0
494,Ibrā’,89.83,43.0,5.35,287832.0,OM,58.5334,22.6906,1.0,1685510269.0
495,Ayagoz,66.52,31.0,20.2,1525988.0,KZ,80.4392,47.9714,4.0,1685510271.0
496,Deputatsky,33.58,69.0,8.25,2028164.0,RU,139.9,69.3,100.0,1685510273.0
497,Moyale,67.82,83.0,8.72,186180.0,KE,39.0584,3.5167,43.0,1685510275.0
498,Gresik,89.51,51.0,7.07,1643776.0,ID,112.6561,-7.1539,28.0,1685510277.0
499,Tsushima,74.16,57.0,8.88,1849539.0,JP,136.7167,35.1667,98.0,1685510279.0
500,Boralday,76.86,27.0,4.47,1526384.0,KZ,76.8594,43.3578,40.0,1685510281.0
501,Mahina,74.97,88.0,20.71,4034307.0,PF,-149.489,-17.5065,75.0,1685510284.0
502,Ust-Maya,67.86,37.0,3.04,2013918.0,RU,134.5333,60.4167,99.0,1685510286.0
503,General Pico,51.33,75.0,9.73,3855075.0,AR,-63.7568,-35.6566,57.0,1685510288.0
504,Labuan,89.96,62.0,4.61,1733782.0,MY,115.2417,5.2767,20.0,1685510290.0
505,Saint Anthony,69.37,72.0,4.61,5044290.0,US,-93.218,45.0205,40.0,1685510292.0
506,Iqaluit,29.7,86.0,13.8,5983720.0,CA,-68.5145,63.7506,75.0,1685510295.0
507,Haapiti,74.71,81.0,22.59,4034438.0,PF,-149.8667,-17.5667,74.0,1685510297.0
508,Sarankhola,100.02,35.0,4.5,1185239.0,BD,89.7897,22.3082,60.0,1685510299.0
509,Odienné,71.94,95.0,4.25,2283016.0,CI,-7.5692,9.51,29.0,1685510301.0
510,Miles City,65.37,68.0,10.36,5666176.0,US,-105.8406,46.4083,0.0,1685510303.0
511,Daru,80.58,81.0,15.48,2098329.0,PG,143.2092,-9.0763,36.0,1685510305.0
512,Umm Kaddadah,84.34,46.0,9.48,364933.0,SD,26.6876,13.6017,35.0,1685510307.0
513,Skegness,51.98,83.0,17.83,2637762.0,GB,0.3363,53.1436,78.0,1685510310.0
514,Saint-François,48.67,96.0,1.74,2980080.0,FR,3.9054,46.4154,27.0,1685510312.0
515,Semey,73.62,31.0,6.71,1519422.0,KZ,80.2275,50.4111,0.0,1685510314.0
516,Esperance,66.56,76.0,10.4,2071860.0,AU,121.9,-33.8667,40.0,1685510316.0
517,Selkirk,61.11,92.0,1.01,6144054.0,CA,-96.8845,50.1436,67.0,1685510318.0
518,Mahajanga,76.75,62.0,11.43,1062663.0,MG,46.3167,-15.7167,12.0,1685510320.0
519,Ruwi,103.69,45.0,2.19,287286.0,OM,58.5507,23.5996,4.0,1685510322.0
520,Pucallpa,77.04,100.0,3.44,3693345.0,PE,-74.5539,-8.3791,75.0,1685510324.0
521,Ginda,71.74,44.0,6.46,1253628.0,IN,78.4932,30.6945,76.0,1685510327.0
522,Hare Bay,40.6,77.0,4.38,5970873.0,CA,-54.0148,48.8499,96.0,1685510329.0
523,Kabalo,69.39,67.0,3.58,215668.0,CD,26.9167,-6.05,8.0,1685510331.0
524,Cockburn Town,81.18,83.0,19.08,3576994.0,TC,-71.1419,21.4612,100.0,1685510333.0
525,Kolomyia,56.75,87.0,6.89,705392.0,UA,25.0403,48.5306,49.0,1685510335.0
526,Odawara,66.9,77.0,5.99,1854747.0,JP,139.1597,35.2556,100.0,1685510337.0
527,Santa Cruz de la Sierra,63.86,94.0,6.91,3904906.0,BO,-63.1667,-17.8,75.0,1685510078.0
528,Derzhavīnsk,84.88,27.0,2.95,1524606.0,KZ,66.3167,51.1,83.0,1685510341.0
529,Raduzhny,69.46,47.0,10.85,1540356.0,RU,77.475,62.0961,1.0,1685510344.0
530,Gulariyā,101.25,23.0,7.61,1283368.0,NP,81.3333,28.2333,1.0,1685510346.0
531,Oudtshoorn,52.16,73.0,1.72,967106.0,ZA,22.2014,-33.5907,54.0,1685510348.0
532,Ruteng,73.0,67.0,1.45,1629380.0,ID,120.4721,-8.6136,97.0,1685510351.0
533,Sokolac,52.57,99.0,1.41,3190385.0,BA,18.8017,43.9397,99.0,1685510353.0
534,Jieshi,85.66,70.0,9.75,1805857.0,CN,115.8257,22.8134,21.0,1685510355.0
535,Porto Velho,75.25,94.0,1.14,3662762.0,BR,-63.9039,-8.7619,20.0,1685510294.0
536,Olinda,74.93,88.0,4.61,3393536.0,BR,-34.8553,-8.0089,40.0,1685510359.0
537,Vallenar,62.31,46.0,1.5,3868633.0,CL,-70.7581,-28.5708,72.0,1685510219.0
538,Bud,66.97,86.0,6.24,4255151.0,US,-86.1758,39.447,96.0,1685510364.0
539,Dhārchula,82.44,40.0,6.51,1272864.0,IN,80.5333,29.85,48.0,1685510366.0
540,Mabaruma,73.13,99.0,2.24,3377301.0,GY,-59.7833,8.2,99.0,1685510368.0
541,Nemuro,51.62,76.0,14.38,2128975.0,JP,145.575,43.3236,10.0,1685510370.0
542,Caucayá,72.5,98.0,2.35,3671437.0,CO,-74.7819,-0.1934,37.0,1685510372.0
543,Vanderhoof,46.45,43.0,5.91,6173361.0,CA,-124.0198,54.0166,78.0,1685510374.0
544,Maravilha,57.61,96.0,3.06,3457809.0,BR,-53.1725,-26.7608,71.0,1685510376.0
545,Nanlong,86.31,65.0,8.95,1799908.0,CN,106.0631,31.3533,47.0,1685510378.0
546,Seryshevo,49.17,80.0,11.16,2016942.0,RU,128.3786,51.0933,100.0,1685510381.0
547,Les Cayes,78.39,84.0,4.76,3728097.0,HT,-73.75,18.2,100.0,1685510383.0
548,Lagoa,62.96,84.0,14.5,3372964.0,PT,-27.9833,39.05,1.0,1685510385.0
549,Pacifica,54.34,86.0,13.8,5380420.0,US,-122.4869,37.6138,75.0,1685510387.0
550,Northam,52.74,82.0,15.12,2641434.0,GB,-4.2167,51.0333,16.0,1685510389.0
551,Rio Grande,60.17,90.0,3.53,3451138.0,BR,-52.0986,-32.035,15.0,1685510391.0
552,Gejiu,82.67,38.0,6.08,1810240.0,CN,103.1635,23.306,40.0,1685510393.0
553,Opuwo,52.68,35.0,4.7,3354077.0,NA,13.84,-18.0607,4.0,1685510395.0
554,La Ronge,66.45,48.0,4.61,6050066.0,CA,-105.2842,55.1001,100.0,1685510398.0
555,Yazykovo,74.57,53.0,10.96,468483.0,RU,56.1353,55.2199,99.0,1685510400.0
556,Batticaloa,86.81,66.0,2.46,1250161.0,LK,81.6924,7.7102,81.0,1685510402.0
557,Khasan,63.66,59.0,11.3,2039557.0,RU,130.6434,42.4308,100.0,1685510404.0
558,Kattivākkam,91.08,68.0,11.39,1267433.0,IN,80.3167,13.2167,78.0,1685510406.0
559,Arrondissement de Saint-Denis,54.01,86.0,12.66,2980915.0,FR,2.3333,48.9167,0.0,1685510408.0
560,Ende,81.88,73.0,5.61,1644932.0,ID,121.6623,-8.8432,78.0,1685510410.0
561,Harlingen,73.99,96.0,3.44,4696233.0,US,-97.6961,26.1906,0.0,1685510413.0
562,Zhicheng,85.44,52.0,6.15,1784554.0,CN,111.5047,30.2956,38.0,1685510415.0
563,Havelock,65.7,92.0,10.36,4470244.0,US,-76.9013,34.8791,75.0,1685510319.0
564,Madimba,73.53,91.0,9.1,878141.0,TZ,40.3333,-10.4,85.0,1685510419.0
565,Pacific Grove,55.09,87.0,5.75,5380437.0,US,-121.9166,36.6177,100.0,1685510131.0
566,Esim,78.1,88.0,1.88,2303611.0,GH,-2.2405,4.8699,71.0,1685510423.0
567,Gorontalo,88.81,61.0,7.45,1643837.0,ID,123.0595,0.5412,90.0,1685510425.0
568,Vaitape,79.5,79.0,20.85,4033077.0,PF,-151.75,-16.5167,76.0,1685510427.0
569,Ottawa,61.43,59.0,5.75,6094817.0,CA,-75.6981,45.4112,0.0,1685510176.0
570,Petropavl,78.78,31.0,6.71,1520172.0,KZ,69.1628,54.8753,0.0,1685510432.0
571,Bossangoa,70.97,81.0,2.8,2388036.0,CF,17.4552,6.4926,12.0,1685510434.0
572,Lavrentiya,38.03,79.0,3.8,4031637.0,RU,-171.0,65.5833,89.0,1685510436.0
573,Muskegon,67.44,62.0,3.44,5003136.0,US,-86.1334,43.3,75.0,1685510438.0
574,Lālmohan,90.91,58.0,7.83,1185251.0,BD,90.7419,22.3384,63.0,1685510440.0
575,Gainesville,70.54,74.0,5.75,4156404.0,US,-82.3248,29.6516,0.0,1685510355.0
