,City,Temp_max,Humidity,wind_speed,city_id,country_code,long,lat,Cloudiness,datetime
0,Flin Flon,63.55,92.0,10.13,5954718.0,CA,-101.865,54.7682,100.0,1685847602.0
1,Severo-Kuril'sk,39.36,97.0,11.3,2121385.0,RU,156.125,50.6789,100.0,1685847605.0
2,Codrington,64.11,62.0,9.82,2171099.0,AU,141.9667,-38.2667,29.0,1685847607.0
3,Bredasdorp,49.5,83.0,5.46,1015776.0,ZA,20.0403,-34.5322,57.0,1685847610.0
4,Kindersley,71.62,73.0,11.5,5992154.0,CA,-109.1682,51.4668,100.0,1685847612.0
5,Kavieng,82.36,76.0,4.83,2094342.0,PG,150.7967,-2.5744,62.0,1685847614.0
6,Brae,47.48,92.0,2.84,2654970.0,GB,-1.353,60.3964,9.0,1685847616.0
7,Hithadhoo,82.99,73.0,6.93,1282256.0,MV,73.0833,-0.6,100.0,1685847618.0
8,Ponta Delgada,65.12,82.0,3.44,3372783.0,PT,-25.6667,37.7333,20.0,1685847621.0
9,Kaitangata,44.51,89.0,6.2,2208248.0,NZ,169.8464,-46.2817,100.0,1685847623.0
10,Neiafu,81.28,65.0,9.22,4032420.0,TO,-173.9833,-18.65,40.0,1685847625.0
11,Busselton,65.01,68.0,30.82,2075265.0,AU,115.3333,-33.65,49.0,1685847628.0
12,Kudahuvadhoo,77.9,88.0,10.58,1337607.0,MV,72.8944,2.6708,100.0,1685847630.0
13,Port Macquarie,67.89,91.0,5.57,2152659.0,AU,152.9167,-31.4333,100.0,1685847632.0
14,Jamestown,58.42,51.0,12.66,5122534.0,US,-79.2353,42.097,0.0,1685847635.0
15,Nantucket,46.53,93.0,25.32,4944903.0,US,-70.0995,41.2835,100.0,1685847637.0
16,São João da Barra,61.66,91.0,2.1,3448903.0,BR,-41.0511,-21.6403,0.0,1685847639.0
17,Castlebar,55.58,94.0,3.0,2965654.0,IE,-9.3,53.85,0.0,1685847641.0
18,Katobu,81.28,83.0,4.07,1640972.0,ID,122.5276,-4.9408,62.0,1685847644.0
19,Port Lincoln,73.08,40.0,8.03,2063036.0,AU,135.8667,-34.7333,100.0,1685847646.0
20,Padampur,90.43,38.0,3.96,1260938.0,IN,73.6167,29.6833,62.0,1685847648.0
21,Cayenne,75.24,94.0,3.44,3382160.0,GF,-52.3333,4.9333,75.0,1685847529.0
22,Norman Wells,75.24,25.0,8.05,6089245.0,CA,-126.8329,65.282,100.0,1685847652.0
23,Upernavik,21.7,94.0,1.9,3418910.0,GL,-56.1549,72.7868,87.0,1685847654.0
24,Ushuaia,38.86,81.0,3.44,3833367.0,AR,-68.3,-54.8,75.0,1685847657.0
25,Tasiilaq,28.56,85.0,2.77,3424607.0,GL,-37.6368,65.6145,100.0,1685847659.0
26,Thunder Bay,66.11,63.0,5.75,6166142.0,CA,-89.3168,48.4001,20.0,1685847587.0
27,Provideniya,41.18,73.0,5.37,4031574.0,RU,-173.3,64.3833,97.0,1685847663.0
28,Cap Malheureux,75.47,66.0,1.01,934649.0,MU,57.6142,-19.9842,2.0,1685847665.0
29,West Wendover,70.81,28.0,5.75,5710035.0,US,-114.0733,40.7391,40.0,1685847547.0
30,Tautira,77.95,71.0,9.06,4033557.0,PF,-149.15,-17.7333,15.0,1685847670.0
31,Avarua,73.45,64.0,5.75,4035715.0,CK,-159.775,-21.2078,75.0,1685847672.0
32,Punta Arenas,37.51,87.0,10.36,3874787.0,CL,-70.9167,-53.15,75.0,1685847674.0
33,Ozernovskiy,41.27,94.0,9.08,2122293.0,RU,156.5167,51.5,100.0,1685847676.0
34,Aksu,77.36,24.0,14.47,1529660.0,CN,80.2644,41.1231,100.0,1685847679.0
35,Arrondissement d'Ajaccio,58.98,82.0,5.75,3038333.0,FR,8.9167,42.0,100.0,1685847681.0
36,Cabedelo,75.87,77.0,11.12,3404558.0,BR,-34.8339,-6.9811,59.0,1685847417.0
37,Dikson,31.62,90.0,4.68,1507390.0,RU,80.5464,73.5069,66.0,1685847685.0
38,Hobart,48.6,72.0,6.91,2163355.0,AU,147.3294,-42.8794,0.0,1685847425.0
39,Vestmannaeyjar,47.46,85.0,9.37,3412093.0,IS,-20.2734,63.4427,100.0,1685847689.0
40,Alofi,75.09,88.0,10.36,4036284.0,NU,-169.9187,-19.0595,97.0,1685847691.0
41,Carnarvon,67.06,34.0,2.84,2074865.0,AU,113.6333,-24.8667,0.0,1685847694.0
42,Saint-Philippe,67.59,76.0,11.72,935215.0,RE,55.7679,-21.3585,0.0,1685847696.0
43,Cabra,63.55,71.0,3.31,2520645.0,ES,-4.4421,37.4725,52.0,1685847698.0
44,Feldbach,56.17,95.0,1.03,2779685.0,AT,15.8883,46.9531,91.0,1685847700.0
45,Tual,81.28,79.0,17.87,1623197.0,ID,132.75,-5.6667,82.0,1685847702.0
46,Longyearbyen,35.44,75.0,4.61,2729907.0,SJ,15.6401,78.2186,0.0,1685847705.0
47,Dukat,53.38,66.0,0.92,2125906.0,RU,155.55,62.55,100.0,1685847707.0
48,Jalu,76.6,32.0,10.02,86049.0,LY,21.5482,29.0331,3.0,1685847709.0
49,Vaini,77.16,73.0,11.5,4032243.0,TO,-175.2,-21.2,40.0,1685847711.0
50,Albany,51.24,89.0,3.18,5106841.0,US,-73.9662,42.6001,16.0,1685847713.0
51,Karaton,87.12,62.0,1.83,1630058.0,ID,106.1045,-6.3424,29.0,1685847715.0
52,Saldanha,48.25,76.0,6.6,3361934.0,ZA,17.9442,-33.0117,59.0,1685847718.0
53,Castro,50.92,83.0,3.36,3466704.0,BR,-50.0119,-24.7911,0.0,1685847622.0
54,Inhambane,72.77,86.0,13.02,1045114.0,MZ,35.3833,-23.865,98.0,1685847722.0
55,Mataura,44.38,87.0,3.76,6201424.0,NZ,168.8643,-46.1927,100.0,1685847724.0
56,Puerto Ayora,78.55,94.0,5.99,3652764.0,EC,-90.3518,-0.7393,74.0,1685847726.0
57,Arraial do Cabo,70.18,77.0,13.0,3471451.0,BR,-42.0278,-22.9661,0.0,1685847729.0
58,Obihiro,54.81,76.0,2.53,2128815.0,JP,143.2044,42.9172,99.0,1685847641.0
59,Penzance,56.08,82.0,13.67,2640377.0,GB,-5.5371,50.1186,35.0,1685847733.0
60,Butaritari,84.16,75.0,11.34,2110227.0,KI,172.7902,3.0707,100.0,1685847735.0
61,Rikitea,74.79,67.0,9.62,4030556.0,PF,-134.9692,-23.1203,97.0,1685847737.0
62,Namatanai,84.43,71.0,4.65,2090021.0,PG,152.4333,-3.6667,27.0,1685847739.0
63,Isangel,84.31,58.0,9.22,2136825.0,VU,169.2667,-19.55,40.0,1685847741.0
64,Saint George,84.87,19.0,3.44,5546220.0,US,-113.5841,37.1041,0.0,1685847744.0
65,Kruisfontein,51.89,87.0,8.9,986717.0,ZA,24.7314,-34.0033,16.0,1685847746.0
66,Mwinilunga,53.51,59.0,2.86,902620.0,ZM,24.4293,-11.7358,6.0,1685847748.0
67,Port Alfred,56.82,77.0,14.14,964432.0,ZA,26.891,-33.5906,2.0,1685847750.0
68,Marzuq,78.48,52.0,4.61,72181.0,YE,46.4667,14.4,44.0,1685847752.0
69,Puerto Escondido,85.03,65.0,8.05,3520994.0,MX,-97.0667,15.85,75.0,1685847754.0
70,Sivaki,73.06,29.0,12.86,2016477.0,RU,126.75,52.6333,19.0,1685847756.0
71,Yellowknife,72.12,30.0,11.5,6185377.0,CA,-114.3525,62.456,100.0,1685847758.0
72,Canchungo,76.24,74.0,4.5,2373951.0,GW,-16.0333,12.0672,72.0,1685847761.0
73,Östersund,39.65,38.0,61.0,2685750.0,SE,14.6357,63.1792,40.0,1685847763.0
74,Fort Nelson,69.94,52.0,16.11,5955902.0,CA,-122.7002,58.8053,75.0,1685847765.0
75,Castelo Branco,60.62,77.0,2.26,2269514.0,PT,-7.4909,39.8222,9.0,1685847767.0
76,Black River,79.16,85.0,2.98,3491355.0,JM,-77.8487,18.0264,8.0,1685847769.0
77,Atuona,80.85,76.0,8.37,4020109.0,PF,-139.0333,-9.8,48.0,1685847771.0
78,Birao,79.39,68.0,2.46,240210.0,CF,22.7882,10.2849,68.0,1685847773.0
79,Ekhabi,45.19,66.0,9.69,2122614.0,RU,142.9671,53.5102,86.0,1685847776.0
80,Barrow,35.62,93.0,11.5,5880054.0,US,-156.7887,71.2906,100.0,1685847739.0
81,Hilo,77.14,76.0,8.05,5855927.0,US,-155.09,19.7297,40.0,1685847780.0
82,Mehamn,44.55,76.0,13.8,778707.0,NO,27.8492,71.0357,91.0,1685847782.0
83,Shingū,76.62,44.0,8.48,1847947.0,JP,135.9833,33.7333,4.0,1685847784.0
84,George Town,82.35,83.0,6.91,1735106.0,MY,100.3354,5.4112,20.0,1685847611.0
85,Russell,71.24,76.0,1.79,4047434.0,US,-85.1999,32.3502,2.0,1685847789.0
86,Sidhi,96.55,21.0,1.54,1256369.0,IN,81.8833,24.4167,4.0,1685847791.0
87,Laramie,53.56,71.0,6.91,5830062.0,US,-105.5911,41.3114,100.0,1685847744.0
88,Bluff,49.32,54.0,16.35,2206939.0,NZ,168.3333,-46.6,69.0,1685847795.0
89,Bayir,55.92,88.0,2.06,304183.0,TR,28.2167,37.2687,57.0,1685847797.0
90,Vila Velha,64.35,94.0,2.3,3445026.0,BR,-40.2925,-20.3297,0.0,1685847726.0
91,Kapaa,78.17,76.0,9.22,5848280.0,US,-159.319,22.0752,0.0,1685847801.0
92,Margate,53.71,84.0,7.0,2643044.0,GB,1.3862,51.3813,27.0,1685847804.0
93,Kamaishi,70.0,53.0,18.14,2112444.0,JP,141.8833,39.2667,29.0,1685847806.0
94,Stăncuţa,54.21,63.0,9.82,666309.0,RO,27.8333,44.9,46.0,1685847808.0
95,Ankang,62.29,97.0,0.92,1789065.0,CN,109.0172,32.68,100.0,1685847810.0
96,Port Elizabeth,56.01,72.0,10.36,964420.0,ZA,25.5701,-33.918,0.0,1685847812.0
97,Morant Bay,82.02,86.0,6.22,3489440.0,JM,-76.4093,17.8815,7.0,1685847814.0
98,São Miguel,74.17,80.0,11.12,3388304.0,BR,-35.3667,-5.4667,6.0,1685847816.0
99,Guerrero Negro,60.46,81.0,18.95,4021858.0,MX,-114.0611,27.9769,0.0,1685847819.0
100,Husavik,48.7,74.0,0.58,2629833.0,IS,-17.3389,66.0449,62.0,1685847821.0
101,Ahipara,59.83,66.0,12.88,2194098.0,NZ,173.1667,-35.1667,90.0,1685847823.0
102,Saint Paul Harbor,45.91,81.0,11.5,5866583.0,US,-152.4072,57.79,100.0,1685847825.0
103,Mahébourg,75.49,78.0,9.22,934322.0,MU,57.7,-20.4081,40.0,1685847827.0
104,Mount Isa,82.17,34.0,11.5,2065594.0,AU,139.5,-20.7333,75.0,1685847643.0
105,Te Anau,41.36,94.0,4.79,2181625.0,NZ,167.7167,-45.4167,100.0,1685847819.0
106,Alenquer,74.37,94.0,3.31,3407980.0,BR,-54.7383,-1.9417,63.0,1685847833.0
107,São Miguel do Araguaia,75.85,48.0,2.86,3448455.0,BR,-50.1628,-13.275,25.0,1685847836.0
108,Kriel,48.81,47.0,3.49,987202.0,ZA,29.2253,-26.2739,19.0,1685847838.0
109,Marsh Harbour,81.03,67.0,3.4,3571913.0,BS,-77.0636,26.5412,42.0,1685847604.0
110,Souillac,75.58,78.0,9.22,933995.0,MU,57.5167,-20.5167,40.0,1685847842.0
111,Tigil',56.71,47.0,17.43,2120612.0,RU,158.6667,57.8,25.0,1685847844.0
112,Kaeo,59.79,68.0,11.34,2189343.0,NZ,173.7833,-35.1,90.0,1685847846.0
113,Cape Town,52.12,89.0,4.0,3369157.0,ZA,18.4232,-33.9258,75.0,1685847848.0
114,Cidreira,63.79,72.0,4.85,3466165.0,BR,-50.2056,-30.1811,0.0,1685847851.0
115,Khatanga,35.31,95.0,21.07,2022572.0,RU,102.5,71.9667,100.0,1685847853.0
116,Karlshamn,41.49,83.0,3.33,2701727.0,SE,14.8619,56.1706,95.0,1685847855.0
117,Pevek,35.01,72.0,7.38,2122090.0,RU,170.3133,69.7008,21.0,1685847857.0
118,Mar del Plata,54.03,88.0,1.01,3430863.0,AR,-57.5575,-38.0023,0.0,1685847629.0
119,Gobabis,52.7,36.0,9.15,3357247.0,NA,18.9667,-22.45,0.0,1685847862.0
120,Gaoyou,68.04,57.0,13.29,1810309.0,CN,119.4278,32.7858,99.0,1685847864.0
121,Bethel,50.56,79.0,11.5,5282297.0,US,-73.414,41.3712,75.0,1685847866.0
122,Santa Maria da Vitória,69.13,53.0,4.23,3450063.0,BR,-44.1886,-13.3947,0.0,1685847848.0
123,Banda Aceh,86.49,61.0,8.61,1215502.0,ID,95.3222,5.5577,91.0,1685847870.0
124,Georgiyevka,73.44,38.0,8.95,1524243.0,KZ,74.7114,43.0369,0.0,1685847872.0
125,Zonguldak,57.11,98.0,0.92,737021.0,TR,31.8333,41.25,100.0,1685847874.0
126,Booué,72.88,99.0,2.01,2401495.0,GA,11.9385,-0.0921,88.0,1685847876.0
127,Siyabuswa,60.35,38.0,4.81,955313.0,ZA,29.0445,-25.1132,5.0,1685847878.0
128,Dunedin,42.62,97.0,3.67,2191562.0,NZ,170.5036,-45.8742,100.0,1685847623.0
129,Roald,44.82,81.0,3.44,3141667.0,NO,6.1333,62.5833,100.0,1685847883.0
130,Tweed,46.87,76.0,6.2,6170799.0,CA,-77.3162,44.4751,89.0,1685847885.0
131,Nanortalik,33.69,91.0,11.7,3421765.0,GL,-45.2371,60.1432,63.0,1685847887.0
132,Port Blair,86.04,79.0,6.91,1259385.0,IN,92.75,11.6667,75.0,1685847889.0
133,Lubango,59.41,49.0,3.65,3347762.0,AO,13.4925,-14.9172,0.0,1685847891.0
134,Shumskiy,70.86,50.0,8.25,1491977.0,RU,99.1328,54.8318,95.0,1685847893.0
135,San Cristobal,77.18,95.0,3.13,3628473.0,VE,-72.225,7.7669,61.0,1685847895.0
136,Nioro,79.79,55.0,6.8,2412408.0,GM,-15.75,13.35,79.0,1685847898.0
137,Thompson,68.16,100.0,3.44,6165406.0,CA,-97.8558,55.7435,100.0,1685847900.0
138,Manaus,81.09,83.0,4.61,3663517.0,BR,-60.025,-3.1019,0.0,1685847902.0
139,Laguna,82.67,35.0,9.22,5364271.0,US,-121.4238,38.421,0.0,1685847904.0
140,Hermanus,48.79,77.0,11.99,3366880.0,ZA,19.2345,-34.4187,33.0,1685847889.0
141,Westport,52.84,76.0,12.66,4845585.0,US,-73.3579,41.1415,100.0,1685847909.0
142,Dicabisagan,86.9,65.0,5.53,1715015.0,PH,122.4157,17.0818,98.0,1685847911.0
143,Newport,51.8,81.0,11.83,2641598.0,GB,-2.9984,51.5877,5.0,1685847771.0
144,Tateyama,71.2,76.0,13.4,1850523.0,JP,139.8667,34.9833,34.0,1685847700.0
145,Kuznechikha,41.88,85.0,8.95,537760.0,RU,42.3348,57.2161,79.0,1685847917.0
146,Poum,74.93,68.0,9.19,2138555.0,NC,164.0167,-20.2333,8.0,1685847919.0
147,Chokurdakh,56.64,43.0,3.6,2126123.0,RU,147.9167,70.6333,92.0,1685847922.0
148,Coquimbo,55.13,94.0,5.75,3893629.0,CL,-71.3436,-29.9533,0.0,1685847924.0
149,Ust-Nera,64.44,32.0,4.38,2120048.0,RU,143.2,64.5667,100.0,1685847926.0
150,Kavaratti,84.02,75.0,12.17,1267390.0,IN,72.642,10.5669,100.0,1685847928.0
151,Eruwa,73.09,97.0,2.77,2338669.0,NG,3.4167,7.5333,97.0,1685847930.0
152,Polyarny,44.11,58.0,2.98,506763.0,RU,33.4478,69.1989,73.0,1685847932.0
153,Ribeira Grande,63.77,90.0,5.01,3372707.0,PT,-28.7,38.5167,49.0,1685847934.0
154,Kalemie,69.89,80.0,2.39,214974.0,CD,29.1947,-5.9475,91.0,1685847937.0
155,Tuktoyaktuk,57.2,47.0,9.22,6170031.0,CA,-133.0374,69.4541,75.0,1685847939.0
156,Tomatlán,73.56,82.0,3.87,3981391.0,MX,-105.25,19.9333,0.0,1685847941.0
157,Bratca,53.33,95.0,4.5,683837.0,RO,22.6167,46.9333,17.0,1685847943.0
158,Chiang Khong,90.14,53.0,2.84,1611197.0,TH,100.4046,20.2613,48.0,1685847945.0
159,Gijang,76.73,42.0,4.59,1842966.0,KR,129.2139,35.2442,78.0,1685847948.0
160,Vao,71.87,62.0,13.94,2137773.0,NC,167.4833,-22.6667,81.0,1685847950.0
161,Marawi,83.77,57.0,2.21,1701054.0,PH,124.2928,7.9986,91.0,1685847952.0
162,Kununurra,85.98,45.0,6.91,2068110.0,AU,128.7333,-15.7667,5.0,1685847954.0
163,Ponta do Sol,67.86,77.0,5.08,2264557.0,PT,-17.1,32.6667,96.0,1685847956.0
164,Vanimo,86.65,63.0,7.63,2084442.0,PG,141.3028,-2.6741,65.0,1685847959.0
165,Kenai,48.6,75.0,6.91,5866063.0,US,-151.2583,60.5544,100.0,1685847961.0
166,Tarnogskiy Gorodok,44.02,86.0,6.26,484314.0,RU,43.5761,60.4997,100.0,1685847963.0
167,Tottori-shi,73.47,60.0,6.91,1849892.0,JP,134.2333,35.5,0.0,1685847863.0
168,Baracoa,77.61,87.0,5.53,3567834.0,CU,-74.4958,20.3467,36.0,1685847796.0
169,Krasnyy Kholm,39.97,81.0,8.88,541704.0,RU,37.1203,58.0607,3.0,1685847969.0
170,Nabire,86.27,67.0,4.83,1634614.0,ID,135.4833,-3.3667,28.0,1685847972.0
171,Zaysan,76.66,22.0,3.06,1517060.0,KZ,84.8667,47.4667,6.0,1685847974.0
172,New Norfolk,48.72,47.0,1.72,2155415.0,AU,147.0587,-42.7826,0.0,1685847898.0
173,Muhos,44.06,85.0,2.75,645765.0,FI,25.9931,64.808,100.0,1685847979.0
174,Sabzawār,77.63,37.0,6.22,118063.0,IR,57.6819,36.2126,63.0,1685847981.0
175,Catuday,83.73,70.0,6.29,1717787.0,PH,119.8062,16.2923,100.0,1685847983.0
176,Enshi,71.55,92.0,0.13,1811720.0,CN,109.4833,30.3,99.0,1685847986.0
177,Timiryazevskiy,79.75,38.0,2.62,1489597.0,RU,84.8769,56.49,56.0,1685847988.0
178,Aklavik,66.83,29.0,11.25,5882953.0,CA,-135.0107,68.2191,100.0,1685847990.0
179,Pochutla,84.81,79.0,5.14,3517970.0,MX,-96.4661,15.7432,83.0,1685847992.0
180,Bathsheba,83.01,83.0,10.36,3374083.0,BB,-59.5167,13.2167,75.0,1685847994.0
181,Salalah,84.29,84.0,5.75,286621.0,OM,54.0924,17.0151,75.0,1685847996.0
182,Airai,72.99,56.0,3.0,1651810.0,TL,125.4092,-8.9266,44.0,1685847998.0
183,Fuyang,62.01,87.0,9.93,1810845.0,CN,115.8167,32.9,100.0,1685848001.0
184,Makakilo City,77.79,60.0,10.36,5850554.0,US,-158.0858,21.3469,0.0,1685848003.0
185,Impfondo,72.27,93.0,3.02,2259655.0,CG,18.0667,1.6381,51.0,1685848005.0
186,Anloga,80.4,80.0,9.93,2304548.0,GH,0.8973,5.7947,100.0,1685848007.0
187,Chui,63.1,95.0,2.98,3443061.0,UY,-53.4616,-33.6971,98.0,1685848009.0
188,Nishihara,80.55,71.0,8.05,1855342.0,JP,127.7558,26.1842,20.0,1685848011.0
189,Bariloche,37.24,78.0,16.55,7647007.0,AR,-71.3082,-41.1456,41.0,1685848009.0
190,Kristianstad,46.54,87.0,5.75,2699310.0,SE,14.1524,56.0313,63.0,1685848015.0
191,Cabo San Lucas,76.96,49.0,8.05,3985710.0,MX,-109.9124,22.8909,0.0,1685848018.0
192,Hunchun,72.19,34.0,12.86,2036653.0,CN,130.3581,42.8675,99.0,1685848020.0
193,Aykhal,37.42,89.0,23.29,2027296.0,RU,111.5,66.0,100.0,1685848022.0
194,Nchelenge,66.24,64.0,5.08,175499.0,ZM,28.734,-9.3451,64.0,1685847943.0
195,Hobyo,81.63,81.0,19.57,57000.0,SO,48.5268,5.3505,64.0,1685848026.0
196,Pechenga,47.68,44.0,4.07,511865.0,RU,31.1703,69.5259,95.0,1685848028.0
197,Hambantota,82.74,89.0,10.36,1244926.0,LK,81.1185,6.1241,75.0,1685848031.0
198,Lompoc,56.01,83.0,11.01,5367788.0,US,-120.4579,34.6391,100.0,1685848033.0
199,Hasaki,79.2,68.0,17.72,2112802.0,JP,140.8333,35.7333,90.0,1685848035.0
200,Departamento de Maldonado,61.57,97.0,4.92,3441890.0,UY,-54.9167,-34.6667,61.0,1685847748.0
201,Naze,74.26,64.0,3.18,1855540.0,JP,129.4833,28.3667,11.0,1685848039.0
202,Nikolskoye,45.82,68.0,7.56,546105.0,RU,30.7861,59.7035,96.0,1685848041.0
203,Dul'durga,68.09,34.0,8.93,2024812.0,RU,113.5931,50.6761,2.0,1685848044.0
204,Leh,43.27,58.0,0.49,1264976.0,IN,77.5833,34.1667,96.0,1685847931.0
205,Lata,58.91,95.0,1.86,2738381.0,PT,-8.3327,40.1629,0.0,1685848048.0
206,Tiksi,41.88,75.0,6.2,2015306.0,RU,128.8694,71.6872,98.0,1685847871.0
207,Qaanaaq,21.92,84.0,9.26,3831208.0,GL,-69.3632,77.484,14.0,1685848052.0
208,Ilulissat,28.42,93.0,25.32,3423146.0,GL,-51.1,69.2167,100.0,1685848054.0
209,Saint-Augustin,35.92,76.0,9.91,6137462.0,CA,-58.6502,51.226,11.0,1685848056.0
210,Saskylakh,42.75,92.0,17.07,2017155.0,RU,114.0833,71.9167,100.0,1685848058.0
211,Tessalit,85.41,18.0,8.32,2449893.0,ML,1.0114,20.1986,0.0,1685848061.0
212,Rayong,90.43,68.0,9.82,1607016.0,TH,101.4333,12.8333,65.0,1685848063.0
213,Sur,91.24,47.0,14.34,286245.0,OM,59.5289,22.5667,0.0,1685848065.0
214,Bereket,84.07,35.0,3.83,161974.0,TM,55.5154,39.2446,0.0,1685848067.0
215,Staraya Kulatka,64.4,68.0,7.45,489164.0,RU,47.6167,52.7167,15.0,1685848069.0
216,Roswell,70.16,69.0,0.0,4219934.0,US,-84.3616,34.0232,0.0,1685847961.0
217,Santa Luzia,59.9,81.0,3.85,3450144.0,BR,-43.8514,-19.7697,0.0,1685848073.0
218,São Filipe,74.39,79.0,4.34,3374210.0,CV,-24.4956,14.8961,68.0,1685848076.0
219,San Luis,57.78,79.0,3.8,3837056.0,AR,-66.3356,-33.295,44.0,1685847854.0
220,Fairbanks,60.33,38.0,16.11,5861897.0,US,-147.7164,64.8378,75.0,1685848080.0
221,Sibolga,83.77,69.0,1.83,1213855.0,ID,98.7792,1.7427,100.0,1685847891.0
222,Pahrump,86.05,15.0,1.99,5509851.0,US,-115.9839,36.2083,10.0,1685848084.0
223,Narsaq,39.42,90.0,3.29,3421719.0,GL,-46.05,60.9167,95.0,1685847795.0
224,Hamilton,69.67,83.0,0.0,4513583.0,US,-84.5333,39.1834,0.0,1685847893.0
225,Fortuna,55.15,89.0,11.5,5563839.0,US,-124.1573,40.5982,100.0,1685848018.0
226,Ayan,44.47,81.0,8.59,2027316.0,RU,138.1667,56.45,51.0,1685848093.0
227,El Dorado,70.16,54.0,1.01,5345659.0,US,-120.5177,38.7666,6.0,1685848095.0
228,Leonidovo,42.87,91.0,3.6,2123805.0,RU,142.8667,49.2833,100.0,1685848097.0
229,Chicama,72.14,82.0,7.4,3698359.0,PE,-79.1469,-7.8447,31.0,1685848099.0
230,Umluj,85.98,59.0,2.73,100926.0,SA,37.2685,25.0213,44.0,1685848101.0
231,Acapulco de Juárez,84.02,74.0,6.91,3533462.0,MX,-99.8901,16.8634,20.0,1685847930.0
232,Santa Maria,58.3,94.0,1.14,3450083.0,BR,-53.8069,-29.6842,0.0,1685847813.0
233,Ubinskoye,82.74,47.0,1.07,1488708.0,RU,79.6802,55.3068,5.0,1685848108.0
234,Flinders,66.16,75.0,4.0,6255012.0,AU,150.8552,-34.5833,100.0,1685848110.0
235,Broome,58.87,70.0,6.91,5110365.0,US,-75.833,42.2506,20.0,1685848112.0
236,Mossamedes,66.09,70.0,9.89,3347019.0,AO,12.1522,-15.1961,0.0,1685848114.0
237,Orange Cove,84.15,39.0,5.75,5379533.0,US,-119.3137,36.6244,0.0,1685848116.0
238,Barra Patuca,82.83,83.0,2.53,3614835.0,HN,-84.2833,15.8,0.0,1685848119.0
239,Arlit,84.76,10.0,5.41,2447513.0,NE,7.3853,18.7369,23.0,1685848121.0
240,Chilia Veche,52.86,62.0,10.71,682117.0,RO,29.2833,45.4167,9.0,1685848123.0
241,Conde,74.66,94.0,3.44,3385077.0,BR,-34.9075,-7.2597,20.0,1685848125.0
242,Bulungu,70.97,87.0,1.12,2316259.0,CD,18.6,-4.55,55.0,1685848127.0
243,Baker City,69.51,46.0,11.5,5712169.0,US,-117.8344,44.7749,0.0,1685848089.0
244,Rājākhera,94.91,23.0,5.03,1258930.0,IN,78.1714,26.8961,33.0,1685848067.0
245,Portland,70.27,52.0,9.22,5746545.0,US,-122.6762,45.5234,20.0,1685847948.0
246,Birkeland,45.43,81.0,5.75,3161532.0,NO,8.2323,58.3309,9.0,1685848135.0
247,Dvinskoy Bereznik,43.12,93.0,6.02,577240.0,RU,42.7072,62.8551,100.0,1685848138.0
248,Jalingo,74.19,86.0,2.44,2336589.0,NG,11.3667,8.8833,100.0,1685848140.0
249,Yar-Sale,55.6,64.0,11.12,1486321.0,RU,70.8333,66.8333,100.0,1685848142.0
250,Tafresh,70.41,33.0,0.98,113636.0,IR,50.013,34.692,43.0,1685848144.0
251,Homer,53.46,64.0,8.05,5864145.0,US,-151.5483,59.6425,75.0,1685848146.0
252,Mandalgovi,63.54,31.0,10.16,2030065.0,MN,106.2708,45.7625,3.0,1685848148.0
253,Kibala,74.88,81.0,3.83,2425791.0,TD,18.3463,9.1104,99.0,1685848151.0
254,Ulladulla,60.76,65.0,6.78,2145554.0,AU,150.4667,-35.35,100.0,1685848153.0
255,Sitka,55.29,71.0,6.91,5557293.0,US,-135.33,57.0531,40.0,1685848155.0
256,Leningradskiy,29.88,81.0,8.32,2123814.0,RU,178.4167,69.3833,13.0,1685848157.0
257,Takāb,64.47,40.0,1.07,113508.0,IR,47.1133,36.4009,29.0,1685848159.0
258,Tarancón,58.78,70.0,3.47,3108317.0,ES,-3.0073,40.0085,35.0,1685848161.0
259,Goderich,62.91,77.0,10.16,5962442.0,CA,-81.7165,43.7501,3.0,1685848163.0
260,Rosa Zarate,76.39,94.0,3.42,3652257.0,EC,-79.4667,0.3333,98.0,1685848166.0
261,Luganville,79.54,85.0,13.58,2136150.0,VU,167.1667,-15.5333,98.0,1685848168.0
262,Druzhba,42.17,81.0,5.1,709584.0,UA,33.9453,52.0428,0.0,1685848170.0
263,Valea lui Mihai,51.51,90.0,1.92,663692.0,RO,22.15,47.5167,3.0,1685848172.0
264,Ancud,47.3,75.0,3.31,3899695.0,CL,-73.8203,-41.8697,32.0,1685848174.0
265,Matagami,55.74,42.0,4.72,6067747.0,CA,-77.6328,49.7502,7.0,1685847879.0
266,Peniche,62.04,89.0,7.27,2264923.0,PT,-9.3811,39.3558,1.0,1685848178.0
267,Miraflores,75.85,56.0,3.47,3761194.0,MX,-98.8083,19.2167,32.0,1685848181.0
268,Lebu,49.95,79.0,3.85,3883457.0,CL,-73.65,-37.6167,99.0,1685848183.0
269,Crawley,48.88,78.0,5.75,2652053.0,GB,-0.1831,51.113,0.0,1685848185.0
270,Khonsa,84.56,43.0,4.07,1266668.0,IN,95.5667,27.0167,0.0,1685848187.0
271,Yumen,67.37,36.0,17.02,1528998.0,CN,97.2,40.2833,100.0,1685848189.0
272,Bubaque,80.37,74.0,12.91,2374583.0,GW,-15.8333,11.2833,97.0,1685848191.0
273,Ribas do Rio Pardo,61.63,76.0,2.33,3451399.0,BR,-53.7592,-20.4431,0.0,1685848194.0
274,Malbork,41.85,81.0,6.62,3092472.0,PL,19.0266,54.0359,37.0,1685848196.0
275,Saint-Leu,66.83,78.0,1.32,6690297.0,RE,55.2833,-21.15,1.0,1685848198.0
276,Arkhara,65.77,44.0,11.48,2027487.0,RU,130.0842,49.4212,10.0,1685848200.0
277,Tura,89.62,47.0,5.77,1254046.0,IN,90.2201,25.5198,0.0,1685848202.0
278,Ingham,67.42,70.0,4.9,4997130.0,US,-84.3833,42.6,67.0,1685848204.0
279,Sarandi,56.89,88.0,4.63,3447998.0,BR,-51.8739,-23.4436,4.0,1685848206.0
280,Biak,83.32,72.0,6.15,1637001.0,ID,122.8766,-0.9131,41.0,1685848209.0
281,Nieuw Amsterdam,80.02,89.0,5.91,3383434.0,SR,-55.0833,5.8833,100.0,1685848211.0
282,Boundiali,72.72,93.0,4.97,2290836.0,CI,-6.4869,9.5217,100.0,1685848213.0
283,Aitape,84.79,74.0,7.11,2101169.0,PG,142.3475,-3.1374,95.0,1685848215.0
284,Manadhoo,83.62,76.0,13.78,1337618.0,MV,73.3833,5.7667,100.0,1685848217.0
285,Ca Mau,90.84,52.0,14.5,1586443.0,VN,105.15,9.1769,100.0,1685848219.0
286,San Patricio,78.96,75.0,10.25,4726521.0,US,-97.5169,28.017,10.0,1685848221.0
287,Portree,43.52,94.0,7.34,2640006.0,GB,-6.1942,57.4129,85.0,1685848224.0
288,Srednekolymsk,61.34,40.0,6.35,2121025.0,RU,153.6833,67.45,99.0,1685848226.0
289,Zhangaözen,80.35,32.0,11.27,607610.0,KZ,52.8,43.3,13.0,1685848228.0
290,Mayo,61.79,80.0,15.01,4362001.0,US,-76.5119,38.8876,100.0,1685848135.0
291,Hualmay,69.44,80.0,10.49,3939761.0,PE,-77.6139,-11.0964,8.0,1685848232.0
292,Púchov,46.26,87.0,2.62,3057963.0,SK,18.326,49.1249,23.0,1685848234.0
293,Hong Kong,87.04,80.0,11.01,1819729.0,HK,114.1577,22.2855,24.0,1685847960.0
294,Dzilam González,77.59,80.0,4.99,3529654.0,MX,-88.9333,21.2833,1.0,1685848238.0
295,Sistranda,44.56,79.0,10.49,3139597.0,NO,8.834,63.7256,100.0,1685848241.0
296,Ondjiva,58.28,40.0,6.51,3346821.0,AO,15.7333,-17.0667,0.0,1685848243.0
297,Taguatinga,79.74,39.0,5.77,6319623.0,BR,-46.5711,-12.3857,98.0,1685848245.0
298,Evensk,59.88,50.0,11.65,2125693.0,RU,159.2333,61.95,86.0,1685848247.0
299,Katsuura,72.54,69.0,15.03,2112309.0,JP,140.3,35.1333,52.0,1685848249.0
300,Ambovombe,66.2,74.0,6.85,1079048.0,MG,46.0833,-25.1667,4.0,1685848251.0
301,Pisco,66.25,82.0,3.44,3932145.0,PE,-76.2167,-13.7,10.0,1685848253.0
302,Lala,91.42,53.0,4.03,1707944.0,PH,123.7458,7.9745,99.0,1685848256.0
303,East London,59.68,68.0,10.04,1006984.0,ZA,27.9116,-33.0153,46.0,1685848258.0
304,Nyurba,63.93,43.0,10.13,2018735.0,RU,118.3319,63.2842,96.0,1685848260.0
305,Baykit,65.07,38.0,10.87,1510689.0,RU,96.37,61.67,22.0,1685848262.0
306,Muyezerskiy,38.48,76.0,2.01,524100.0,RU,31.65,63.9333,78.0,1685848264.0
307,Umarkot,87.78,62.0,19.26,1162959.0,PK,69.7362,25.3616,1.0,1685848266.0
308,Paamiut,34.29,83.0,1.14,3421193.0,GL,-49.6678,61.994,99.0,1685848268.0
309,Gberia Fotombu,71.94,99.0,4.09,2409019.0,SL,-11.1667,9.8833,100.0,1685848271.0
310,Auki,83.39,76.0,2.15,2109701.0,SB,160.7034,-8.7676,100.0,1685848273.0
311,Timmins,56.48,61.0,5.46,6166739.0,CA,-81.3331,48.4669,3.0,1685848263.0
312,Pachino,66.85,74.0,2.89,6539213.0,IT,15.0907,36.7186,54.0,1685848277.0
313,Arrondissement d'Arcachon,62.65,100.0,8.05,6621469.0,FR,-1.0519,44.5875,0.0,1685848279.0
314,Avera,68.18,56.0,6.13,4231997.0,US,-82.5271,33.194,59.0,1685848281.0
315,Bonthe,78.58,86.0,1.16,2409914.0,SL,-12.505,7.5264,100.0,1685848284.0
316,Songjianghe,69.73,31.0,11.61,2034691.0,CN,127.479,42.1859,16.0,1685848286.0
317,Salisbury,50.2,81.0,11.5,2638664.0,GB,-1.7957,51.0693,1.0,1685848288.0
318,Xi'an,57.97,95.0,4.36,1790630.0,CN,108.9286,34.2583,100.0,1685848290.0
319,Touros,76.05,81.0,11.18,3386213.0,BR,-35.4608,-5.1989,2.0,1685848292.0
320,Boda,69.85,98.0,3.31,2388614.0,CF,17.4695,4.3189,96.0,1685848294.0
321,Mayumba,72.55,93.0,5.99,2399001.0,GA,10.6554,-3.432,50.0,1685848297.0
322,Chul'man,65.93,36.0,8.68,2025261.0,RU,124.9104,56.8479,94.0,1685848299.0
323,Tambacounda,87.78,30.0,9.33,2244991.0,SN,-13.7586,13.7539,90.0,1685848301.0
324,Bushehr,78.89,78.0,4.61,139817.0,IR,50.8385,28.9684,76.0,1685848205.0
325,Port Hardy,53.38,70.0,10.89,6111862.0,CA,-127.4199,50.6996,97.0,1685848136.0
326,Shashi,77.52,51.0,9.06,1795816.0,CN,112.2447,30.3072,83.0,1685848307.0
327,Grand-Lahou,77.65,88.0,6.64,2288105.0,CI,-5.0242,5.1367,100.0,1685848309.0
328,State College,65.55,80.0,11.5,5213681.0,US,-77.86,40.7934,75.0,1685848118.0
329,Teguise,66.42,83.0,6.91,2510573.0,ES,-13.564,29.0605,0.0,1685848313.0
330,Magdagachi,74.66,23.0,8.57,2020591.0,RU,125.8,53.45,28.0,1685848316.0
331,Gaozhou,90.82,56.0,6.4,1810295.0,CN,110.8461,21.9392,7.0,1685848318.0
332,Meulaboh,83.48,68.0,0.98,1214488.0,ID,96.1285,4.1363,100.0,1685848320.0
333,Río Gallegos,30.25,93.0,12.66,3838859.0,AR,-69.2181,-51.6226,100.0,1685848284.0
334,Chaihe,67.08,38.0,16.4,2038198.0,CN,129.7,44.7667,84.0,1685848324.0
335,Nikel,44.78,44.0,3.44,522260.0,RU,30.222,69.4128,87.0,1685848326.0
336,Beringovskiy,49.32,63.0,7.81,2126710.0,RU,179.3167,63.05,95.0,1685848328.0
337,Coyhaique,35.55,93.0,2.3,3894426.0,CL,-72.0662,-45.5752,75.0,1685848331.0
338,Vardø,44.58,81.0,6.91,777019.0,NO,31.1107,70.3705,100.0,1685848333.0
339,Talnakh,49.46,67.0,2.59,1490256.0,RU,88.3972,69.4865,100.0,1685848335.0
340,Faya,61.32,69.0,9.53,110690.0,SA,42.4509,18.3851,51.0,1685848337.0
341,Znamenskoye,81.01,37.0,9.35,1485020.0,RU,73.8282,57.1281,1.0,1685848339.0
342,Manavgat,66.56,85.0,5.86,304854.0,TR,31.4431,36.7867,44.0,1685848341.0
343,Cairns,80.55,65.0,17.27,2172797.0,AU,145.7667,-16.9167,75.0,1685848318.0
344,Klaksvík,47.32,85.0,5.06,2618795.0,FO,-6.589,62.2266,55.0,1685848346.0
345,Fonte Boa,73.06,98.0,2.17,6319315.0,BR,-66.2662,-2.4959,15.0,1685848348.0
346,Piaçabuçu,74.37,91.0,8.46,3454005.0,BR,-36.4344,-10.4056,6.0,1685848350.0
347,Havøysund,43.03,85.0,20.83,779622.0,NO,24.6622,70.9963,96.0,1685848352.0
348,Boden,42.8,90.0,3.15,606531.0,SE,21.6886,65.8252,100.0,1685848354.0
349,Nhulunbuy,84.81,70.0,16.11,2064735.0,AU,136.7667,-12.2333,100.0,1685848356.0
350,Kamenka,45.23,89.0,13.69,553766.0,RU,42.7678,51.3223,95.0,1685848358.0
351,Kazachinskoye,73.58,36.0,4.05,1504075.0,RU,93.2761,57.6953,26.0,1685848361.0
352,Geraldton,66.61,42.0,17.27,2070998.0,AU,114.6,-28.7667,33.0,1685848363.0
353,Maxixe,71.73,87.0,11.83,1039536.0,MZ,35.3472,-23.8597,98.0,1685848365.0
354,Leon Valley,80.76,66.0,5.75,4705923.0,US,-98.6186,29.4952,20.0,1685848367.0
355,Nome,35.67,75.0,14.97,5870133.0,US,-165.4064,64.5011,0.0,1685848369.0
356,Manokwari,83.34,74.0,7.96,1636308.0,ID,134.0833,-0.8667,100.0,1685848371.0
357,Grand-Santi,73.0,99.0,1.99,3381538.0,GF,-54.3833,4.25,100.0,1685848373.0
358,Faanui,79.72,64.0,9.8,4034551.0,PF,-151.75,-16.4833,96.0,1685848375.0
359,Clyde River,19.63,100.0,5.75,5924351.0,CA,-68.5914,70.4692,100.0,1685848377.0
360,Kosa,60.22,86.0,6.29,544318.0,RU,54.9977,59.9445,69.0,1685848380.0
361,Blackwater,75.9,45.0,15.95,2175403.0,AU,148.8833,-23.5833,66.0,1685848382.0
362,Assiniboia,67.82,83.0,3.44,5887798.0,CA,-105.9845,49.6334,100.0,1685848384.0
363,Bambous Virieux,71.85,88.0,16.11,1106677.0,MU,57.7575,-20.3428,75.0,1685848386.0
364,Arona,62.26,76.0,4.61,2521582.0,ES,-16.681,28.0996,40.0,1685848388.0
365,Belyy Yar,75.09,43.0,4.47,1510377.0,RU,91.3903,53.6039,0.0,1685848390.0
366,San Miguel,76.93,95.0,1.81,3583446.0,SV,-88.1833,13.4833,19.0,1685848392.0
367,Maniitsoq,33.91,98.0,9.4,3421982.0,GL,-52.9,65.4167,100.0,1685848395.0
368,Freeport,55.18,71.0,14.97,5117949.0,US,-73.5832,40.6576,100.0,1685848397.0
369,Constitución,54.95,88.0,7.67,3893726.0,CL,-72.4167,-35.3333,100.0,1685848399.0
370,Tarakan,89.1,66.0,6.91,1624725.0,ID,117.6333,3.3,40.0,1685848401.0
371,Nirmal,96.08,30.0,9.57,1261288.0,IN,78.35,19.1,27.0,1685848403.0
372,Zmeinogorsk,75.69,50.0,1.86,1485042.0,RU,82.195,51.1567,79.0,1685848405.0
373,Valparaíso,61.0,66.0,5.75,3868626.0,CL,-71.6273,-33.0393,40.0,1685848172.0
374,Caravelas,71.19,68.0,6.6,3466980.0,BR,-39.2481,-17.7125,0.0,1685848409.0
375,Torbay,40.37,97.0,15.01,6167817.0,CA,-52.7314,47.6666,100.0,1685848412.0
376,Le Port,68.92,78.0,12.46,935616.0,RE,55.2919,-20.9373,3.0,1685848414.0
377,Kumul,81.79,15.0,10.54,1529484.0,CN,93.45,42.8,6.0,1685848416.0
378,Inverell,70.11,53.0,8.99,2162662.0,AU,151.1167,-29.7833,97.0,1685848418.0
379,Tortolì,64.22,94.0,9.22,2522890.0,IT,9.6572,39.9256,40.0,1685848420.0
380,Beipiao,82.56,14.0,11.1,2038342.0,CN,120.7792,41.7919,1.0,1685848422.0
381,Novo Aripuanã,75.76,91.0,0.74,3663142.0,BR,-60.3797,-5.1206,45.0,1685848293.0
382,Akdepe,78.89,16.0,9.17,601551.0,TM,59.3788,42.0551,2.0,1685848427.0
383,Pangnirtung,33.12,98.0,3.98,6096551.0,CA,-65.7125,66.1451,100.0,1685848277.0
384,Komatipoort,62.06,38.0,3.06,988290.0,ZA,31.9548,-25.4332,0.0,1685848431.0
385,Kailua,78.15,69.0,9.22,5847486.0,US,-157.7394,21.4022,20.0,1685848433.0
386,Massakory,83.93,54.0,7.05,2428228.0,TD,15.7293,12.996,100.0,1685848435.0
387,Byron Bay,63.72,78.0,8.75,2172880.0,AU,153.6167,-28.65,95.0,1685848364.0
388,Dawson Creek,60.44,88.0,9.22,5935804.0,CA,-120.2362,55.7666,20.0,1685848439.0
389,Port-Gentil,76.78,85.0,10.8,2396518.0,GA,8.7815,-0.7193,100.0,1685848441.0
390,Augusto Corrêa,74.98,95.0,4.07,3406961.0,BR,-46.635,-1.0217,100.0,1685848443.0
391,Araouane,85.66,19.0,11.01,2460954.0,ML,-3.5265,18.9048,0.0,1685848446.0
392,Coahuayana Viejo,74.35,88.0,1.99,4013679.0,MX,-103.6833,18.7333,3.0,1685848448.0
393,Mount Gambier,65.71,58.0,9.04,2156643.0,AU,140.7667,-37.8333,46.0,1685848450.0
394,Swan River,71.49,83.0,6.91,6160362.0,CA,-101.2676,52.1058,94.0,1685848452.0
395,Bima,86.36,57.0,5.12,1648759.0,ID,118.7167,-8.4667,26.0,1685848454.0
396,Cherskiy,51.01,42.0,8.95,2126199.0,RU,161.3,68.75,100.0,1685848456.0
397,Adrar,75.85,29.0,10.11,2381972.0,MR,-10.0711,20.5022,0.0,1685848459.0
398,Egvekinot,33.46,64.0,5.97,4031742.0,RU,-179.1667,66.3167,100.0,1685848461.0
399,Comodoro Rivadavia,48.06,46.0,27.63,3860443.0,AR,-67.5,-45.8667,0.0,1685848406.0
400,Volchikha,82.81,32.0,12.66,1486983.0,RU,80.3833,52.0333,9.0,1685848465.0
401,Paita,74.86,78.0,14.9,3694112.0,PE,-81.1144,-5.0892,11.0,1685848467.0
402,Calama,45.09,21.0,16.11,3897347.0,CL,-68.9333,-22.4667,6.0,1685848469.0
403,Abalak,80.01,47.0,7.18,1512223.0,RU,68.5944,58.1286,66.0,1685848471.0
404,Atar,80.64,26.0,7.67,2381334.0,MR,-13.0499,20.5169,0.0,1685848474.0
405,Venado Tuerto,64.76,95.0,4.34,3833062.0,AR,-61.9688,-33.7456,100.0,1685848476.0
406,Ostrovnoy,37.72,86.0,16.17,556268.0,RU,39.5131,68.0531,100.0,1685848478.0
407,Praia,72.14,73.0,5.75,3374333.0,CV,-23.5087,14.9215,40.0,1685848480.0
408,Campoverde,76.69,84.0,2.13,3733380.0,PE,-74.8058,-8.4753,11.0,1685848482.0
409,Peebles,43.59,88.0,1.72,2640526.0,GB,-3.1888,55.6519,58.0,1685848484.0
410,Ngunguru,59.31,70.0,11.36,2186111.0,NZ,174.5,-35.6167,83.0,1685848486.0
411,Haines Junction,58.95,33.0,14.97,5969025.0,CA,-137.5108,60.7522,100.0,1685848488.0
412,Chernyshevsk,74.91,18.0,6.38,2025458.0,RU,117.0174,52.5243,8.0,1685848491.0
413,Makiyivka,50.68,70.0,13.89,702320.0,UA,37.9258,48.0478,22.0,1685848493.0
414,Petropavlovsk-Kamchatskiy,43.39,76.0,11.18,2122104.0,RU,158.6483,53.0452,75.0,1685848495.0
415,Los Llanos de Aridane,66.13,84.0,2.3,2514651.0,ES,-17.9182,28.6585,20.0,1685848497.0
416,Nuevo Progreso,77.9,65.0,6.33,3522526.0,MX,-97.95,23.1667,85.0,1685848499.0
417,Norsup,80.26,79.0,16.11,2135517.0,VU,167.3833,-16.0667,100.0,1685848501.0
418,Yulara,70.0,33.0,2.1,6355222.0,AU,130.9889,-25.2406,0.0,1685848503.0
419,Hohhot,71.89,23.0,4.47,2036892.0,CN,111.6522,40.8106,0.0,1685848506.0
420,Bowen,76.96,64.0,15.88,2174444.0,AU,148.2333,-20.0167,89.0,1685848508.0
421,Smoky Lake,66.76,72.0,6.91,6150293.0,CA,-112.4686,54.1169,100.0,1685848510.0
422,Angoram,89.74,57.0,3.44,2100765.0,PG,144.0661,-4.0625,84.0,1685848512.0
423,Itarema,78.19,83.0,11.65,3393692.0,BR,-39.9167,-2.9248,67.0,1685848515.0
424,La Asuncion,82.13,83.0,11.5,3480908.0,VE,-63.8628,11.0333,93.0,1685848517.0
425,Berlevåg,44.4,76.0,5.75,780687.0,NO,29.0864,70.8578,100.0,1685848519.0
426,Ambilobe,67.42,74.0,6.06,1082243.0,MG,49.05,-13.2,0.0,1685848521.0
427,Teya,68.31,37.0,5.53,1489656.0,RU,92.6267,60.3778,62.0,1685848523.0
428,Máncora,80.35,66.0,12.19,3695000.0,PE,-81.0475,-4.1078,18.0,1685848525.0
429,Crotone,66.2,77.0,3.22,2524881.0,IT,17.1178,39.0851,22.0,1685848528.0
430,Sechura,75.25,74.0,15.32,3691954.0,PE,-80.8222,-5.5569,12.0,1685848530.0
431,Tarko-Sale,59.94,73.0,13.18,1490085.0,RU,77.785,64.9225,100.0,1685848532.0
432,Yerofey Pavlovich,72.54,24.0,7.09,2012938.0,RU,121.9667,53.9667,57.0,1685848534.0
433,Doha,90.63,42.0,16.11,290030.0,QA,51.5333,25.2867,1.0,1685848536.0
434,Palmer,48.24,69.0,4.61,4946620.0,US,-72.3287,42.1584,100.0,1685848538.0
435,Darhan,64.0,59.0,6.76,2031964.0,MN,105.9228,49.4867,48.0,1685848540.0
436,Rantauprapat,83.37,74.0,3.78,1214073.0,ID,99.8333,2.1,100.0,1685848543.0
437,Arroyo de la Encomienda,57.33,88.0,2.3,3129371.0,ES,-4.7969,41.6096,0.0,1685848545.0
438,Keetmanshoop,44.74,88.0,0.67,3356264.0,NA,18.1333,-26.5833,35.0,1685848547.0
439,Staryy Nadym,56.1,91.0,15.23,1490918.0,RU,72.6842,65.6118,100.0,1685848549.0
440,Beloha,65.01,65.0,5.61,1067565.0,MG,45.05,-25.1667,0.0,1685848551.0
441,Kelvington,68.83,84.0,7.38,5990669.0,CA,-103.5343,52.1667,95.0,1685848553.0
442,Munger,99.32,15.0,3.2,1262482.0,IN,86.4667,25.3833,0.0,1685848556.0
443,Grindavik,46.87,93.0,12.66,3416888.0,IS,-22.4338,63.8424,0.0,1685848558.0
444,Kangaatsiaq,30.78,78.0,16.06,3422683.0,GL,-53.4641,68.3065,58.0,1685848560.0
445,Omsukchan,56.39,60.0,2.42,2122493.0,RU,155.8,62.5333,100.0,1685848562.0
446,Quzhou,83.88,72.0,3.65,1797264.0,CN,118.8686,28.9594,57.0,1685848564.0
447,Neijiang,65.12,94.0,5.19,1799491.0,CN,105.0622,29.5835,100.0,1685848566.0
448,Bonavista,38.1,98.0,15.1,5905393.0,CA,-53.1147,48.6499,100.0,1685848569.0
449,Pauini,72.45,98.0,1.68,3662927.0,BR,-66.9764,-7.7136,69.0,1685848571.0
450,Poso,88.21,61.0,3.18,1630723.0,ID,120.7524,-1.3959,22.0,1685848573.0
451,Hervey Bay,72.64,66.0,14.32,2146219.0,AU,152.8535,-25.2986,6.0,1685848575.0
452,Gambēla,74.17,78.0,5.21,337405.0,ET,34.5833,8.25,97.0,1685848577.0
453,Hede,70.11,50.0,4.18,1808744.0,CN,120.2517,33.7681,100.0,1685848579.0
454,Alice Springs,62.15,82.0,11.5,2077895.0,AU,133.8833,-23.7,100.0,1685848582.0
455,Tazmalt,62.08,92.0,4.32,2477537.0,DZ,4.3989,36.3868,100.0,1685848584.0
456,Mangaratiba,61.66,79.0,3.91,3457991.0,BR,-44.0406,-22.9597,0.0,1685848586.0
457,Porto-Novo,78.62,86.0,4.03,2392087.0,BJ,2.6036,6.4965,100.0,1685848588.0
458,Sabha,84.0,28.0,21.5,2212775.0,LY,14.4283,27.0377,2.0,1685848590.0
459,Salinópolis,78.42,88.0,11.7,3389822.0,BR,-47.3561,-0.6136,100.0,1685848592.0
460,Riyadh,80.74,19.0,6.51,108410.0,SA,46.7219,24.6877,0.0,1685848588.0
461,Jönköping,42.51,87.0,2.3,2702979.0,SE,14.1562,57.7814,74.0,1685848597.0
462,Yatou,82.81,32.0,10.27,1786855.0,CN,122.3833,37.15,82.0,1685848599.0
463,Jaru,74.3,88.0,2.53,3925040.0,BR,-62.4664,-10.4389,92.0,1685848601.0
464,Yashan,89.47,62.0,8.08,1786867.0,CN,109.9419,22.1975,26.0,1685848603.0
465,Bamiantong,64.22,45.0,15.55,2038482.0,CN,130.5333,44.9333,71.0,1685848605.0
466,Boa Vista,76.98,94.0,2.3,3664980.0,BR,-60.6733,2.8197,75.0,1685848607.0
467,Barra do Bugres,75.52,62.0,2.8,3470718.0,BR,-57.1811,-15.0725,28.0,1685848610.0
468,Butembo,57.51,94.0,3.36,217562.0,CD,29.2833,0.15,85.0,1685848612.0
469,Talaya,61.66,47.0,9.78,2120769.0,RU,152.75,61.3833,98.0,1685848614.0
470,Vengurla,86.88,69.0,9.53,1253257.0,IN,73.6333,15.8667,51.0,1685848616.0
471,Maracaçumé,73.15,98.0,2.73,3395497.0,BR,-45.9592,-2.0428,98.0,1685848618.0
472,Nouadhibou,66.56,88.0,14.43,2377457.0,MR,-17.0347,20.931,0.0,1685848621.0
473,La Celia,63.99,99.0,3.8,3679542.0,CO,-76.0167,5.0433,100.0,1685848623.0
474,Lüderitz,53.28,87.0,2.39,3355672.0,NA,15.1594,-26.6481,23.0,1685848625.0
475,Carutapera,75.81,95.0,6.55,3402648.0,BR,-46.02,-1.195,100.0,1685848627.0
476,Yauya,45.07,83.0,2.08,3690733.0,PE,-77.3,-8.9833,19.0,1685848629.0
477,Port Said,70.5,77.0,6.17,358619.0,EG,32.2841,31.2565,12.0,1685848632.0
478,Sambava,71.17,82.0,8.1,1056899.0,MG,50.1667,-14.2667,100.0,1685848634.0
479,Kafanchan,70.3,89.0,0.87,2335713.0,NG,8.3,9.5833,98.0,1685848636.0
480,Neftçala,74.66,73.0,11.59,147425.0,AZ,49.2472,39.3742,76.0,1685848638.0
481,Yhú,59.61,94.0,5.48,3436595.0,PY,-55.9167,-25.05,64.0,1685848640.0
482,Necochea,52.81,75.0,12.08,3430443.0,AR,-58.7368,-38.5473,67.0,1685848642.0
483,Muros,60.93,94.0,2.37,3115824.0,ES,-9.0603,42.7762,97.0,1685848644.0
484,Linxia Chengguanzhen,52.18,70.0,2.01,1803331.0,CN,103.2064,35.6003,100.0,1685848647.0
485,Tripoli,70.86,70.0,20.56,2210247.0,LY,13.1875,32.8752,100.0,1685848649.0
486,Ixtapa,78.03,78.0,5.75,4004293.0,MX,-105.2,20.7,20.0,1685848651.0
487,Santiago del Estero,73.87,65.0,1.45,3835869.0,AR,-64.2615,-27.7951,100.0,1685848653.0
488,Uribia,83.39,77.0,9.75,3666409.0,CO,-72.266,11.7139,5.0,1685848655.0
489,Rome,57.29,47.0,5.75,5134295.0,US,-75.4557,43.2128,0.0,1685848657.0
490,Xuanzhou,75.29,67.0,6.71,1788081.0,CN,118.7553,30.9525,97.0,1685848659.0
491,Arrondissement de Muret,56.71,96.0,2.75,2991152.0,FR,1.25,43.3333,17.0,1685848662.0
492,Orlik,49.26,90.0,1.97,1496073.0,RU,99.825,52.5178,100.0,1685848664.0
493,Toyoake,75.04,36.0,5.93,1856057.0,JP,137.0137,35.0594,100.0,1685848666.0
494,Ibrā’,83.28,53.0,3.94,287832.0,OM,58.5334,22.6906,0.0,1685848668.0
495,Ayagoz,77.99,22.0,16.33,1525988.0,KZ,80.4392,47.9714,1.0,1685848670.0
496,Deputatsky,58.23,32.0,4.59,2028164.0,RU,139.9,69.3,99.0,1685848672.0
497,Moyale,63.7,94.0,4.74,186180.0,KE,39.0584,3.5167,39.0,1685848674.0
498,Gresik,85.91,58.0,1.81,1643776.0,ID,112.6561,-7.1539,26.0,1685848676.0
499,Tsushima,75.2,38.0,3.83,1849539.0,JP,136.7167,35.1667,99.0,1685848679.0
500,Boralday,73.26,38.0,4.47,1526384.0,KZ,76.8594,43.3578,75.0,1685848681.0
501,Mahina,80.37,65.0,9.22,4034307.0,PF,-149.489,-17.5065,40.0,1685848683.0
502,Ust-Maya,70.12,29.0,5.99,2013918.0,RU,134.5333,60.4167,100.0,1685848685.0
503,General Pico,56.66,86.0,8.86,3855075.0,AR,-63.7568,-35.6566,100.0,1685848687.0
504,Labuan,83.19,75.0,4.83,1733782.0,MY,115.2417,5.2767,100.0,1685848393.0
505,Saint Anthony,74.34,59.0,0.0,5044290.0,US,-93.218,45.0205,0.0,1685848691.0
506,Iqaluit,32.7,93.0,3.0,5983720.0,CA,-68.5145,63.7506,100.0,1685848694.0
507,Haapiti,81.72,68.0,9.33,4034438.0,PF,-149.8667,-17.5667,10.0,1685848696.0
508,Sarankhola,92.8,55.0,7.65,1185239.0,BD,89.7897,22.3082,3.0,1685848698.0
509,Odienné,72.55,95.0,3.49,2283016.0,CI,-7.5692,9.51,82.0,1685848700.0
510,Miles City,67.17,88.0,4.61,5666176.0,US,-105.8406,46.4083,20.0,1685848702.0
511,Daru,79.5,89.0,14.16,2098329.0,PG,143.2092,-9.0763,99.0,1685848704.0
512,Umm Kaddadah,85.48,42.0,5.61,364933.0,SD,26.6876,13.6017,74.0,1685848707.0
513,Skegness,46.74,84.0,10.98,2637762.0,GB,0.3363,53.1436,78.0,1685848709.0
514,Saint-François,56.64,94.0,2.3,2980080.0,FR,3.9054,46.4154,100.0,1685848675.0
515,Semey,79.02,31.0,8.95,1519422.0,KZ,80.2275,50.4111,0.0,1685848713.0
516,Esperance,60.21,61.0,10.89,2071860.0,AU,121.9,-33.8667,100.0,1685848715.0
517,Selkirk,73.24,78.0,6.89,6144054.0,CA,-96.8845,50.1436,99.0,1685848530.0
518,Mahajanga,71.73,68.0,12.59,1062663.0,MG,46.3167,-15.7167,0.0,1685848719.0
519,Ruwi,91.09,44.0,4.61,287286.0,OM,58.5507,23.5996,1.0,1685848721.0
520,Pucallpa,77.04,88.0,4.61,3693345.0,PE,-74.5539,-8.3791,20.0,1685848723.0
521,Ginda,74.41,25.0,0.96,1253628.0,IN,78.4932,30.6945,100.0,1685848726.0
522,Hare Bay,35.2,98.0,8.63,5970873.0,CA,-54.0148,48.8499,100.0,1685848728.0
523,Kabalo,70.32,62.0,4.0,215668.0,CD,26.9167,-6.05,65.0,1685848730.0
524,Cockburn Town,81.12,81.0,9.26,3576994.0,TC,-71.1419,21.4612,98.0,1685848732.0
525,Kolomyia,47.71,74.0,4.63,705392.0,UA,25.0403,48.5306,68.0,1685848734.0
526,Odawara,78.64,64.0,3.51,1854747.0,JP,139.1597,35.2556,93.0,1685848736.0
527,Santa Cruz de la Sierra,71.06,94.0,6.91,3904906.0,BO,-63.1667,-17.8,40.0,1685848594.0
528,Derzhavīnsk,80.24,26.0,10.65,1524606.0,KZ,66.3167,51.1,3.0,1685848740.0
529,Raduzhny,71.65,66.0,13.73,1540356.0,RU,77.475,62.0961,97.0,1685848743.0
530,Gulariyā,94.32,19.0,5.1,1283368.0,NP,81.3333,28.2333,6.0,1685848745.0
531,Oudtshoorn,46.76,85.0,0.98,967106.0,ZA,22.2014,-33.5907,59.0,1685848747.0
532,Ruteng,74.5,59.0,0.56,1629380.0,ID,120.4721,-8.6136,61.0,1685848749.0
533,Sokolac,48.58,98.0,2.95,3190385.0,BA,18.8017,43.9397,52.0,1685848751.0
534,Jieshi,84.97,73.0,13.02,1805857.0,CN,115.8257,22.8134,16.0,1685848753.0
535,Porto Velho,77.05,94.0,1.14,3662762.0,BR,-63.9039,-8.7619,0.0,1685848755.0
536,Olinda,80.33,74.0,11.5,3393536.0,BR,-34.8553,-8.0089,40.0,1685848757.0
537,Vallenar,61.63,48.0,1.25,3868633.0,CL,-70.7581,-28.5708,28.0,1685848760.0
538,Bud,75.04,67.0,6.26,4255151.0,US,-86.1758,39.447,80.0,1685848762.0
539,Dhārchula,81.21,25.0,2.3,1272864.0,IN,80.5333,29.85,90.0,1685848764.0
540,Mabaruma,74.79,97.0,3.22,3377301.0,GY,-59.7833,8.2,46.0,1685848766.0
541,Nemuro,49.19,81.0,16.58,2128975.0,JP,145.575,43.3236,82.0,1685848533.0
542,Caucayá,72.0,96.0,2.26,3671437.0,CO,-74.7819,-0.1934,38.0,1685848770.0
543,Vanderhoof,62.69,56.0,4.0,6173361.0,CA,-124.0198,54.0166,91.0,1685848773.0
544,Maravilha,54.36,87.0,3.89,3457809.0,BR,-53.1725,-26.7608,1.0,1685848775.0
545,Nanlong,62.89,96.0,4.59,1799908.0,CN,106.0631,31.3533,100.0,1685848777.0
546,Seryshevo,70.47,43.0,8.25,2016942.0,RU,128.3786,51.0933,32.0,1685848779.0
547,Les Cayes,78.4,90.0,5.12,3728097.0,HT,-73.75,18.2,92.0,1685848781.0
548,Lagoa,64.33,87.0,8.79,3372964.0,PT,-27.9833,39.05,11.0,1685848783.0
549,Pacifica,56.7,83.0,16.11,5380420.0,US,-122.4869,37.6138,40.0,1685848785.0
550,Northam,53.62,86.0,8.66,2641434.0,GB,-4.2167,51.0333,2.0,1685848787.0
551,Rio Grande,65.14,90.0,3.76,3451138.0,BR,-52.0986,-32.035,41.0,1685848790.0
552,Gejiu,68.77,68.0,5.57,1810240.0,CN,103.1635,23.306,100.0,1685848792.0
553,Opuwo,56.97,43.0,3.44,3354077.0,NA,13.84,-18.0607,0.0,1685848794.0
554,La Ronge,68.25,77.0,6.91,6050066.0,CA,-105.2842,55.1001,75.0,1685848796.0
555,Yazykovo,66.63,85.0,3.78,468483.0,RU,56.1353,55.2199,100.0,1685848798.0
556,Batticaloa,84.16,73.0,3.09,1250161.0,LK,81.6924,7.7102,100.0,1685848800.0
557,Khasan,67.75,47.0,10.11,2039557.0,RU,130.6434,42.4308,96.0,1685848802.0
558,Kattivākkam,89.08,77.0,9.01,1267433.0,IN,80.3167,13.2167,100.0,1685848805.0
559,Arrondissement de Saint-Denis,57.7,62.0,10.36,2980915.0,FR,2.3333,48.9167,0.0,1685848807.0
560,Ende,84.45,66.0,3.38,1644932.0,ID,121.6623,-8.8432,63.0,1685848809.0
561,Harlingen,78.69,88.0,5.75,4696233.0,US,-97.6961,26.1906,20.0,1685848811.0
562,Zhicheng,77.76,53.0,5.84,1784554.0,CN,111.5047,30.2956,38.0,1685848813.0
563,Havelock,65.64,86.0,16.11,4470244.0,US,-76.9013,34.8791,100.0,1685848815.0
564,Madimba,69.87,91.0,5.86,878141.0,TZ,40.3333,-10.4,7.0,1685848817.0
565,Pacific Grove,53.64,87.0,8.05,5380437.0,US,-121.9166,36.6177,75.0,1685848820.0
566,Esim,78.3,85.0,3.53,2303611.0,GH,-2.2405,4.8699,100.0,1685848822.0
567,Gorontalo,89.78,61.0,6.96,1643837.0,ID,123.0595,0.5412,27.0,1685848824.0
568,Vaitape,79.63,63.0,9.89,4033077.0,PF,-151.75,-16.5167,94.0,1685848826.0
569,Ottawa,54.93,48.0,4.61,6094817.0,CA,-75.6981,45.4112,20.0,1685848570.0
570,Petropavl,80.58,29.0,11.18,1520172.0,KZ,69.1628,54.8753,0.0,1685848830.0
571,Bossangoa,69.42,98.0,2.24,2388036.0,CF,17.4552,6.4926,100.0,1685848832.0
572,Lavrentiya,32.36,83.0,5.75,4031637.0,RU,-171.0,65.5833,91.0,1685848835.0
573,Muskegon,71.47,49.0,8.05,5003136.0,US,-86.1334,43.3,0.0,1685848644.0
574,Lālmohan,88.7,68.0,7.74,1185251.0,BD,90.7419,22.3384,0.0,1685848839.0
575,Gainesville,73.74,73.0,3.44,4156404.0,US,-82.3248,29.6516,0.0,1685848609.0
