,City,Temp_max,Humidity,wind_speed,city_id,country_code,long,lat,Cloudiness,datetime
0,Flin Flon,60.13,83.0,7.85,5954718.0,CA,-101.865,54.7682,5.0,1685682006.0
1,Severo-Kuril'sk,39.4,94.0,15.55,2121385.0,RU,156.125,50.6789,100.0,1685682009.0
2,Codrington,58.93,59.0,5.84,2171099.0,AU,141.9667,-38.2667,80.0,1685682013.0
3,Bredasdorp,55.83,96.0,3.87,1015776.0,ZA,20.0403,-34.5322,85.0,1685682017.0
4,Kindersley,60.82,82.0,11.5,5992154.0,CA,-109.1682,51.4668,40.0,1685682020.0
5,Kavieng,83.66,75.0,10.65,2094342.0,PG,150.7967,-2.5744,52.0,1685682022.0
6,Brae,45.91,65.0,2.57,2654970.0,GB,-1.353,60.3964,18.0,1685682024.0
7,Hithadhoo,82.85,72.0,6.76,1282256.0,MV,73.0833,-0.6,100.0,1685682026.0
8,Ponta Delgada,63.32,88.0,3.44,3372783.0,PT,-25.6667,37.7333,20.0,1685682029.0
9,Kaitangata,47.93,66.0,9.98,2208248.0,NZ,169.8464,-46.2817,73.0,1685682031.0
10,Neiafu,77.68,88.0,4.61,4032420.0,TO,-173.9833,-18.65,75.0,1685682033.0
11,Busselton,59.11,71.0,12.1,2075265.0,AU,115.3333,-33.65,96.0,1685682035.0
12,Kudahuvadhoo,82.81,79.0,19.15,1337607.0,MV,72.8944,2.6708,100.0,1685682038.0
13,Port Macquarie,70.9,49.0,6.38,2152659.0,AU,152.9167,-31.4333,23.0,1685682042.0
14,Jamestown,67.06,66.0,4.61,5122534.0,US,-79.2353,42.097,0.0,1685681775.0
15,Nantucket,57.79,97.0,0.0,4944903.0,US,-70.0995,41.2835,75.0,1685681907.0
16,São João da Barra,67.8,89.0,12.17,3448903.0,BR,-41.0511,-21.6403,2.0,1685681761.0
17,Castlebar,54.01,90.0,3.62,2965654.0,IE,-9.3,53.85,10.0,1685682051.0
18,Katobu,86.0,63.0,5.64,1640972.0,ID,122.5276,-4.9408,76.0,1685682053.0
19,Port Lincoln,74.75,27.0,12.75,2063036.0,AU,135.8667,-34.7333,90.0,1685682055.0
20,Padampur,83.08,43.0,6.08,1260938.0,IN,73.6167,29.6833,0.0,1685682057.0
21,Cayenne,73.44,100.0,0.0,3382160.0,GF,-52.3333,4.9333,0.0,1685682059.0
22,Norman Wells,51.84,71.0,14.97,6089245.0,CA,-126.8329,65.282,75.0,1685681789.0
23,Upernavik,24.01,90.0,4.54,3418910.0,GL,-56.1549,72.7868,100.0,1685682063.0
24,Ushuaia,49.66,50.0,14.97,3833367.0,AR,-68.3,-54.8,20.0,1685682065.0
25,Tasiilaq,32.16,97.0,1.74,3424607.0,GL,-37.6368,65.6145,100.0,1685682068.0
26,Thunder Bay,60.71,82.0,8.05,6166142.0,CA,-89.3168,48.4001,75.0,1685681859.0
27,Provideniya,33.91,86.0,13.42,4031574.0,RU,-173.3,64.3833,75.0,1685682072.0
28,Cap Malheureux,78.48,61.0,5.01,934649.0,MU,57.6142,-19.9842,14.0,1685682075.0
29,West Wendover,65.41,45.0,14.97,5710035.0,US,-114.0733,40.7391,20.0,1685682077.0
30,Tautira,76.44,66.0,11.97,4033557.0,PF,-149.15,-17.7333,10.0,1685682079.0
31,Avarua,68.05,83.0,2.3,4035715.0,CK,-159.775,-21.2078,55.0,1685682082.0
32,Punta Arenas,44.71,81.0,18.41,3874787.0,CL,-70.9167,-53.15,0.0,1685681919.0
33,Ozernovskiy,41.56,93.0,5.75,2122293.0,RU,156.5167,51.5,86.0,1685682086.0
34,Aksu,79.75,20.0,6.55,1529660.0,CN,80.2644,41.1231,100.0,1685682088.0
35,Arrondissement d'Ajaccio,55.38,82.0,8.05,3038333.0,FR,8.9167,42.0,0.0,1685681922.0
36,Cabedelo,75.87,87.0,9.66,3404558.0,BR,-34.8339,-6.9811,22.0,1685682092.0
37,Dikson,34.41,98.0,7.56,1507390.0,RU,80.5464,73.5069,96.0,1685682094.0
38,Hobart,55.56,63.0,10.36,2163355.0,AU,147.3294,-42.8794,75.0,1685682046.0
39,Vestmannaeyjar,48.2,95.0,10.78,3412093.0,IS,-20.2734,63.4427,96.0,1685682099.0
40,Alofi,78.69,73.0,5.75,4036284.0,NU,-169.9187,-19.0595,41.0,1685682101.0
41,Carnarvon,69.98,46.0,15.97,2074865.0,AU,113.6333,-24.8667,0.0,1685682103.0
42,Saint-Philippe,76.59,81.0,11.9,935215.0,RE,55.7679,-21.3585,12.0,1685682105.0
43,Cabra,59.2,68.0,2.91,2520645.0,ES,-4.4421,37.4725,73.0,1685682107.0
44,Feldbach,58.5,81.0,2.62,2779685.0,AT,15.8883,46.9531,34.0,1685682109.0
45,Tual,81.34,79.0,16.11,1623197.0,ID,132.75,-5.6667,77.0,1685682112.0
46,Longyearbyen,31.84,47.0,9.22,2729907.0,SJ,15.6401,78.2186,0.0,1685682114.0
47,Dukat,60.6,37.0,10.27,2125906.0,RU,155.55,62.55,66.0,1685682116.0
48,Jalu,68.79,77.0,12.24,86049.0,LY,21.5482,29.0331,19.0,1685682118.0
49,Vaini,75.36,69.0,10.36,4032243.0,TO,-175.2,-21.2,20.0,1685682120.0
50,Albany,66.27,72.0,1.99,5106841.0,US,-73.9662,42.6001,4.0,1685682122.0
51,Karaton,89.28,54.0,2.64,1630058.0,ID,106.1045,-6.3424,63.0,1685682125.0
52,Saldanha,51.85,75.0,22.66,3361934.0,ZA,17.9442,-33.0117,100.0,1685682127.0
53,Castro,49.6,87.0,2.33,3466704.0,BR,-50.0119,-24.7911,0.0,1685682072.0
54,Inhambane,73.0,94.0,8.05,1045114.0,MZ,35.3833,-23.865,20.0,1685682131.0
55,Mataura,43.12,88.0,8.52,6201424.0,NZ,168.8643,-46.1927,79.0,1685682133.0
56,Puerto Ayora,74.55,96.0,4.52,3652764.0,EC,-90.3518,-0.7393,19.0,1685682135.0
57,Arraial do Cabo,70.61,81.0,10.65,3471451.0,BR,-42.0278,-22.9661,4.0,1685682138.0
58,Obihiro,74.61,65.0,3.71,2128815.0,JP,143.2044,42.9172,100.0,1685681931.0
59,Penzance,54.28,84.0,19.6,2640377.0,GB,-5.5371,50.1186,48.0,1685682142.0
60,Butaritari,84.29,74.0,11.14,2110227.0,KI,172.7902,3.0707,98.0,1685682144.0
61,Rikitea,76.69,84.0,19.53,4030556.0,PF,-134.9692,-23.1203,98.0,1685682146.0
62,Namatanai,84.07,70.0,5.86,2090021.0,PG,152.4333,-3.6667,93.0,1685682148.0
63,Isangel,78.91,83.0,3.44,2136825.0,VU,169.2667,-19.55,75.0,1685682151.0
64,Saint George,81.19,21.0,9.22,5546220.0,US,-113.5841,37.1041,0.0,1685682003.0
65,Kruisfontein,55.4,84.0,5.3,986717.0,ZA,24.7314,-34.0033,98.0,1685682155.0
66,Mwinilunga,54.59,49.0,3.6,902620.0,ZM,24.4293,-11.7358,3.0,1685682158.0
67,Port Alfred,60.73,57.0,8.75,964432.0,ZA,26.891,-33.5906,51.0,1685682161.0
68,Marzuq,82.63,45.0,3.29,72181.0,YE,46.4667,14.4,3.0,1685682163.0
69,Puerto Escondido,81.27,88.0,2.42,3520994.0,MX,-97.0667,15.85,57.0,1685682003.0
70,Sivaki,55.8,74.0,11.27,2016477.0,RU,126.75,52.6333,100.0,1685682167.0
71,Yellowknife,63.12,31.0,4.61,6185377.0,CA,-114.3525,62.456,20.0,1685682040.0
72,Canchungo,77.13,83.0,4.07,2373951.0,GW,-16.0333,12.0672,100.0,1685682171.0
73,Östersund,39.65,38.0,10.36,2685750.0,SE,14.6357,63.1792,75.0,1685682090.0
74,Fort Nelson,55.94,45.0,5.75,5955902.0,CA,-122.7002,58.8053,20.0,1685682176.0
75,Castelo Branco,56.46,88.0,3.58,2269514.0,PT,-7.4909,39.8222,64.0,1685682178.0
76,Black River,78.4,85.0,3.29,3491355.0,JM,-77.8487,18.0264,100.0,1685682180.0
77,Atuona,80.33,77.0,8.99,4020109.0,PF,-139.0333,-9.8,18.0,1685682182.0
78,Birao,79.39,61.0,1.95,240210.0,CF,22.7882,10.2849,96.0,1685682152.0
79,Ekhabi,37.31,96.0,8.21,2122614.0,RU,142.9671,53.5102,100.0,1685682187.0
80,Barrow,26.62,74.0,10.36,5880054.0,US,-156.7887,71.2906,100.0,1685682189.0
81,Hilo,71.24,98.0,4.61,5855927.0,US,-155.09,19.7297,100.0,1685682191.0
82,Mehamn,37.35,81.0,4.61,778707.0,NO,27.8492,71.0357,75.0,1685682193.0
83,Shingū,74.93,97.0,19.77,1847947.0,JP,135.9833,33.7333,100.0,1685681995.0
84,George Town,89.26,74.0,8.05,1735106.0,MY,100.3354,5.4112,40.0,1685682198.0
85,Russell,66.2,100.0,0.0,4047434.0,US,-85.1999,32.3502,0.0,1685682200.0
86,Sidhi,101.25,16.0,7.94,1256369.0,IN,81.8833,24.4167,0.0,1685682202.0
87,Laramie,49.75,81.0,0.0,5830062.0,US,-105.5911,41.3114,100.0,1685682204.0
88,Bluff,49.44,65.0,28.16,2206939.0,NZ,168.3333,-46.6,59.0,1685682206.0
89,Bayir,59.52,63.0,3.15,304183.0,TR,28.2167,37.2687,39.0,1685682209.0
90,Vila Velha,70.95,85.0,12.66,3445026.0,BR,-40.2925,-20.3297,0.0,1685682048.0
91,Kapaa,75.18,87.0,12.66,5848280.0,US,-159.319,22.0752,100.0,1685682213.0
92,Margate,50.34,73.0,10.0,2643044.0,GB,1.3862,51.3813,96.0,1685682106.0
93,Kamaishi,61.56,100.0,1.21,2112444.0,JP,141.8833,39.2667,100.0,1685682217.0
94,Stăncuţa,68.4,55.0,4.59,666309.0,RO,27.8333,44.9,10.0,1685682219.0
95,Ankang,63.93,92.0,2.3,1789065.0,CN,109.0172,32.68,100.0,1685682221.0
96,Port Elizabeth,55.31,98.0,3.44,964420.0,ZA,25.5701,-33.918,0.0,1685682223.0
97,Morant Bay,82.02,85.0,4.56,3489440.0,JM,-76.4093,17.8815,100.0,1685682226.0
98,São Miguel,74.17,91.0,8.86,3388304.0,BR,-35.3667,-5.4667,35.0,1685682228.0
99,Guerrero Negro,60.26,86.0,14.2,4021858.0,MX,-114.0611,27.9769,0.0,1685682230.0
100,Husavik,53.76,75.0,7.52,2629833.0,IS,-17.3389,66.0449,83.0,1685682232.0
101,Ahipara,58.82,94.0,9.53,2194098.0,NZ,173.1667,-35.1667,85.0,1685682234.0
102,Saint Paul Harbor,54.91,44.0,0.0,5866583.0,US,-152.4072,57.79,0.0,1685682236.0
103,Mahébourg,77.29,61.0,12.66,934322.0,MU,57.7,-20.4081,40.0,1685682238.0
104,Mount Isa,85.77,28.0,6.91,2065594.0,AU,139.5,-20.7333,3.0,1685682240.0
105,Te Anau,41.5,99.0,5.28,2181625.0,NZ,167.7167,-45.4167,100.0,1685682039.0
106,Alenquer,73.56,82.0,1.79,3407980.0,BR,-54.7383,-1.9417,16.0,1685682089.0
107,São Miguel do Araguaia,72.03,74.0,4.05,3448455.0,BR,-50.1628,-13.275,24.0,1685682050.0
108,Kriel,41.67,61.0,2.55,987202.0,ZA,29.2253,-26.2739,0.0,1685682249.0
109,Marsh Harbour,79.47,78.0,3.78,3571913.0,BS,-77.0636,26.5412,100.0,1685682251.0
110,Souillac,77.38,61.0,12.66,933995.0,MU,57.5167,-20.5167,40.0,1685682253.0
111,Tigil',48.7,63.0,12.59,2120612.0,RU,158.6667,57.8,99.0,1685682255.0
112,Kaeo,58.78,91.0,9.44,2189343.0,NZ,173.7833,-35.1,63.0,1685682257.0
113,Cape Town,57.04,89.0,3.0,3369157.0,ZA,18.4232,-33.9258,95.0,1685682143.0
114,Cidreira,62.24,82.0,5.79,3466165.0,BR,-50.2056,-30.1811,0.0,1685682121.0
115,Khatanga,56.8,54.0,8.88,2022572.0,RU,102.5,71.9667,100.0,1685682264.0
116,Karlshamn,45.09,63.0,6.69,2701727.0,SE,14.8619,56.1706,2.0,1685682266.0
117,Pevek,32.59,83.0,10.45,2122090.0,RU,170.3133,69.7008,100.0,1685682268.0
118,Mar del Plata,53.04,81.0,0.0,3430863.0,AR,-57.5575,-38.0023,0.0,1685682270.0
119,Gobabis,54.52,36.0,7.18,3357247.0,NA,18.9667,-22.45,0.0,1685682272.0
120,Gaoyou,89.4,31.0,10.71,1810309.0,CN,119.4278,32.7858,4.0,1685682274.0
121,Bethel,61.68,79.0,2.82,5282297.0,US,-73.414,41.3712,0.0,1685682095.0
122,Santa Maria da Vitória,71.94,59.0,2.53,3450063.0,BR,-44.1886,-13.3947,34.0,1685682253.0
123,Banda Aceh,86.68,64.0,12.12,1215502.0,ID,95.3222,5.5577,72.0,1685682281.0
124,Georgiyevka,77.04,27.0,4.47,1524243.0,KZ,74.7114,43.0369,0.0,1685682283.0
125,Zonguldak,54.45,73.0,2.77,737021.0,TR,31.8333,41.25,1.0,1685682285.0
126,Booué,71.91,99.0,1.86,2401495.0,GA,11.9385,-0.0921,35.0,1685682287.0
127,Siyabuswa,51.64,54.0,0.81,955313.0,ZA,29.0445,-25.1132,36.0,1685682289.0
128,Dunedin,52.81,45.0,7.0,2191562.0,NZ,170.5036,-45.8742,7.0,1685682052.0
129,Roald,42.1,93.0,5.75,3141667.0,NO,6.1333,62.5833,40.0,1685682293.0
130,Tweed,70.18,80.0,5.35,6170799.0,CA,-77.3162,44.4751,63.0,1685682295.0
131,Nanortalik,40.87,99.0,13.0,3421765.0,GL,-45.2371,60.1432,100.0,1685682298.0
132,Port Blair,89.64,66.0,13.8,1259385.0,IN,92.75,11.6667,40.0,1685682178.0
133,Lubango,58.05,62.0,2.1,3347762.0,AO,13.4925,-14.9172,0.0,1685682302.0
134,Shumskiy,72.39,31.0,5.95,1491977.0,RU,99.1328,54.8318,34.0,1685682304.0
135,San Cristobal,75.38,99.0,3.06,3628473.0,VE,-72.225,7.7669,100.0,1685682306.0
136,Nioro,78.94,65.0,6.78,2412408.0,GM,-15.75,13.35,100.0,1685682309.0
137,Thompson,62.76,72.0,4.61,6165406.0,CA,-97.8558,55.7435,100.0,1685682311.0
138,Manaus,79.29,94.0,2.3,3663517.0,BR,-60.025,-3.1019,0.0,1685682115.0
139,Laguna,63.97,63.0,9.22,5364271.0,US,-121.4238,38.421,0.0,1685682315.0
140,Hermanus,58.8,86.0,7.45,3366880.0,ZA,19.2345,-34.4187,90.0,1685682317.0
141,Westport,62.56,86.0,5.75,4845585.0,US,-73.3579,41.1415,0.0,1685682320.0
142,Dicabisagan,90.23,60.0,4.65,1715015.0,PH,122.4157,17.0818,100.0,1685682322.0
143,Newport,51.06,79.0,14.7,2641598.0,GB,-2.9984,51.5877,63.0,1685682324.0
144,Tateyama,75.13,94.0,9.22,1850523.0,JP,139.8667,34.9833,75.0,1685682327.0
145,Kuznechikha,57.78,80.0,4.47,537760.0,RU,42.3348,57.2161,94.0,1685682329.0
146,Poum,75.78,78.0,11.79,2138555.0,NC,164.0167,-20.2333,29.0,1685682331.0
147,Chokurdakh,48.42,59.0,7.05,2126123.0,RU,147.9167,70.6333,54.0,1685682333.0
148,Coquimbo,58.73,88.0,3.44,3893629.0,CL,-71.3436,-29.9533,100.0,1685682045.0
149,Ust-Nera,65.97,37.0,2.35,2120048.0,RU,143.2,64.5667,15.0,1685682337.0
150,Kavaratti,83.52,77.0,12.17,1267390.0,IN,72.642,10.5669,99.0,1685682340.0
151,Eruwa,73.56,96.0,3.44,2338669.0,NG,3.4167,7.5333,80.0,1685682342.0
152,Polyarny,38.73,74.0,17.0,506763.0,RU,33.4478,69.1989,100.0,1685682344.0
153,Ribeira Grande,66.78,82.0,10.0,3372707.0,PT,-28.7,38.5167,46.0,1685682346.0
154,Kalemie,71.67,75.0,2.42,214974.0,CD,29.1947,-5.9475,33.0,1685682348.0
155,Tuktoyaktuk,30.2,86.0,6.91,6170031.0,CA,-133.0374,69.4541,75.0,1685682211.0
156,Tomatlán,68.92,90.0,1.52,3981391.0,MX,-105.25,19.9333,0.0,1685682352.0
157,Bratca,64.42,72.0,1.66,683837.0,RO,22.6167,46.9333,3.0,1685682354.0
158,Chiang Khong,100.2,36.0,2.82,1611197.0,TH,100.4046,20.2613,57.0,1685682356.0
159,Gijang,83.93,59.0,2.48,1842966.0,KR,129.2139,35.2442,0.0,1685682359.0
160,Vao,71.83,69.0,16.91,2137773.0,NC,167.4833,-22.6667,54.0,1685682361.0
161,Marawi,87.03,50.0,2.75,1701054.0,PH,124.2928,7.9986,99.0,1685682363.0
162,Kununurra,89.58,29.0,8.05,2068110.0,AU,128.7333,-15.7667,29.0,1685682192.0
163,Ponta do Sol,65.52,73.0,7.63,2264557.0,PT,-17.1,32.6667,37.0,1685682367.0
164,Vanimo,77.81,86.0,8.3,2084442.0,PG,141.3028,-2.6741,97.0,1685682370.0
165,Kenai,50.09,59.0,17.27,5866063.0,US,-151.2583,60.5544,100.0,1685682363.0
166,Tarnogskiy Gorodok,58.6,68.0,3.69,484314.0,RU,43.5761,60.4997,82.0,1685682374.0
167,Tottori-shi,71.67,94.0,2.3,1849892.0,JP,134.2333,35.5,75.0,1685682376.0
168,Baracoa,77.49,90.0,1.19,3567834.0,CU,-74.4958,20.3467,99.0,1685682378.0
169,Krasnyy Kholm,53.2,65.0,1.05,541704.0,RU,37.1203,58.0607,13.0,1685682380.0
170,Nabire,84.67,72.0,5.35,1634614.0,ID,135.4833,-3.3667,82.0,1685682382.0
171,Zaysan,70.9,31.0,7.11,1517060.0,KZ,84.8667,47.4667,0.0,1685682358.0
172,New Norfolk,50.9,61.0,1.99,2155415.0,AU,147.0587,-42.7826,41.0,1685682387.0
173,Muhos,38.86,96.0,10.27,645765.0,FI,25.9931,64.808,100.0,1685682389.0
174,Sabzawār,79.88,28.0,9.22,118063.0,IR,57.6819,36.2126,40.0,1685682391.0
175,Catuday,85.55,71.0,15.19,1717787.0,PH,119.8062,16.2923,27.0,1685682393.0
176,Enshi,71.69,97.0,1.05,1811720.0,CN,109.4833,30.3,100.0,1685682395.0
177,Timiryazevskiy,83.16,36.0,8.84,1489597.0,RU,84.8769,56.49,39.0,1685682397.0
178,Aklavik,45.55,59.0,5.97,5882953.0,CA,-135.0107,68.2191,95.0,1685682400.0
179,Pochutla,81.82,85.0,4.09,3517970.0,MX,-96.4661,15.7432,70.0,1685682402.0
180,Bathsheba,81.21,89.0,10.36,3374083.0,BB,-59.5167,13.2167,40.0,1685682404.0
181,Salalah,87.89,74.0,9.22,286621.0,OM,54.0924,17.0151,20.0,1685682324.0
182,Airai,75.24,49.0,2.35,1651810.0,TL,125.4092,-8.9266,79.0,1685682409.0
183,Fuyang,85.44,30.0,16.46,1810845.0,CN,115.8167,32.9,99.0,1685682411.0
184,Makakilo City,72.75,88.0,6.91,5850554.0,US,-158.0858,21.3469,100.0,1685682413.0
185,Impfondo,72.46,78.0,1.39,2259655.0,CG,18.0667,1.6381,61.0,1685682415.0
186,Anloga,79.25,85.0,9.1,2304548.0,GH,0.8973,5.7947,93.0,1685682417.0
187,Chui,57.96,93.0,4.94,3443061.0,UY,-53.4616,-33.6971,0.0,1685682420.0
188,Nishihara,79.88,83.0,34.52,1855342.0,JP,127.7558,26.1842,75.0,1685682422.0
189,Bariloche,43.25,87.0,11.97,7647007.0,AR,-71.3082,-41.1456,73.0,1685682424.0
190,Kristianstad,46.54,87.0,4.61,2699310.0,SE,14.1524,56.0313,0.0,1685682426.0
191,Cabo San Lucas,72.88,79.0,13.78,3985710.0,MX,-109.9124,22.8909,36.0,1685682330.0
192,Hunchun,68.74,58.0,8.61,2036653.0,CN,130.3581,42.8675,100.0,1685682162.0
193,Aykhal,62.11,33.0,17.56,2027296.0,RU,111.5,66.0,53.0,1685682433.0
194,Nchelenge,62.47,65.0,5.86,175499.0,ZM,28.734,-9.3451,34.0,1685682435.0
195,Hobyo,83.32,74.0,18.32,57000.0,SO,48.5268,5.3505,83.0,1685682437.0
196,Pechenga,40.08,66.0,19.73,511865.0,RU,31.1703,69.5259,100.0,1685682439.0
197,Hambantota,86.34,84.0,14.97,1244926.0,LK,81.1185,6.1241,75.0,1685682442.0
198,Lompoc,55.85,82.0,5.75,5367788.0,US,-120.4579,34.6391,100.0,1685682380.0
199,Hasaki,73.81,94.0,26.8,2112802.0,JP,140.8333,35.7333,100.0,1685682350.0
200,Departamento de Maldonado,55.13,93.0,6.11,3441890.0,UY,-54.9167,-34.6667,1.0,1685682448.0
201,Naze,74.26,94.0,23.71,1855540.0,JP,129.4833,28.3667,100.0,1685682450.0
202,Nikolskoye,44.13,41.0,6.31,546105.0,RU,30.7861,59.7035,2.0,1685682452.0
203,Dul'durga,66.33,27.0,6.33,2024812.0,RU,113.5931,50.6761,50.0,1685682454.0
204,Leh,46.35,51.0,6.62,1264976.0,IN,77.5833,34.1667,100.0,1685682193.0
205,Lata,60.93,96.0,1.1,2738381.0,PT,-8.3327,40.1629,71.0,1685682459.0
206,Tiksi,48.97,54.0,9.48,2015306.0,RU,128.8694,71.6872,100.0,1685682461.0
207,Qaanaaq,14.4,75.0,6.04,3831208.0,GL,-69.3632,77.484,0.0,1685682463.0
208,Ilulissat,30.22,86.0,16.11,3423146.0,GL,-51.1,69.2167,100.0,1685682465.0
209,Saint-Augustin,46.13,80.0,15.28,6137462.0,CA,-58.6502,51.226,99.0,1685682467.0
210,Saskylakh,50.67,76.0,3.44,2017155.0,RU,114.0833,71.9167,91.0,1685682469.0
211,Tessalit,81.43,12.0,6.6,2449893.0,ML,1.0114,20.1986,32.0,1685682471.0
212,Rayong,93.43,65.0,11.45,1607016.0,TH,101.4333,12.8333,55.0,1685682441.0
213,Sur,97.36,36.0,6.49,286245.0,OM,59.5289,22.5667,0.0,1685682476.0
214,Bereket,83.25,44.0,17.4,161974.0,TM,55.5154,39.2446,87.0,1685682478.0
215,Staraya Kulatka,63.37,69.0,14.88,489164.0,RU,47.6167,52.7167,100.0,1685682480.0
216,Roswell,66.52,84.0,0.0,4219934.0,US,-84.3616,34.0232,0.0,1685682383.0
217,Santa Luzia,61.7,91.0,3.78,3450144.0,BR,-43.8514,-19.7697,0.0,1685682484.0
218,São Filipe,73.94,72.0,8.68,3374210.0,CV,-24.4956,14.8961,4.0,1685682486.0
219,San Luis,57.51,79.0,13.18,3837056.0,AR,-66.3356,-33.295,1.0,1685682489.0
220,Fairbanks,43.63,82.0,6.91,5861897.0,US,-147.7164,64.8378,75.0,1685682326.0
221,Sibolga,86.94,63.0,4.76,1213855.0,ID,98.7792,1.7427,100.0,1685682310.0
222,Pahrump,76.37,23.0,4.0,5509851.0,US,-115.9839,36.2083,11.0,1685682433.0
223,Narsaq,43.02,99.0,1.25,3421719.0,GL,-46.05,60.9167,100.0,1685682497.0
224,Hamilton,63.23,62.0,0.0,4513583.0,US,-84.5333,39.1834,0.0,1685682444.0
225,Fortuna,50.59,92.0,9.22,5563839.0,US,-124.1573,40.5982,100.0,1685682502.0
226,Ayan,39.87,99.0,6.73,2027316.0,RU,138.1667,56.45,100.0,1685682504.0
227,El Dorado,55.38,78.0,3.0,5345659.0,US,-120.5177,38.7666,0.0,1685682506.0
228,Leonidovo,55.04,61.0,2.53,2123805.0,RU,142.8667,49.2833,89.0,1685682508.0
229,Chicama,70.34,86.0,5.12,3698359.0,PE,-79.1469,-7.8447,34.0,1685682510.0
230,Umluj,88.7,44.0,7.63,100926.0,SA,37.2685,25.0213,25.0,1685682512.0
231,Acapulco de Juárez,84.02,70.0,5.75,3533462.0,MX,-99.8901,16.8634,0.0,1685682449.0
232,Santa Maria,59.18,91.0,3.62,3450083.0,BR,-53.8069,-29.6842,0.0,1685682517.0
233,Ubinskoye,77.99,39.0,4.23,1488708.0,RU,79.6802,55.3068,68.0,1685682519.0
234,Flinders,69.66,73.0,4.0,6255012.0,AU,150.8552,-34.5833,97.0,1685682521.0
235,Broome,61.09,70.0,0.69,5110365.0,US,-75.833,42.2506,0.0,1685682523.0
236,Mossamedes,65.14,72.0,10.18,3347019.0,AO,12.1522,-15.1961,1.0,1685682405.0
237,Orange Cove,70.36,36.0,6.91,5379533.0,US,-119.3137,36.6244,0.0,1685682527.0
238,Barra Patuca,78.42,86.0,7.14,3614835.0,HN,-84.2833,15.8,41.0,1685682529.0
239,Arlit,80.37,9.0,0.22,2447513.0,NE,7.3853,18.7369,82.0,1685682532.0
240,Chilia Veche,68.86,58.0,4.74,682117.0,RO,29.2833,45.4167,9.0,1685682534.0
241,Conde,74.66,100.0,2.3,3385077.0,BR,-34.9075,-7.2597,40.0,1685682536.0
242,Bulungu,71.38,83.0,1.59,2316259.0,CD,18.6,-4.55,94.0,1685682538.0
243,Baker City,55.11,54.0,4.61,5712169.0,US,-117.8344,44.7749,0.0,1685682540.0
244,Rājākhera,94.51,28.0,8.25,1258930.0,IN,78.1714,26.8961,0.0,1685682542.0
245,Portland,58.82,64.0,5.75,5746545.0,US,-122.6762,45.5234,20.0,1685682449.0
246,Birkeland,48.74,67.0,11.5,3161532.0,NO,8.2323,58.3309,0.0,1685682546.0
247,Dvinskoy Bereznik,53.4,56.0,8.28,577240.0,RU,42.7072,62.8551,62.0,1685682548.0
248,Jalingo,78.04,77.0,4.85,2336589.0,NG,11.3667,8.8833,77.0,1685682551.0
249,Yar-Sale,52.57,84.0,21.21,1486321.0,RU,70.8333,66.8333,100.0,1685682553.0
250,Tafresh,67.32,27.0,7.65,113636.0,IR,50.013,34.692,0.0,1685682555.0
251,Homer,49.35,60.0,10.0,5864145.0,US,-151.5483,59.6425,100.0,1685682557.0
252,Mandalgovi,57.24,43.0,9.55,2030065.0,MN,106.2708,45.7625,100.0,1685682559.0
253,Kibala,78.96,65.0,4.12,2425791.0,TD,18.3463,9.1104,57.0,1685682561.0
254,Ulladulla,65.77,69.0,6.38,2145554.0,AU,150.4667,-35.35,86.0,1685682564.0
255,Sitka,51.69,76.0,5.75,5557293.0,US,-135.33,57.0531,100.0,1685682300.0
256,Leningradskiy,32.04,90.0,14.85,2123814.0,RU,178.4167,69.3833,100.0,1685682568.0
257,Takāb,63.36,28.0,2.59,113508.0,IR,47.1133,36.4009,5.0,1685682570.0
258,Tarancón,55.08,85.0,4.14,3108317.0,ES,-3.0073,40.0085,99.0,1685682572.0
259,Goderich,66.9,69.0,10.25,5962442.0,CA,-81.7165,43.7501,100.0,1685682574.0
260,Rosa Zarate,73.99,97.0,3.71,3652257.0,EC,-79.4667,0.3333,92.0,1685682576.0
261,Luganville,80.74,84.0,7.25,2136150.0,VU,167.1667,-15.5333,84.0,1685682579.0
262,Druzhba,62.83,70.0,11.65,709584.0,UA,33.9453,52.0428,51.0,1685682581.0
263,Valea lui Mihai,60.51,78.0,5.66,663692.0,RO,22.15,47.5167,71.0,1685682583.0
264,Ancud,50.92,79.0,22.97,3899695.0,CL,-73.8203,-41.8697,65.0,1685682325.0
265,Matagami,61.81,85.0,4.99,6067747.0,CA,-77.6328,49.7502,9.0,1685682587.0
266,Peniche,61.43,87.0,4.43,2264923.0,PT,-9.3811,39.3558,23.0,1685682589.0
267,Miraflores,70.27,74.0,3.58,3761194.0,MX,-98.8083,19.2167,67.0,1685682591.0
268,Lebu,53.74,91.0,8.01,3883457.0,CL,-73.65,-37.6167,64.0,1685682341.0
269,Crawley,50.05,68.0,13.8,2652053.0,GB,-0.1831,51.113,75.0,1685682595.0
270,Khonsa,88.29,38.0,4.83,1266668.0,IN,95.5667,27.0167,5.0,1685682597.0
271,Yumen,76.17,13.0,16.84,1528998.0,CN,97.2,40.2833,11.0,1685682600.0
272,Bubaque,80.29,83.0,8.12,2374583.0,GW,-15.8333,11.2833,100.0,1685682602.0
273,Ribas do Rio Pardo,61.84,92.0,5.66,3451399.0,BR,-53.7592,-20.4431,33.0,1685682604.0
274,Malbork,50.16,60.0,14.07,3092472.0,PL,19.0266,54.0359,53.0,1685682606.0
275,Saint-Leu,76.71,66.0,6.71,6690297.0,RE,55.2833,-21.15,3.0,1685682609.0
276,Arkhara,65.98,45.0,11.27,2027487.0,RU,130.0842,49.4212,56.0,1685682611.0
277,Tura,93.63,37.0,7.38,1254046.0,IN,90.2201,25.5198,2.0,1685682613.0
278,Ingham,62.87,73.0,5.75,4997130.0,US,-84.3833,42.6,0.0,1685682615.0
279,Sarandi,56.55,89.0,2.84,3447998.0,BR,-51.8739,-23.4436,0.0,1685682412.0
280,Biak,84.06,70.0,7.14,1637001.0,ID,122.8766,-0.9131,85.0,1685682620.0
281,Nieuw Amsterdam,78.03,88.0,6.22,3383434.0,SR,-55.0833,5.8833,98.0,1685682622.0
282,Boundiali,73.26,94.0,5.73,2290836.0,CI,-6.4869,9.5217,99.0,1685682624.0
283,Aitape,79.95,84.0,4.34,2101169.0,PG,142.3475,-3.1374,100.0,1685682626.0
284,Manadhoo,83.48,78.0,14.52,1337618.0,MV,73.3833,5.7667,100.0,1685682629.0
285,Ca Mau,92.7,52.0,12.15,1586443.0,VN,105.15,9.1769,67.0,1685682631.0
286,San Patricio,78.57,82.0,9.91,4726521.0,US,-97.5169,28.017,38.0,1685682350.0
287,Portree,51.53,94.0,1.81,2640006.0,GB,-6.1942,57.4129,4.0,1685682636.0
288,Srednekolymsk,57.22,18.0,4.83,2121025.0,RU,153.6833,67.45,10.0,1685682638.0
289,Zhangaözen,76.23,44.0,10.96,607610.0,KZ,52.8,43.3,77.0,1685682640.0
290,Mayo,62.8,89.0,3.44,4362001.0,US,-76.5119,38.8876,0.0,1685682642.0
291,Hualmay,68.59,84.0,9.1,3939761.0,PE,-77.6139,-11.0964,23.0,1685682644.0
292,Púchov,54.68,77.0,2.55,3057963.0,SK,18.326,49.1249,45.0,1685682646.0
293,Hong Kong,92.95,81.0,9.42,1819729.0,HK,114.1577,22.2855,0.0,1685682496.0
294,Dzilam González,74.98,88.0,3.76,3529654.0,MX,-88.9333,21.2833,0.0,1685682650.0
295,Sistranda,42.76,64.0,11.12,3139597.0,NO,8.834,63.7256,94.0,1685682652.0
296,Ondjiva,58.62,52.0,2.42,3346821.0,AO,15.7333,-17.0667,0.0,1685682655.0
297,Taguatinga,73.0,54.0,4.47,6319623.0,BR,-46.5711,-12.3857,38.0,1685682657.0
298,Evensk,64.85,41.0,15.28,2125693.0,RU,159.2333,61.95,97.0,1685682659.0
299,Katsuura,75.22,95.0,26.6,2112309.0,JP,140.3,35.1333,100.0,1685682615.0
300,Ambovombe,67.6,68.0,5.44,1079048.0,MG,46.0833,-25.1667,0.0,1685682663.0
301,Pisco,60.85,88.0,3.44,3932145.0,PE,-76.2167,-13.7,0.0,1685682665.0
302,Lala,93.43,51.0,7.47,1707944.0,PH,123.7458,7.9745,88.0,1685682667.0
303,East London,59.83,53.0,6.38,1006984.0,ZA,27.9116,-33.0153,68.0,1685682669.0
304,Nyurba,67.98,25.0,3.78,2018735.0,RU,118.3319,63.2842,0.0,1685682672.0
305,Baykit,73.65,39.0,5.5,1510689.0,RU,96.37,61.67,99.0,1685682674.0
306,Muyezerskiy,43.25,47.0,4.16,524100.0,RU,31.65,63.9333,32.0,1685682676.0
307,Umarkot,92.8,54.0,13.8,1162959.0,PK,69.7362,25.3616,13.0,1685682678.0
308,Paamiut,34.18,99.0,13.33,3421193.0,GL,-49.6678,61.994,100.0,1685682681.0
309,Gberia Fotombu,71.35,97.0,3.62,2409019.0,SL,-11.1667,9.8833,100.0,1685682683.0
310,Auki,85.46,68.0,3.65,2109701.0,SB,160.7034,-8.7676,72.0,1685682685.0
311,Timmins,62.42,100.0,4.61,6166739.0,CA,-81.3331,48.4669,100.0,1685682687.0
312,Pachino,66.34,75.0,2.89,6539213.0,IT,15.0907,36.7186,26.0,1685682689.0
313,Arrondissement d'Arcachon,57.25,100.0,2.3,6621469.0,FR,-1.0519,44.5875,22.0,1685682691.0
314,Avera,64.85,68.0,3.67,4231997.0,US,-82.5271,33.194,55.0,1685682694.0
315,Bonthe,78.04,88.0,3.44,2409914.0,SL,-12.505,7.5264,100.0,1685682696.0
316,Songjianghe,52.84,89.0,5.48,2034691.0,CN,127.479,42.1859,99.0,1685682698.0
317,Salisbury,50.74,75.0,13.8,2638664.0,GB,-1.7957,51.0693,100.0,1685682700.0
318,Xi'an,62.69,86.0,2.26,1790630.0,CN,108.9286,34.2583,100.0,1685682650.0
319,Touros,75.96,91.0,8.7,3386213.0,BR,-35.4608,-5.1989,47.0,1685682696.0
320,Boda,70.45,83.0,0.11,2388614.0,CF,17.4695,4.3189,93.0,1685682706.0
321,Mayumba,73.53,95.0,7.83,2399001.0,GA,10.6554,-3.432,99.0,1685682708.0
322,Chul'man,58.41,54.0,13.09,2025261.0,RU,124.9104,56.8479,100.0,1685682711.0
323,Tambacounda,83.37,64.0,8.63,2244991.0,SN,-13.7586,13.7539,100.0,1685682713.0
324,Bushehr,87.89,48.0,18.41,139817.0,IR,50.8385,28.9684,40.0,1685682715.0
325,Port Hardy,50.18,87.0,3.44,6111862.0,CA,-127.4199,50.6996,75.0,1685682717.0
326,Shashi,85.17,53.0,9.6,1795816.0,CN,112.2447,30.3072,94.0,1685682719.0
327,Grand-Lahou,77.54,91.0,6.91,2288105.0,CI,-5.0242,5.1367,100.0,1685682721.0
328,State College,60.1,76.0,1.99,5213681.0,US,-77.86,40.7934,0.0,1685682723.0
329,Teguise,66.42,73.0,11.5,2510573.0,ES,-13.564,29.0605,40.0,1685682725.0
330,Magdagachi,59.0,60.0,10.18,2020591.0,RU,125.8,53.45,100.0,1685682728.0
331,Gaozhou,95.0,53.0,4.47,1810295.0,CN,110.8461,21.9392,31.0,1685682730.0
332,Meulaboh,86.11,64.0,5.06,1214488.0,ID,96.1285,4.1363,88.0,1685682732.0
333,Río Gallegos,46.98,67.0,34.81,3838859.0,AR,-69.2181,-51.6226,100.0,1685682734.0
334,Chaihe,60.24,61.0,5.59,2038198.0,CN,129.7,44.7667,88.0,1685682736.0
335,Nikel,37.58,66.0,18.25,522260.0,RU,30.222,69.4128,100.0,1685682738.0
336,Beringovskiy,36.52,86.0,6.98,2126710.0,RU,179.3167,63.05,54.0,1685682740.0
337,Coyhaique,40.95,93.0,6.91,3894426.0,CL,-72.0662,-45.5752,0.0,1685682742.0
338,Vardø,37.38,81.0,19.57,777019.0,NO,31.1107,70.3705,100.0,1685682744.0
339,Talnakh,47.88,90.0,15.64,1490256.0,RU,88.3972,69.4865,100.0,1685682747.0
340,Faya,61.32,65.0,8.79,110690.0,SA,42.4509,18.3851,69.0,1685682749.0
341,Znamenskoye,82.54,39.0,6.62,1485020.0,RU,73.8282,57.1281,80.0,1685682751.0
342,Manavgat,73.02,58.0,4.5,304854.0,TR,31.4431,36.7867,100.0,1685682753.0
343,Cairns,81.28,64.0,12.66,2172797.0,AU,145.7667,-16.9167,100.0,1685682607.0
344,Klaksvík,47.32,88.0,11.9,2618795.0,FO,-6.589,62.2266,49.0,1685682526.0
345,Fonte Boa,72.07,99.0,2.89,6319315.0,BR,-66.2662,-2.4959,18.0,1685682759.0
346,Piaçabuçu,75.13,89.0,0.69,3454005.0,BR,-36.4344,-10.4056,53.0,1685682522.0
347,Havøysund,39.43,70.0,11.97,779622.0,NO,24.6622,70.9963,100.0,1685682763.0
348,Boden,44.6,50.0,12.59,606531.0,SE,21.6886,65.8252,36.0,1685682765.0
349,Nhulunbuy,83.01,69.0,12.66,2064735.0,AU,136.7667,-12.2333,40.0,1685682768.0
350,Kamenka,60.87,70.0,6.06,553766.0,RU,42.7678,51.3223,100.0,1685682770.0
351,Kazachinskoye,79.74,29.0,6.96,1504075.0,RU,93.2761,57.6953,88.0,1685682772.0
352,Geraldton,68.41,45.0,12.66,2070998.0,AU,114.6,-28.7667,1.0,1685682774.0
353,Maxixe,71.31,87.0,6.53,1039536.0,MZ,35.3472,-23.8597,68.0,1685682776.0
354,Leon Valley,75.87,78.0,9.22,4705923.0,US,-98.6186,29.4952,0.0,1685682778.0
355,Nome,37.47,49.0,10.36,5870133.0,US,-165.4064,64.5011,0.0,1685682780.0
356,Manokwari,83.89,72.0,4.68,1636308.0,ID,134.0833,-0.8667,28.0,1685682782.0
357,Grand-Santi,71.87,99.0,1.83,3381538.0,GF,-54.3833,4.25,28.0,1685682785.0
358,Faanui,76.69,64.0,11.77,4034551.0,PF,-151.75,-16.4833,38.0,1685682787.0
359,Clyde River,17.83,79.0,3.44,5924351.0,CA,-68.5914,70.4692,0.0,1685682789.0
360,Kosa,63.5,52.0,4.38,544318.0,RU,54.9977,59.9445,23.0,1685682791.0
361,Blackwater,78.24,35.0,9.89,2175403.0,AU,148.8833,-23.5833,0.0,1685682793.0
362,Assiniboia,62.42,88.0,3.44,5887798.0,CA,-105.9845,49.6334,99.0,1685682795.0
363,Bambous Virieux,77.25,61.0,12.66,1106677.0,MU,57.7575,-20.3428,40.0,1685682797.0
364,Arona,59.5,81.0,9.22,2521582.0,ES,-16.681,28.0996,40.0,1685682799.0
365,Belyy Yar,73.29,38.0,4.47,1510377.0,RU,91.3903,53.6039,0.0,1685682802.0
366,San Miguel,74.37,97.0,0.98,3583446.0,SV,-88.1833,13.4833,64.0,1685682804.0
367,Maniitsoq,31.51,78.0,15.21,3421982.0,GL,-52.9,65.4167,63.0,1685682806.0
368,Freeport,62.69,86.0,3.44,5117949.0,US,-73.5832,40.6576,0.0,1685682808.0
369,Constitución,56.32,99.0,8.14,3893726.0,CL,-72.4167,-35.3333,100.0,1685682810.0
370,Tarakan,89.1,66.0,4.61,1624725.0,ID,117.6333,3.3,20.0,1685682812.0
371,Nirmal,103.1,16.0,14.27,1261288.0,IN,78.35,19.1,10.0,1685682814.0
372,Zmeinogorsk,72.37,40.0,17.74,1485042.0,RU,82.195,51.1567,0.0,1685682816.0
373,Valparaíso,59.0,68.0,4.61,3868626.0,CL,-71.6273,-33.0393,100.0,1685682603.0
374,Caravelas,71.46,92.0,5.03,3466980.0,BR,-39.2481,-17.7125,32.0,1685682821.0
375,Torbay,42.6,97.0,5.75,6167817.0,CA,-52.7314,47.6666,100.0,1685682823.0
376,Le Port,77.65,74.0,5.21,935616.0,RE,55.2919,-20.9373,6.0,1685682825.0
377,Kumul,81.57,10.0,6.62,1529484.0,CN,93.45,42.8,42.0,1685682827.0
378,Inverell,73.11,45.0,5.01,2162662.0,AU,151.1167,-29.7833,20.0,1685682829.0
379,Tortolì,60.62,77.0,10.36,2522890.0,IT,9.6572,39.9256,20.0,1685682831.0
380,Beipiao,81.46,14.0,15.32,2038342.0,CN,120.7792,41.7919,2.0,1685682833.0
381,Novo Aripuanã,72.36,99.0,2.62,3663142.0,BR,-60.3797,-5.1206,65.0,1685682835.0
382,Akdepe,87.89,10.0,10.38,601551.0,TM,59.3788,42.0551,64.0,1685682838.0
383,Pangnirtung,15.82,91.0,5.5,6096551.0,CA,-65.7125,66.1451,63.0,1685682687.0
384,Komatipoort,58.05,86.0,3.94,988290.0,ZA,31.9548,-25.4332,61.0,1685682842.0
385,Kailua,73.99,89.0,4.0,5847486.0,US,-157.7394,21.4022,99.0,1685682844.0
386,Massakory,87.51,46.0,11.72,2428228.0,TD,15.7293,12.996,55.0,1685682846.0
387,Byron Bay,71.71,66.0,6.46,2172880.0,AU,153.6167,-28.65,15.0,1685682698.0
388,Dawson Creek,47.84,57.0,3.44,5935804.0,CA,-120.2362,55.7666,0.0,1685682850.0
389,Port-Gentil,77.5,89.0,13.4,2396518.0,GA,8.7815,-0.7193,90.0,1685682852.0
390,Augusto Corrêa,74.34,95.0,2.08,3406961.0,BR,-46.635,-1.0217,4.0,1685682855.0
391,Araouane,83.8,16.0,9.62,2460954.0,ML,-3.5265,18.9048,85.0,1685682858.0
392,Coahuayana Viejo,74.7,84.0,1.68,4013679.0,MX,-103.6833,18.7333,1.0,1685682860.0
393,Mount Gambier,53.55,81.0,5.08,2156643.0,AU,140.7667,-37.8333,70.0,1685682862.0
394,Swan River,60.69,88.0,9.22,6160362.0,CA,-101.2676,52.1058,4.0,1685682864.0
395,Bima,83.16,71.0,7.58,1648759.0,ID,118.7167,-8.4667,71.0,1685682866.0
396,Cherskiy,51.1,30.0,12.8,2126199.0,RU,161.3,68.75,62.0,1685682869.0
397,Adrar,75.58,23.0,10.16,2381972.0,MR,-10.0711,20.5022,99.0,1685682871.0
398,Egvekinot,31.82,71.0,4.14,4031742.0,RU,-179.1667,66.3167,74.0,1685682873.0
399,Comodoro Rivadavia,58.86,38.0,13.8,3860443.0,AR,-67.5,-45.8667,0.0,1685682875.0
400,Volchikha,79.72,24.0,11.34,1486983.0,RU,80.3833,52.0333,6.0,1685682877.0
401,Paita,73.71,84.0,7.05,3694112.0,PE,-81.1144,-5.0892,26.0,1685682879.0
402,Calama,50.49,16.0,20.71,3897347.0,CL,-68.9333,-22.4667,0.0,1685682848.0
403,Abalak,77.97,42.0,5.03,1512223.0,RU,68.5944,58.1286,47.0,1685682883.0
404,Atar,78.22,29.0,7.16,2381334.0,MR,-13.0499,20.5169,76.0,1685682886.0
405,Venado Tuerto,62.76,73.0,13.51,3833062.0,AR,-61.9688,-33.7456,98.0,1685682888.0
406,Ostrovnoy,38.77,97.0,20.49,556268.0,RU,39.5131,68.0531,100.0,1685682890.0
407,Praia,72.14,78.0,11.5,3374333.0,CV,-23.5087,14.9215,20.0,1685682892.0
408,Campoverde,75.6,84.0,1.16,3733380.0,PE,-74.8058,-8.4753,100.0,1685682894.0
409,Peebles,46.04,80.0,1.01,2640526.0,GB,-3.1888,55.6519,1.0,1685682896.0
410,Ngunguru,61.0,85.0,8.97,2186111.0,NZ,174.5,-35.6167,99.0,1685682898.0
411,Haines Junction,49.95,34.0,8.05,5969025.0,CA,-137.5108,60.7522,94.0,1685682900.0
412,Chernyshevsk,69.44,23.0,5.88,2025458.0,RU,117.0174,52.5243,83.0,1685682904.0
413,Makiyivka,63.28,58.0,4.07,702320.0,UA,37.9258,48.0478,2.0,1685682906.0
414,Petropavlovsk-Kamchatskiy,48.79,71.0,13.42,2122104.0,RU,158.6483,53.0452,75.0,1685682908.0
415,Los Llanos de Aridane,62.13,87.0,5.75,2514651.0,ES,-17.9182,28.6585,0.0,1685682910.0
416,Nuevo Progreso,74.89,75.0,1.95,3522526.0,MX,-97.95,23.1667,4.0,1685682913.0
417,Norsup,81.68,78.0,9.08,2135517.0,VU,167.3833,-16.0667,69.0,1685682915.0
418,Yulara,78.69,16.0,12.68,6355222.0,AU,130.9889,-25.2406,41.0,1685682917.0
419,Hohhot,75.49,23.0,6.71,2036892.0,CN,111.6522,40.8106,40.0,1685682919.0
420,Bowen,75.34,60.0,14.83,2174444.0,AU,148.2333,-20.0167,68.0,1685682921.0
421,Smoky Lake,57.76,82.0,3.44,6150293.0,CA,-112.4686,54.1169,99.0,1685682923.0
422,Angoram,86.7,64.0,4.63,2100765.0,PG,144.0661,-4.0625,88.0,1685682926.0
423,Itarema,76.71,89.0,8.12,3393692.0,BR,-39.9167,-2.9248,4.0,1685682928.0
424,La Asuncion,80.33,89.0,11.5,3480908.0,VE,-63.8628,11.0333,5.0,1685682930.0
425,Berlevåg,37.2,75.0,11.5,780687.0,NO,29.0864,70.8578,75.0,1685682932.0
426,Ambilobe,73.85,65.0,3.98,1082243.0,MG,49.05,-13.2,31.0,1685682934.0
427,Teya,78.66,32.0,8.08,1489656.0,RU,92.6267,60.3778,97.0,1685682937.0
428,Máncora,75.96,84.0,4.9,3695000.0,PE,-81.0475,-4.1078,83.0,1685682939.0
429,Crotone,68.2,71.0,5.88,2524881.0,IT,17.1178,39.0851,75.0,1685682941.0
430,Sechura,74.89,76.0,9.64,3691954.0,PE,-80.8222,-5.5569,25.0,1685682943.0
431,Tarko-Sale,70.66,61.0,33.91,1490085.0,RU,77.785,64.9225,61.0,1685682945.0
432,Yerofey Pavlovich,65.21,35.0,13.42,2012938.0,RU,121.9667,53.9667,98.0,1685682947.0
433,Doha,94.98,26.0,19.57,290030.0,QA,51.5333,25.2867,0.0,1685682740.0
434,Palmer,61.72,82.0,0.0,4946620.0,US,-72.3287,42.1584,0.0,1685682952.0
435,Darhan,67.89,30.0,8.16,2031964.0,MN,105.9228,49.4867,98.0,1685682954.0
436,Rantauprapat,89.83,60.0,2.08,1214073.0,ID,99.8333,2.1,100.0,1685682956.0
437,Arroyo de la Encomienda,51.82,87.0,4.61,3129371.0,ES,-4.7969,41.6096,71.0,1685682958.0
438,Keetmanshoop,49.82,24.0,6.29,3356264.0,NA,18.1333,-26.5833,18.0,1685682960.0
439,Staryy Nadym,61.29,71.0,24.09,1490918.0,RU,72.6842,65.6118,91.0,1685682962.0
440,Beloha,66.4,69.0,8.03,1067565.0,MG,45.05,-25.1667,0.0,1685682965.0
441,Kelvington,61.57,90.0,7.34,5990669.0,CA,-103.5343,52.1667,22.0,1685682967.0
442,Munger,104.41,14.0,13.42,1262482.0,IN,86.4667,25.3833,0.0,1685682969.0
443,Grindavik,46.87,100.0,9.22,3416888.0,IS,-22.4338,63.8424,100.0,1685682971.0
444,Kangaatsiaq,30.13,94.0,18.3,3422683.0,GL,-53.4641,68.3065,100.0,1685682973.0
445,Omsukchan,62.98,37.0,9.19,2122493.0,RU,155.8,62.5333,68.0,1685682975.0
446,Quzhou,87.71,62.0,4.09,1797264.0,CN,118.8686,28.9594,28.0,1685682978.0
447,Neijiang,69.13,87.0,6.76,1799491.0,CN,105.0622,29.5835,100.0,1685682980.0
448,Bonavista,41.92,99.0,5.61,5905393.0,CA,-53.1147,48.6499,100.0,1685682982.0
449,Pauini,72.27,99.0,1.95,3662927.0,BR,-66.9764,-7.7136,95.0,1685682984.0
450,Poso,89.04,59.0,5.73,1630723.0,ID,120.7524,-1.3959,57.0,1685682986.0
451,Hervey Bay,70.92,67.0,12.3,2146219.0,AU,152.8535,-25.2986,0.0,1685682989.0
452,Gambēla,71.22,95.0,3.87,337405.0,ET,34.5833,8.25,100.0,1685682991.0
453,Hede,88.68,33.0,16.73,1808744.0,CN,120.2517,33.7681,25.0,1685682993.0
454,Alice Springs,81.95,15.0,9.22,2077895.0,AU,133.8833,-23.7,0.0,1685682995.0
455,Tazmalt,64.06,77.0,2.51,2477537.0,DZ,4.3989,36.3868,99.0,1685682997.0
456,Mangaratiba,67.06,89.0,4.12,3457991.0,BR,-44.0406,-22.9597,14.0,1685682999.0
457,Porto-Novo,76.82,91.0,3.94,2392087.0,BJ,2.6036,6.4965,100.0,1685683001.0
458,Sabha,73.69,42.0,13.69,2212775.0,LY,14.4283,27.0377,0.0,1685683003.0
459,Salinópolis,78.33,87.0,7.16,3389822.0,BR,-47.3561,-0.6136,8.0,1685683006.0
460,Riyadh,89.74,23.0,4.72,108410.0,SA,46.7219,24.6877,88.0,1685682743.0
461,Jönköping,47.91,57.0,11.5,2702979.0,SE,14.1562,57.7814,0.0,1685683010.0
462,Yatou,72.09,46.0,16.28,1786855.0,CN,122.3833,37.15,52.0,1685683012.0
463,Jaru,71.2,97.0,1.72,3925040.0,BR,-62.4664,-10.4389,80.0,1685683014.0
464,Yashan,93.92,58.0,5.86,1786867.0,CN,109.9419,22.1975,14.0,1685683016.0
465,Bamiantong,67.37,43.0,9.13,2038482.0,CN,130.5333,44.9333,83.0,1685683018.0
466,Boa Vista,80.58,83.0,0.0,3664980.0,BR,-60.6733,2.8197,20.0,1685683020.0
467,Barra do Bugres,68.94,91.0,0.92,3470718.0,BR,-57.1811,-15.0725,3.0,1685683022.0
468,Butembo,61.41,81.0,2.26,217562.0,CD,29.2833,0.15,72.0,1685683025.0
469,Talaya,64.27,36.0,16.69,2120769.0,RU,152.75,61.3833,100.0,1685683027.0
470,Vengurla,88.65,58.0,10.51,1253257.0,IN,73.6333,15.8667,84.0,1685683029.0
471,Maracaçumé,71.83,97.0,1.41,3395497.0,BR,-45.9592,-2.0428,1.0,1685683031.0
472,Nouadhibou,66.18,100.0,13.8,2377457.0,MR,-17.0347,20.931,100.0,1685683033.0
473,La Celia,60.39,98.0,1.9,3679542.0,CO,-76.0167,5.0433,93.0,1685683035.0
474,Lüderitz,53.42,64.0,9.66,3355672.0,NA,15.1594,-26.6481,92.0,1685682943.0
475,Carutapera,75.94,91.0,4.09,3402648.0,BR,-46.02,-1.195,0.0,1685683040.0
476,Yauya,40.93,65.0,3.38,3690733.0,PE,-77.3,-8.9833,7.0,1685683042.0
477,Port Said,78.26,65.0,14.5,358619.0,EG,32.2841,31.2565,70.0,1685683044.0
478,Sambava,73.71,68.0,9.04,1056899.0,MG,50.1667,-14.2667,32.0,1685683046.0
479,Kafanchan,68.59,97.0,2.15,2335713.0,NG,8.3,9.5833,79.0,1685683048.0
480,Neftçala,74.1,61.0,4.81,147425.0,AZ,49.2472,39.3742,11.0,1685683051.0
481,Yhú,58.21,98.0,4.68,3436595.0,PY,-55.9167,-25.05,0.0,1685683053.0
482,Necochea,51.69,77.0,11.92,3430443.0,AR,-58.7368,-38.5473,85.0,1685683055.0
483,Muros,54.14,85.0,4.97,3115824.0,ES,-9.0603,42.7762,13.0,1685683057.0
484,Linxia Chengguanzhen,54.05,77.0,3.11,1803331.0,CN,103.2064,35.6003,100.0,1685683059.0
485,Tripoli,69.69,68.0,5.88,2210247.0,LY,13.1875,32.8752,81.0,1685683062.0
486,Ixtapa,78.03,73.0,4.61,4004293.0,MX,-105.2,20.7,100.0,1685683064.0
487,Santiago del Estero,67.78,71.0,9.35,3835869.0,AR,-64.2615,-27.7951,87.0,1685683066.0
488,Uribia,82.81,75.0,10.04,3666409.0,CO,-72.266,11.7139,94.0,1685683068.0
489,Rome,63.64,73.0,0.0,5134295.0,US,-75.4557,43.2128,20.0,1685683070.0
490,Xuanzhou,88.48,49.0,5.61,1788081.0,CN,118.7553,30.9525,4.0,1685683072.0
491,Arrondissement de Muret,54.3,97.0,2.35,2991152.0,FR,1.25,43.3333,34.0,1685683074.0
492,Orlik,56.21,43.0,5.86,1496073.0,RU,99.825,52.5178,74.0,1685683077.0
493,Toyoake,71.73,96.0,21.0,1856057.0,JP,137.0137,35.0594,100.0,1685682890.0
494,Ibrā’,90.91,33.0,5.44,287832.0,OM,58.5334,22.6906,1.0,1685683081.0
495,Ayagoz,72.75,28.0,13.91,1525988.0,KZ,80.4392,47.9714,0.0,1685683083.0
496,Deputatsky,52.39,36.0,3.06,2028164.0,RU,139.9,69.3,25.0,1685683085.0
497,Moyale,67.35,82.0,7.83,186180.0,KE,39.0584,3.5167,67.0,1685683087.0
498,Gresik,89.51,55.0,1.54,1643776.0,ID,112.6561,-7.1539,100.0,1685683089.0
499,Tsushima,71.33,99.0,6.82,1849539.0,JP,136.7167,35.1667,100.0,1685683091.0
500,Boralday,76.86,19.0,8.95,1526384.0,KZ,76.8594,43.3578,40.0,1685683094.0
501,Mahina,74.97,57.0,6.91,4034307.0,PF,-149.489,-17.5065,20.0,1685683096.0
502,Ust-Maya,67.86,49.0,2.37,2013918.0,RU,134.5333,60.4167,98.0,1685683098.0
503,General Pico,60.73,88.0,12.48,3855075.0,AR,-63.7568,-35.6566,43.0,1685683101.0
504,Labuan,88.16,70.0,3.44,1733782.0,MY,115.2417,5.2767,20.0,1685683103.0
505,Saint Anthony,72.21,72.0,9.22,5044290.0,US,-93.218,45.0205,40.0,1685683105.0
506,Iqaluit,28.13,86.0,11.5,5983720.0,CA,-68.5145,63.7506,100.0,1685683107.0
507,Haapiti,74.71,64.0,11.79,4034438.0,PF,-149.8667,-17.5667,12.0,1685683109.0
508,Sarankhola,102.96,30.0,3.98,1185239.0,BD,89.7897,22.3082,6.0,1685683111.0
509,Odienné,72.66,94.0,3.4,2283016.0,CI,-7.5692,9.51,98.0,1685683115.0
510,Miles City,65.37,72.0,4.61,5666176.0,US,-105.8406,46.4083,75.0,1685682845.0
511,Daru,78.82,87.0,16.04,2098329.0,PG,143.2092,-9.0763,75.0,1685682984.0
512,Umm Kaddadah,81.73,55.0,8.66,364933.0,SD,26.6876,13.6017,62.0,1685683121.0
513,Skegness,50.99,79.0,15.05,2637762.0,GB,0.3363,53.1436,53.0,1685683123.0
514,Saint-François,51.24,93.0,2.3,2980080.0,FR,3.9054,46.4154,0.0,1685683125.0
515,Semey,80.82,19.0,11.18,1519422.0,KZ,80.2275,50.4111,0.0,1685683127.0
516,Esperance,58.91,73.0,24.4,2071860.0,AU,121.9,-33.8667,100.0,1685683129.0
517,Selkirk,67.26,87.0,1.99,6144054.0,CA,-96.8845,50.1436,28.0,1685683132.0
518,Mahajanga,72.57,60.0,11.39,1062663.0,MG,46.3167,-15.7167,0.0,1685683134.0
519,Ruwi,101.89,40.0,5.03,287286.0,OM,58.5507,23.5996,86.0,1685683136.0
520,Pucallpa,73.72,89.0,0.54,3693345.0,PE,-74.5539,-8.3791,74.0,1685683138.0
521,Ginda,72.61,39.0,5.35,1253628.0,IN,78.4932,30.6945,98.0,1685683140.0
522,Hare Bay,44.2,98.0,3.0,5970873.0,CA,-54.0148,48.8499,98.0,1685683142.0
523,Kabalo,68.4,61.0,3.98,215668.0,CD,26.9167,-6.05,88.0,1685683144.0
524,Cockburn Town,81.39,78.0,5.88,3576994.0,TC,-71.1419,21.4612,92.0,1685683146.0
525,Kolomyia,61.72,79.0,1.9,705392.0,UA,25.0403,48.5306,22.0,1685683149.0
526,Odawara,73.6,93.0,19.51,1854747.0,JP,139.1597,35.2556,100.0,1685683151.0
527,Santa Cruz de la Sierra,67.46,94.0,3.44,3904906.0,BO,-63.1667,-17.8,75.0,1685682899.0
528,Derzhavīnsk,88.79,18.0,13.06,1524606.0,KZ,66.3167,51.1,66.0,1685683155.0
529,Raduzhny,77.11,46.0,21.25,1540356.0,RU,77.475,62.0961,48.0,1685683157.0
530,Gulariyā,99.77,19.0,10.02,1283368.0,NP,81.3333,28.2333,11.0,1685683160.0
531,Oudtshoorn,52.16,81.0,5.59,967106.0,ZA,22.2014,-33.5907,82.0,1685683162.0
532,Ruteng,72.28,65.0,1.3,1629380.0,ID,120.4721,-8.6136,100.0,1685683164.0
533,Sokolac,52.57,94.0,0.98,3190385.0,BA,18.8017,43.9397,75.0,1685683166.0
534,Jieshi,86.2,77.0,13.04,1805857.0,CN,115.8257,22.8134,4.0,1685683168.0
535,Porto Velho,73.45,94.0,2.3,3662762.0,BR,-63.9039,-8.7619,40.0,1685683170.0
536,Olinda,78.53,83.0,8.05,3393536.0,BR,-34.8553,-8.0089,75.0,1685683173.0
537,Vallenar,57.72,78.0,3.09,3868633.0,CL,-70.7581,-28.5708,72.0,1685683175.0
538,Bud,66.65,76.0,5.77,4255151.0,US,-86.1758,39.447,0.0,1685683177.0
539,Dhārchula,82.87,29.0,7.11,1272864.0,IN,80.5333,29.85,46.0,1685683179.0
540,Mabaruma,73.51,99.0,2.48,3377301.0,GY,-59.7833,8.2,13.0,1685683181.0
541,Nemuro,53.62,95.0,19.42,2128975.0,JP,145.575,43.3236,100.0,1685683184.0
542,Caucayá,70.47,100.0,2.26,3671437.0,CO,-74.7819,-0.1934,94.0,1685683186.0
543,Vanderhoof,52.2,55.0,4.14,6173361.0,CA,-124.0198,54.0166,89.0,1685683188.0
544,Maravilha,52.83,91.0,2.95,3457809.0,BR,-53.1725,-26.7608,0.0,1685683190.0
545,Nanlong,65.66,91.0,7.74,1799908.0,CN,106.0631,31.3533,100.0,1685683192.0
546,Seryshevo,59.04,66.0,10.11,2016942.0,RU,128.3786,51.0933,100.0,1685683194.0
547,Les Cayes,78.96,85.0,4.0,3728097.0,HT,-73.75,18.2,100.0,1685683196.0
548,Lagoa,63.81,84.0,12.5,3372964.0,PT,-27.9833,39.05,48.0,1685683198.0
549,Pacifica,53.17,85.0,14.0,5380420.0,US,-122.4869,37.6138,20.0,1685683200.0
550,Northam,50.18,86.0,12.82,2641434.0,GB,-4.2167,51.0333,7.0,1685683203.0
551,Rio Grande,61.92,91.0,5.44,3451138.0,BR,-52.0986,-32.035,0.0,1685683205.0
552,Gejiu,79.7,39.0,8.37,1810240.0,CN,103.1635,23.306,97.0,1685683207.0
553,Opuwo,57.43,53.0,3.69,3354077.0,NA,13.84,-18.0607,0.0,1685683209.0
554,La Ronge,59.25,82.0,8.05,6050066.0,CA,-105.2842,55.1001,75.0,1685683211.0
555,Yazykovo,69.75,80.0,13.04,468483.0,RU,56.1353,55.2199,100.0,1685683214.0
556,Batticaloa,86.79,65.0,1.48,1250161.0,LK,81.6924,7.7102,99.0,1685683216.0
557,Khasan,63.21,66.0,1.57,2039557.0,RU,130.6434,42.4308,100.0,1685683218.0
558,Kattivākkam,95.07,61.0,3.0,1267433.0,IN,80.3167,13.2167,70.0,1685683220.0
559,Arrondissement de Saint-Denis,51.98,82.0,14.97,2980915.0,FR,2.3333,48.9167,100.0,1685683222.0
560,Ende,82.45,68.0,6.13,1644932.0,ID,121.6623,-8.8432,71.0,1685683224.0
561,Harlingen,79.32,90.0,8.05,4696233.0,US,-97.6961,26.1906,75.0,1685683118.0
562,Zhicheng,82.6,59.0,6.26,1784554.0,CN,111.5047,30.2956,99.0,1685683229.0
563,Havelock,68.27,92.0,10.36,4470244.0,US,-76.9013,34.8791,100.0,1685683231.0
564,Madimba,74.73,88.0,7.11,878141.0,TZ,40.3333,-10.4,8.0,1685683233.0
565,Pacific Grove,53.26,84.0,6.91,5380437.0,US,-121.9166,36.6177,100.0,1685683157.0
566,Esim,76.95,86.0,2.3,2303611.0,GH,-2.2405,4.8699,97.0,1685683237.0
567,Gorontalo,89.13,62.0,9.62,1643837.0,ID,123.0595,0.5412,47.0,1685683239.0
568,Vaitape,76.66,64.0,11.65,4033077.0,PF,-151.75,-16.5167,37.0,1685683241.0
569,Ottawa,71.94,62.0,6.91,6094817.0,CA,-75.6981,45.4112,20.0,1685683063.0
570,Petropavl,78.78,44.0,6.71,1520172.0,KZ,69.1628,54.8753,0.0,1685683246.0
571,Bossangoa,70.75,91.0,3.89,2388036.0,CF,17.4552,6.4926,99.0,1685683248.0
572,Lavrentiya,30.29,78.0,4.83,4031637.0,RU,-171.0,65.5833,23.0,1685683250.0
573,Muskegon,69.49,80.0,0.0,5003136.0,US,-86.1334,43.3,0.0,1685683192.0
574,Lālmohan,90.77,61.0,9.06,1185251.0,BD,90.7419,22.3384,6.0,1685683254.0
575,Gainesville,69.39,71.0,6.91,4156404.0,US,-82.3248,29.6516,0.0,1685683256.0
