,City,Temp_max,Humidity,wind_speed,city_id,country_code,long,lat,Cloudiness,datetime
0,Flin Flon,58.66,71.0,8.08,5954718.0,CA,-101.865,54.7682,4.0,1685520002.0
1,Severo-Kuril'sk,38.43,97.0,9.62,2121385.0,RU,156.125,50.6789,100.0,1685520005.0
2,Codrington,62.8,61.0,16.62,2171099.0,AU,141.9667,-38.2667,52.0,1685520008.0
3,Bredasdorp,58.28,91.0,3.74,1015776.0,ZA,20.0403,-34.5322,99.0,1685520012.0
4,Kindersley,60.82,67.0,9.22,5992154.0,CA,-109.1682,51.4668,20.0,1685520015.0
5,Kavieng,83.41,76.0,5.91,2094342.0,PG,150.7967,-2.5744,96.0,1685520017.0
6,Brae,49.24,88.0,14.63,2654970.0,GB,-1.353,60.3964,100.0,1685520020.0
7,Hithadhoo,82.96,78.0,12.1,1282256.0,MV,73.0833,-0.6,99.0,1685520022.0
8,Ponta Delgada,63.32,88.0,12.66,3372783.0,PT,-25.6667,37.7333,20.0,1685520024.0
9,Kaitangata,45.37,90.0,4.45,2208248.0,NZ,169.8464,-46.2817,45.0,1685520027.0
10,Neiafu,78.35,80.0,18.52,4032420.0,TO,-173.9833,-18.65,33.0,1685520029.0
11,Busselton,64.08,76.0,10.36,2075265.0,AU,115.3333,-33.65,100.0,1685520032.0
12,Kudahuvadhoo,83.08,74.0,11.86,1337607.0,MV,72.8944,2.6708,100.0,1685520034.0
13,Port Macquarie,57.88,59.0,5.1,2152659.0,AU,152.9167,-31.4333,98.0,1685519876.0
14,Jamestown,58.01,91.0,8.05,5122534.0,US,-79.2353,42.097,0.0,1685520039.0
15,Nantucket,48.47,96.0,6.91,4944903.0,US,-70.0995,41.2835,0.0,1685519778.0
16,São João da Barra,68.4,88.0,2.33,3448903.0,BR,-41.0511,-21.6403,99.0,1685519745.0
17,Castlebar,58.66,66.0,4.16,2965654.0,IE,-9.3,53.85,6.0,1685520045.0
18,Katobu,78.73,91.0,7.63,1640972.0,ID,122.5276,-4.9408,100.0,1685520048.0
19,Port Lincoln,63.14,61.0,12.53,2063036.0,AU,135.8667,-34.7333,55.0,1685520050.0
20,Padampur,88.23,40.0,9.46,1260938.0,IN,73.6167,29.6833,95.0,1685520052.0
21,Cayenne,73.44,94.0,0.0,3382160.0,GF,-52.3333,4.9333,0.0,1685520054.0
22,Norman Wells,48.24,93.0,2.3,6089245.0,CA,-126.8329,65.282,75.0,1685520056.0
23,Upernavik,30.65,98.0,4.14,3418910.0,GL,-56.1549,72.7868,100.0,1685520058.0
24,Ushuaia,47.86,71.0,14.97,3833367.0,AR,-68.3,-54.8,0.0,1685520060.0
25,Tasiilaq,35.76,74.0,3.2,3424607.0,GL,-37.6368,65.6145,99.0,1685520062.0
26,Thunder Bay,53.51,82.0,0.0,6166142.0,CA,-89.3168,48.4001,100.0,1685519944.0
27,Provideniya,43.45,69.0,3.15,4031574.0,RU,-173.3,64.3833,34.0,1685520067.0
28,Cap Malheureux,80.47,59.0,3.0,934649.0,MU,57.6142,-19.9842,0.0,1685520069.0
29,West Wendover,61.81,39.0,0.0,5710035.0,US,-114.0733,40.7391,0.0,1685520071.0
30,Tautira,76.95,84.0,20.42,4033557.0,PF,-149.15,-17.7333,94.0,1685520073.0
31,Avarua,69.85,56.0,5.75,4035715.0,CK,-159.775,-21.2078,15.0,1685520075.0
32,Punta Arenas,44.71,81.0,9.22,3874787.0,CL,-70.9167,-53.15,75.0,1685520011.0
33,Ozernovskiy,39.31,95.0,8.79,2122293.0,RU,156.5167,51.5,100.0,1685520080.0
34,Aksu,84.69,14.0,4.99,1529660.0,CN,80.2644,41.1231,100.0,1685519888.0
35,Arrondissement d'Ajaccio,66.18,60.0,3.44,3038333.0,FR,8.9167,42.0,75.0,1685520084.0
36,Cabedelo,74.07,94.0,5.75,3404558.0,BR,-34.8339,-6.9811,66.0,1685520027.0
37,Dikson,32.07,96.0,8.25,1507390.0,RU,80.5464,73.5069,100.0,1685520088.0
38,Hobart,54.48,86.0,10.36,2163355.0,AU,147.3294,-42.8794,75.0,1685520005.0
39,Vestmannaeyjar,43.79,93.0,14.97,3412093.0,IS,-20.2734,63.4427,100.0,1685520092.0
40,Alofi,67.89,94.0,1.14,4036284.0,NU,-169.9187,-19.0595,87.0,1685520094.0
41,Carnarvon,74.75,55.0,10.25,2074865.0,AU,113.6333,-24.8667,0.0,1685520097.0
42,Saint-Philippe,78.39,75.0,9.33,935215.0,RE,55.7679,-21.3585,28.0,1685520099.0
43,Cabra,63.93,68.0,2.42,2520645.0,ES,-4.4421,37.4725,1.0,1685520043.0
44,Feldbach,64.98,93.0,1.92,2779685.0,AT,15.8883,46.9531,100.0,1685520103.0
45,Tual,81.55,83.0,20.45,1623197.0,ID,132.75,-5.6667,30.0,1685520105.0
46,Longyearbyen,33.64,93.0,8.05,2729907.0,SJ,15.6401,78.2186,75.0,1685520107.0
47,Dukat,57.06,44.0,4.94,2125906.0,RU,155.55,62.55,35.0,1685520109.0
48,Jalu,96.64,12.0,10.58,86049.0,LY,21.5482,29.0331,83.0,1685520112.0
49,Vaini,75.36,94.0,8.05,4032243.0,TO,-175.2,-21.2,20.0,1685520114.0
50,Albany,52.27,68.0,3.49,5106841.0,US,-73.9662,42.6001,5.0,1685519896.0
51,Karaton,88.48,54.0,2.3,1630058.0,ID,106.1045,-6.3424,47.0,1685520118.0
52,Saldanha,57.25,90.0,10.2,3361934.0,ZA,17.9442,-33.0117,69.0,1685520120.0
53,Castro,54.18,99.0,3.02,3466704.0,BR,-50.0119,-24.7911,100.0,1685520137.0
54,Inhambane,78.01,61.0,14.0,1045114.0,MZ,35.3833,-23.865,20.0,1685520139.0
55,Mataura,49.86,81.0,4.92,6201424.0,NZ,168.8643,-46.1927,57.0,1685520142.0
56,Puerto Ayora,77.56,97.0,5.01,3652764.0,EC,-90.3518,-0.7393,100.0,1685520144.0
57,Arraial do Cabo,69.71,84.0,16.58,3471451.0,BR,-42.0278,-22.9661,88.0,1685520146.0
58,Obihiro,70.21,30.0,8.05,2128815.0,JP,143.2044,42.9172,20.0,1685520148.0
59,Penzance,54.63,82.0,11.5,2640377.0,GB,-5.5371,50.1186,75.0,1685520150.0
60,Butaritari,83.97,69.0,2.91,2110227.0,KI,172.7902,3.0707,16.0,1685520152.0
61,Rikitea,77.04,83.0,25.48,4030556.0,PF,-134.9692,-23.1203,100.0,1685520155.0
62,Namatanai,81.32,84.0,8.39,2090021.0,PG,152.4333,-3.6667,50.0,1685520157.0
63,Isangel,73.89,74.0,12.37,2136825.0,VU,169.2667,-19.55,99.0,1685520159.0
64,Saint George,67.86,22.0,5.75,5546220.0,US,-113.5841,37.1041,0.0,1685520015.0
65,Kruisfontein,60.89,78.0,5.35,986717.0,ZA,24.7314,-34.0033,94.0,1685520163.0
66,Mwinilunga,76.14,40.0,6.11,902620.0,ZM,24.4293,-11.7358,81.0,1685520165.0
67,Port Alfred,64.18,77.0,4.0,964432.0,ZA,26.891,-33.5906,86.0,1685520167.0
68,Marzuq,88.47,33.0,10.6,72181.0,YE,46.4667,14.4,26.0,1685520170.0
69,Puerto Escondido,82.74,78.0,6.06,3520994.0,MX,-97.0667,15.85,93.0,1685520172.0
70,Sivaki,59.49,50.0,4.74,2016477.0,RU,126.75,52.6333,100.0,1685520174.0
71,Yellowknife,54.12,43.0,8.05,6185377.0,CA,-114.3525,62.456,75.0,1685520176.0
72,Canchungo,82.53,78.0,6.76,2373951.0,GW,-16.0333,12.0672,100.0,1685520178.0
73,Östersund,45.05,39.0,23.02,2685750.0,SE,14.6357,63.1792,75.0,1685520180.0
74,Fort Nelson,50.95,52.0,8.05,5955902.0,CA,-122.7002,58.8053,75.0,1685520182.0
75,Castelo Branco,65.23,75.0,0.49,2269514.0,PT,-7.4909,39.8222,15.0,1685520070.0
76,Black River,77.67,90.0,6.08,3491355.0,JM,-77.8487,18.0264,100.0,1685520186.0
77,Atuona,80.82,79.0,14.76,4020109.0,PF,-139.0333,-9.8,30.0,1685520189.0
78,Birao,91.24,43.0,4.65,240210.0,CF,22.7882,10.2849,22.0,1685520191.0
79,Ekhabi,35.28,96.0,10.42,2122614.0,RU,142.9671,53.5102,100.0,1685520193.0
80,Barrow,32.02,93.0,6.91,5880054.0,US,-156.7887,71.2906,100.0,1685520003.0
81,Hilo,69.51,94.0,7.0,5855927.0,US,-155.09,19.7297,100.0,1685520197.0
82,Mehamn,44.55,87.0,3.44,778707.0,NO,27.8492,71.0357,75.0,1685520199.0
83,Shingū,68.43,75.0,2.28,1847947.0,JP,135.9833,33.7333,100.0,1685520201.0
84,George Town,91.15,66.0,10.36,1735106.0,MY,100.3354,5.4112,20.0,1685520046.0
85,Russell,64.45,94.0,3.44,4047434.0,US,-85.1999,32.3502,0.0,1685520205.0
86,Sidhi,104.74,18.0,9.98,1256369.0,IN,81.8833,24.4167,16.0,1685520208.0
87,Laramie,45.88,76.0,8.5,5830062.0,US,-105.5911,41.3114,3.0,1685520073.0
88,Bluff,52.97,80.0,13.91,2206939.0,NZ,168.3333,-46.6,99.0,1685520080.0
89,Bayir,70.32,59.0,3.38,304183.0,TR,28.2167,37.2687,10.0,1685520214.0
90,Vila Velha,67.95,93.0,0.0,3445026.0,BR,-40.2925,-20.3297,75.0,1685520031.0
91,Kapaa,71.53,88.0,1.99,5848280.0,US,-159.319,22.0752,7.0,1685520218.0
92,Margate,56.32,77.0,10.0,2643044.0,GB,1.3862,51.3813,66.0,1685520149.0
93,Kamaishi,62.49,67.0,8.21,2112444.0,JP,141.8833,39.2667,60.0,1685520222.0
94,Stăncuţa,75.78,40.0,11.43,666309.0,RO,27.8333,44.9,7.0,1685520224.0
95,Ankang,75.9,87.0,3.78,1789065.0,CN,109.0172,32.68,100.0,1685520227.0
96,Port Elizabeth,63.21,74.0,5.75,964420.0,ZA,25.5701,-33.918,0.0,1685520016.0
97,Morant Bay,82.02,86.0,7.92,3489440.0,JM,-76.4093,17.8815,100.0,1685520231.0
98,São Miguel,75.97,93.0,10.13,3388304.0,BR,-35.3667,-5.4667,51.0,1685520233.0
99,Guerrero Negro,58.64,81.0,17.43,4021858.0,MX,-114.0611,27.9769,6.0,1685520235.0
100,Husavik,46.65,68.0,1.57,2629833.0,IS,-17.3389,66.0449,6.0,1685520237.0
101,Ahipara,51.82,78.0,7.54,2194098.0,NZ,173.1667,-35.1667,2.0,1685520239.0
102,Saint Paul Harbor,42.31,87.0,3.44,5866583.0,US,-152.4072,57.79,100.0,1685520241.0
103,Mahébourg,80.89,57.0,11.5,934322.0,MU,57.7,-20.4081,20.0,1685520244.0
104,Mount Isa,76.77,20.0,4.61,2065594.0,AU,139.5,-20.7333,1.0,1685520246.0
105,Te Anau,50.43,94.0,5.03,2181625.0,NZ,167.7167,-45.4167,100.0,1685520248.0
106,Alenquer,72.63,96.0,3.6,3407980.0,BR,-54.7383,-1.9417,15.0,1685520250.0
107,São Miguel do Araguaia,73.18,61.0,1.61,3448455.0,BR,-50.1628,-13.275,79.0,1685520252.0
108,Kriel,59.81,68.0,11.63,987202.0,ZA,29.2253,-26.2739,91.0,1685520254.0
109,Marsh Harbour,78.64,79.0,8.23,3571913.0,BS,-77.0636,26.5412,100.0,1685520007.0
110,Souillac,80.98,57.0,11.5,933995.0,MU,57.5167,-20.5167,20.0,1685520258.0
111,Tigil',55.36,57.0,18.86,2120612.0,RU,158.6667,57.8,100.0,1685520260.0
112,Kaeo,50.32,91.0,5.19,2189343.0,NZ,173.7833,-35.1,15.0,1685520263.0
113,Cape Town,58.15,92.0,5.75,3369157.0,ZA,18.4232,-33.9258,100.0,1685520265.0
114,Cidreira,62.33,75.0,3.69,3466165.0,BR,-50.2056,-30.1811,51.0,1685519980.0
115,Khatanga,48.45,57.0,11.72,2022572.0,RU,102.5,71.9667,67.0,1685520269.0
116,Karlshamn,66.69,53.0,14.16,2701727.0,SE,14.8619,56.1706,22.0,1685520271.0
117,Pevek,31.82,83.0,6.11,2122090.0,RU,170.3133,69.7008,99.0,1685520273.0
118,Mar del Plata,53.6,86.0,6.91,3430863.0,AR,-57.5575,-38.0023,0.0,1685520008.0
119,Gobabis,57.27,27.0,3.94,3357247.0,NA,18.9667,-22.45,2.0,1685520277.0
120,Gaoyou,82.11,56.0,3.27,1810309.0,CN,119.4278,32.7858,43.0,1685520279.0
121,Bethel,43.93,84.0,4.61,5282297.0,US,-73.414,41.3712,0.0,1685520282.0
122,Santa Maria da Vitória,68.88,71.0,5.23,3450063.0,BR,-44.1886,-13.3947,35.0,1685520170.0
123,Banda Aceh,83.21,70.0,13.62,1215502.0,ID,95.3222,5.5577,100.0,1685520286.0
124,Georgiyevka,84.24,23.0,8.95,1524243.0,KZ,74.7114,43.0369,0.0,1685520288.0
125,Zonguldak,65.25,72.0,3.06,737021.0,TR,31.8333,41.25,97.0,1685520290.0
126,Booué,80.17,83.0,1.34,2401495.0,GA,11.9385,-0.0921,91.0,1685520292.0
127,Siyabuswa,67.42,56.0,7.94,955313.0,ZA,29.0445,-25.1132,2.0,1685520294.0
128,Dunedin,51.08,77.0,5.57,2191562.0,NZ,170.5036,-45.8742,100.0,1685520296.0
129,Roald,48.69,87.0,6.91,3141667.0,NO,6.1333,62.5833,75.0,1685520298.0
130,Tweed,56.21,82.0,1.48,6170799.0,CA,-77.3162,44.4751,0.0,1685520300.0
131,Nanortalik,39.96,99.0,15.84,3421765.0,GL,-45.2371,60.1432,100.0,1685520303.0
132,Port Blair,89.64,66.0,10.36,1259385.0,IN,92.75,11.6667,40.0,1685520305.0
133,Lubango,69.4,33.0,3.36,3347762.0,AO,13.4925,-14.9172,3.0,1685520209.0
134,Shumskiy,61.07,57.0,5.44,1491977.0,RU,99.1328,54.8318,100.0,1685520309.0
135,San Cristobal,66.67,99.0,4.45,3628473.0,VE,-72.225,7.7669,100.0,1685520311.0
136,Nioro,80.37,71.0,9.55,2412408.0,GM,-15.75,13.35,100.0,1685520313.0
137,Thompson,48.36,100.0,5.75,6165406.0,CA,-97.8558,55.7435,100.0,1685520166.0
138,Manaus,79.29,89.0,2.3,3663517.0,BR,-60.025,-3.1019,20.0,1685520231.0
139,Laguna,55.04,82.0,9.22,5364271.0,US,-121.4238,38.421,0.0,1685520320.0
140,Hermanus,60.8,88.0,2.42,3366880.0,ZA,19.2345,-34.4187,86.0,1685520322.0
141,Westport,46.92,92.0,5.75,4845585.0,US,-73.3579,41.1415,100.0,1685520324.0
142,Dicabisagan,91.04,59.0,5.3,1715015.0,PH,122.4157,17.0818,100.0,1685520326.0
143,Newport,53.62,80.0,17.56,2641598.0,GB,-2.9984,51.5877,100.0,1685520328.0
144,Tateyama,63.36,87.0,7.85,1850523.0,JP,139.8667,34.9833,100.0,1685520330.0
145,Kuznechikha,67.08,59.0,3.89,537760.0,RU,42.3348,57.2161,40.0,1685520333.0
146,Poum,75.15,68.0,9.6,2138555.0,NC,164.0167,-20.2333,100.0,1685520335.0
147,Chokurdakh,32.04,65.0,10.47,2126123.0,RU,147.9167,70.6333,10.0,1685520337.0
148,Coquimbo,53.33,93.0,9.22,3893629.0,CL,-71.3436,-29.9533,0.0,1685520072.0
149,Ust-Nera,65.14,29.0,7.58,2120048.0,RU,143.2,64.5667,33.0,1685520341.0
150,Kavaratti,85.64,69.0,4.74,1267390.0,IN,72.642,10.5669,100.0,1685520343.0
151,Eruwa,81.45,75.0,5.26,2338669.0,NG,3.4167,7.5333,93.0,1685520345.0
152,Polyarny,45.1,78.0,13.96,506763.0,RU,33.4478,69.1989,100.0,1685520347.0
153,Ribeira Grande,64.8,77.0,15.01,3372707.0,PT,-28.7,38.5167,20.0,1685520349.0
154,Kalemie,79.45,56.0,14.05,214974.0,CD,29.1947,-5.9475,1.0,1685520352.0
155,Tuktoyaktuk,39.74,77.0,3.24,6170031.0,CA,-133.0374,69.4541,66.0,1685520354.0
156,Tomatlán,71.15,90.0,2.62,3981391.0,MX,-105.25,19.9333,0.0,1685520356.0
157,Bratca,67.8,71.0,1.79,683837.0,RO,22.6167,46.9333,88.0,1685520358.0
158,Chiang Khong,106.02,24.0,4.59,1611197.0,TH,100.4046,20.2613,21.0,1685520360.0
159,Gijang,76.73,67.0,12.37,1842966.0,KR,129.2139,35.2442,17.0,1685520362.0
160,Vao,72.23,70.0,20.62,2137773.0,NC,167.4833,-22.6667,71.0,1685520364.0
161,Marawi,78.55,73.0,8.14,1701054.0,PH,124.2928,7.9986,100.0,1685520366.0
162,Kununurra,84.18,17.0,6.91,2068110.0,AU,128.7333,-15.7667,97.0,1685520368.0
163,Ponta do Sol,68.94,81.0,8.86,2264557.0,PT,-17.1,32.6667,60.0,1685520371.0
164,Vanimo,82.11,81.0,3.62,2084442.0,PG,141.3028,-2.6741,91.0,1685520373.0
165,Kenai,44.46,82.0,12.66,5866063.0,US,-151.2583,60.5544,100.0,1685520375.0
166,Tarnogskiy Gorodok,66.34,53.0,4.21,484314.0,RU,43.5761,60.4997,30.0,1685520377.0
167,Tottori-shi,68.07,68.0,20.71,1849892.0,JP,134.2333,35.5,20.0,1685520379.0
168,Baracoa,77.41,88.0,1.72,3567834.0,CU,-74.4958,20.3467,100.0,1685520381.0
169,Krasnyy Kholm,54.36,64.0,10.07,541704.0,RU,37.1203,58.0607,97.0,1685520384.0
170,Nabire,82.06,86.0,3.71,1634614.0,ID,135.4833,-3.3667,100.0,1685520386.0
171,Zaysan,65.32,39.0,12.21,1517060.0,KZ,84.8667,47.4667,1.0,1685520388.0
172,New Norfolk,51.49,73.0,3.0,2155415.0,AU,147.0587,-42.7826,97.0,1685520390.0
173,Muhos,51.58,87.0,8.1,645765.0,FI,25.9931,64.808,100.0,1685520392.0
174,Sabzawār,90.68,13.0,13.8,118063.0,IR,57.6819,36.2126,0.0,1685520394.0
175,Catuday,83.7,79.0,18.34,1717787.0,PH,119.8062,16.2923,100.0,1685520396.0
176,Enshi,85.87,66.0,2.86,1811720.0,CN,109.4833,30.3,57.0,1685520398.0
177,Timiryazevskiy,81.91,20.0,5.55,1489597.0,RU,84.8769,56.49,21.0,1685520401.0
178,Aklavik,48.43,90.0,7.65,5882953.0,CA,-135.0107,68.2191,100.0,1685520403.0
179,Pochutla,75.81,80.0,4.7,3517970.0,MX,-96.4661,15.7432,38.0,1685520405.0
180,Bathsheba,80.26,81.0,13.15,3374083.0,BB,-59.5167,13.2167,59.0,1685520407.0
181,Salalah,91.49,62.0,13.8,286621.0,OM,54.0924,17.0151,20.0,1685520409.0
182,Airai,66.02,71.0,3.71,1651810.0,TL,125.4092,-8.9266,91.0,1685520411.0
183,Fuyang,84.47,43.0,7.83,1810845.0,CN,115.8167,32.9,59.0,1685520413.0
184,Makakilo City,73.54,73.0,9.22,5850554.0,US,-158.0858,21.3469,0.0,1685520415.0
185,Impfondo,72.81,96.0,1.43,2259655.0,CG,18.0667,1.6381,100.0,1685520417.0
186,Anloga,83.28,74.0,8.88,2304548.0,GH,0.8973,5.7947,100.0,1685520420.0
187,Chui,54.18,90.0,2.33,3443061.0,UY,-53.4616,-33.6971,0.0,1685520422.0
188,Nishihara,81.9,87.0,25.32,1855342.0,JP,127.7558,26.1842,100.0,1685520424.0
189,Bariloche,47.25,92.0,6.31,7647007.0,AR,-71.3082,-41.1456,100.0,1685520426.0
190,Kristianstad,66.34,55.0,16.11,2699310.0,SE,14.1524,56.0313,0.0,1685520428.0
191,Cabo San Lucas,71.19,79.0,17.4,3985710.0,MX,-109.9124,22.8909,0.0,1685520430.0
192,Hunchun,72.66,35.0,10.87,2036653.0,CN,130.3581,42.8675,98.0,1685520433.0
193,Aykhal,42.96,49.0,11.34,2027296.0,RU,111.5,66.0,7.0,1685520435.0
194,Nchelenge,75.76,47.0,2.08,175499.0,ZM,28.734,-9.3451,29.0,1685520437.0
195,Hobyo,88.05,63.0,18.95,57000.0,SO,48.5268,5.3505,92.0,1685520439.0
196,Pechenga,43.09,93.0,10.49,511865.0,RU,31.1703,69.5259,100.0,1685520441.0
197,Hambantota,91.74,70.0,10.36,1244926.0,LK,81.1185,6.1241,40.0,1685520443.0
198,Lompoc,54.43,83.0,11.01,5367788.0,US,-120.4579,34.6391,40.0,1685520446.0
199,Hasaki,66.6,69.0,11.1,2112802.0,JP,140.8333,35.7333,100.0,1685520448.0
200,Departamento de Maldonado,48.24,92.0,3.83,3441890.0,UY,-54.9167,-34.6667,43.0,1685520450.0
201,Naze,76.71,87.0,10.89,1855540.0,JP,129.4833,28.3667,62.0,1685520452.0
202,Nikolskoye,57.83,38.0,9.35,546105.0,RU,30.7861,59.7035,58.0,1685520454.0
203,Dul'durga,64.78,34.0,2.39,2024812.0,RU,113.5931,50.6761,100.0,1685520456.0
204,Leh,55.42,35.0,0.51,1264976.0,IN,77.5833,34.1667,99.0,1685520458.0
205,Lata,62.15,82.0,1.79,2738381.0,PT,-8.3327,40.1629,44.0,1685520460.0
206,Tiksi,32.11,75.0,3.31,2015306.0,RU,128.8694,71.6872,53.0,1685520463.0
207,Qaanaaq,12.11,72.0,8.66,3831208.0,GL,-69.3632,77.484,89.0,1685520465.0
208,Ilulissat,39.22,93.0,0.0,3423146.0,GL,-51.1,69.2167,100.0,1685520467.0
209,Saint-Augustin,43.11,88.0,3.85,6137462.0,CA,-58.6502,51.226,100.0,1685520469.0
210,Saskylakh,38.52,81.0,10.2,2017155.0,RU,114.0833,71.9167,100.0,1685520471.0
211,Tessalit,88.97,12.0,8.55,2449893.0,ML,1.0114,20.1986,45.0,1685520473.0
212,Rayong,91.63,67.0,7.63,1607016.0,TH,101.4333,12.8333,96.0,1685520428.0
213,Sur,100.96,37.0,14.0,286245.0,OM,59.5289,22.5667,3.0,1685520477.0
214,Bereket,100.18,7.0,19.15,161974.0,TM,55.5154,39.2446,96.0,1685520479.0
215,Staraya Kulatka,78.98,52.0,9.46,489164.0,RU,47.6167,52.7167,10.0,1685520482.0
216,Roswell,66.02,84.0,9.22,4219934.0,US,-84.3616,34.0232,100.0,1685520355.0
217,Santa Luzia,61.7,97.0,4.65,3450144.0,BR,-43.8514,-19.7697,33.0,1685520467.0
218,São Filipe,74.84,74.0,9.31,3374210.0,CV,-24.4956,14.8961,65.0,1685520488.0
219,San Luis,49.68,66.0,2.66,3837056.0,AR,-66.3356,-33.295,5.0,1685520385.0
220,Fairbanks,46.96,95.0,4.61,5861897.0,US,-147.7164,64.8378,100.0,1685520284.0
221,Sibolga,85.53,65.0,5.84,1213855.0,ID,98.7792,1.7427,98.0,1685520494.0
222,Pahrump,68.11,29.0,5.99,5509851.0,US,-115.9839,36.2083,94.0,1685520497.0
223,Narsaq,43.02,99.0,2.13,3421719.0,GL,-46.05,60.9167,100.0,1685520499.0
224,Hamilton,63.46,88.0,0.0,4513583.0,US,-84.5333,39.1834,0.0,1685520330.0
225,Fortuna,50.9,89.0,5.75,5563839.0,US,-124.1573,40.5982,100.0,1685520503.0
226,Ayan,41.09,96.0,6.8,2027316.0,RU,138.1667,56.45,100.0,1685520505.0
227,El Dorado,49.6,84.0,1.01,5345659.0,US,-120.5177,38.7666,17.0,1685520507.0
228,Leonidovo,48.61,62.0,7.81,2123805.0,RU,142.8667,49.2833,95.0,1685520509.0
229,Chicama,72.14,87.0,5.46,3698359.0,PE,-79.1469,-7.8447,58.0,1685520511.0
230,Umluj,86.74,46.0,10.33,100926.0,SA,37.2685,25.0213,0.0,1685520514.0
231,Acapulco de Juárez,84.02,74.0,5.75,3533462.0,MX,-99.8901,16.8634,75.0,1685520516.0
232,Santa Maria,53.55,94.0,2.15,3450083.0,BR,-53.8069,-29.6842,73.0,1685520518.0
233,Ubinskoye,76.39,29.0,1.3,1488708.0,RU,79.6802,55.3068,3.0,1685520520.0
234,Flinders,65.57,62.0,7.0,6255012.0,AU,150.8552,-34.5833,99.0,1685520522.0
235,Broome,51.87,81.0,3.96,5110365.0,US,-75.833,42.2506,4.0,1685520524.0
236,Mossamedes,71.69,53.0,2.98,3347019.0,AO,12.1522,-15.1961,4.0,1685520526.0
237,Orange Cove,64.15,77.0,4.61,5379533.0,US,-119.3137,36.6244,75.0,1685520528.0
238,Barra Patuca,76.57,88.0,6.4,3614835.0,HN,-84.2833,15.8,100.0,1685520531.0
239,Arlit,94.64,16.0,13.49,2447513.0,NE,7.3853,18.7369,98.0,1685520533.0
240,Chilia Veche,75.6,40.0,12.08,682117.0,RO,29.2833,45.4167,22.0,1685520535.0
241,Conde,74.66,100.0,3.44,3385077.0,BR,-34.9075,-7.2597,75.0,1685520537.0
242,Bulungu,83.55,62.0,2.15,2316259.0,CD,18.6,-4.55,85.0,1685520539.0
243,Baker City,51.93,77.0,3.44,5712169.0,US,-117.8344,44.7749,0.0,1685520312.0
244,Rājākhera,100.04,19.0,9.22,1258930.0,IN,78.1714,26.8961,0.0,1685520543.0
245,Portland,48.45,75.0,1.01,5746545.0,US,-122.6762,45.5234,1.0,1685520249.0
246,Birkeland,63.46,46.0,6.91,3161532.0,NO,8.2323,58.3309,0.0,1685520548.0
247,Dvinskoy Bereznik,61.97,41.0,7.85,577240.0,RU,42.7072,62.8551,100.0,1685520550.0
248,Jalingo,88.09,55.0,7.49,2336589.0,NG,11.3667,8.8833,6.0,1685520552.0
249,Yar-Sale,63.09,49.0,11.18,1486321.0,RU,70.8333,66.8333,78.0,1685520554.0
250,Tafresh,76.35,31.0,8.37,113636.0,IR,50.013,34.692,100.0,1685520556.0
251,Homer,44.47,73.0,4.61,5864145.0,US,-151.5483,59.6425,100.0,1685520272.0
252,Mandalgovi,47.57,67.0,24.85,2030065.0,MN,106.2708,45.7625,75.0,1685520560.0
253,Kibala,87.69,47.0,5.55,2425791.0,TD,18.3463,9.1104,24.0,1685520562.0
254,Ulladulla,60.76,60.0,12.12,2145554.0,AU,150.4667,-35.35,97.0,1685520564.0
255,Sitka,44.49,81.0,9.22,5557293.0,US,-135.33,57.0531,100.0,1685520567.0
256,Leningradskiy,29.73,92.0,5.57,2123814.0,RU,178.4167,69.3833,69.0,1685520569.0
257,Takāb,72.28,29.0,6.17,113508.0,IR,47.1133,36.4009,81.0,1685520571.0
258,Tarancón,59.58,74.0,4.61,3108317.0,ES,-3.0073,40.0085,15.0,1685520573.0
259,Goderich,62.91,74.0,9.71,5962442.0,CA,-81.7165,43.7501,6.0,1685520575.0
260,Rosa Zarate,74.77,95.0,0.87,3652257.0,EC,-79.4667,0.3333,93.0,1685520577.0
261,Luganville,77.49,80.0,7.49,2136150.0,VU,167.1667,-15.5333,80.0,1685520579.0
262,Druzhba,62.24,50.0,13.06,709584.0,UA,33.9453,52.0428,10.0,1685520581.0
263,Valea lui Mihai,71.31,62.0,10.07,663692.0,RO,22.15,47.5167,85.0,1685520584.0
264,Ancud,52.07,95.0,8.14,3899695.0,CL,-73.8203,-41.8697,87.0,1685520586.0
265,Matagami,59.32,73.0,5.48,6067747.0,CA,-77.6328,49.7502,6.0,1685520588.0
266,Peniche,63.34,95.0,4.94,2264923.0,PT,-9.3811,39.3558,1.0,1685520457.0
267,Miraflores,61.27,65.0,1.88,3761194.0,MX,-98.8083,19.2167,46.0,1685520592.0
268,Lebu,53.8,93.0,11.25,3883457.0,CL,-73.65,-37.6167,77.0,1685520594.0
269,Crawley,54.81,80.0,12.66,2652053.0,GB,-0.1831,51.113,75.0,1685520596.0
270,Khonsa,90.48,37.0,5.23,1266668.0,IN,95.5667,27.0167,2.0,1685520598.0
271,Yumen,76.93,8.0,22.3,1528998.0,CN,97.2,40.2833,99.0,1685520600.0
272,Bubaque,82.02,84.0,11.63,2374583.0,GW,-15.8333,11.2833,100.0,1685520603.0
273,Ribas do Rio Pardo,63.86,98.0,1.12,3451399.0,BR,-53.7592,-20.4431,82.0,1685520450.0
274,Malbork,63.39,52.0,4.07,3092472.0,PL,19.0266,54.0359,69.0,1685520607.0
275,Saint-Leu,77.56,86.0,7.87,6690297.0,RE,55.2833,-21.15,1.0,1685520609.0
276,Arkhara,58.69,72.0,8.97,2027487.0,RU,130.0842,49.4212,98.0,1685520611.0
277,Tura,97.68,31.0,6.26,1254046.0,IN,90.2201,25.5198,3.0,1685520613.0
278,Ingham,65.05,73.0,3.44,4997130.0,US,-84.3833,42.6,0.0,1685520615.0
279,Sarandi,59.38,98.0,4.14,3447998.0,BR,-51.8739,-23.4436,100.0,1685520552.0
280,Biak,82.06,75.0,7.16,1637001.0,ID,122.8766,-0.9131,95.0,1685520620.0
281,Nieuw Amsterdam,77.02,94.0,6.4,3383434.0,SR,-55.0833,5.8833,100.0,1685520622.0
282,Boundiali,77.88,80.0,7.61,2290836.0,CI,-6.4869,9.5217,40.0,1685520624.0
283,Aitape,82.62,82.0,4.41,2101169.0,PG,142.3475,-3.1374,56.0,1685520626.0
284,Manadhoo,84.36,76.0,11.01,1337618.0,MV,73.3833,5.7667,90.0,1685520628.0
285,Ca Mau,89.71,57.0,14.09,1586443.0,VN,105.15,9.1769,100.0,1685520630.0
286,San Patricio,71.89,84.0,5.21,4726521.0,US,-97.5169,28.017,0.0,1685520632.0
287,Portree,52.52,82.0,8.32,2640006.0,GB,-6.1942,57.4129,27.0,1685520635.0
288,Srednekolymsk,46.87,50.0,15.12,2121025.0,RU,153.6833,67.45,100.0,1685520637.0
289,Zhangaözen,93.87,8.0,17.76,607610.0,KZ,52.8,43.3,100.0,1685520639.0
290,Mayo,52.2,87.0,4.61,4362001.0,US,-76.5119,38.8876,0.0,1685520641.0
291,Hualmay,67.82,83.0,8.41,3939761.0,PE,-77.6139,-11.0964,47.0,1685520643.0
292,Púchov,68.31,50.0,7.27,3057963.0,SK,18.326,49.1249,2.0,1685520645.0
293,Hong Kong,88.48,85.0,7.87,1819729.0,HK,114.1577,22.2855,58.0,1685520461.0
294,Dzilam González,70.3,88.0,2.39,3529654.0,MX,-88.9333,21.2833,0.0,1685520649.0
295,Sistranda,44.56,82.0,22.12,3139597.0,NO,8.834,63.7256,100.0,1685520651.0
296,Ondjiva,73.62,27.0,3.15,3346821.0,AO,15.7333,-17.0667,0.0,1685520654.0
297,Taguatinga,71.04,56.0,5.37,6319623.0,BR,-46.5711,-12.3857,5.0,1685520415.0
298,Evensk,54.63,67.0,11.88,2125693.0,RU,159.2333,61.95,29.0,1685520658.0
299,Katsuura,64.22,85.0,10.07,2112309.0,JP,140.3,35.1333,100.0,1685520660.0
300,Ambovombe,76.15,55.0,8.25,1079048.0,MG,46.0833,-25.1667,24.0,1685520662.0
301,Pisco,63.01,80.0,0.49,3932145.0,PE,-76.2167,-13.7,0.0,1685520664.0
302,Lala,85.21,71.0,6.2,1707944.0,PH,123.7458,7.9745,100.0,1685520606.0
303,East London,64.99,68.0,12.55,1006984.0,ZA,27.9116,-33.0153,96.0,1685520603.0
304,Nyurba,51.8,63.0,9.24,2018735.0,RU,118.3319,63.2842,100.0,1685520670.0
305,Baykit,70.54,27.0,5.19,1510689.0,RU,96.37,61.67,93.0,1685520673.0
306,Muyezerskiy,42.66,93.0,11.72,524100.0,RU,31.65,63.9333,100.0,1685520675.0
307,Umarkot,101.16,27.0,18.99,1162959.0,PK,69.7362,25.3616,0.0,1685520677.0
308,Paamiut,38.21,90.0,25.03,3421193.0,GL,-49.6678,61.994,100.0,1685520679.0
309,Gberia Fotombu,73.78,91.0,0.54,2409019.0,SL,-11.1667,9.8833,100.0,1685520681.0
310,Auki,78.78,85.0,6.82,2109701.0,SB,160.7034,-8.7676,24.0,1685520683.0
311,Timmins,59.65,69.0,5.53,6166739.0,CA,-81.3331,48.4669,12.0,1685520520.0
312,Pachino,69.66,70.0,11.63,6539213.0,IT,15.0907,36.7186,36.0,1685520688.0
313,Arrondissement d'Arcachon,69.85,64.0,3.44,6621469.0,FR,-1.0519,44.5875,0.0,1685520690.0
314,Avera,66.52,93.0,6.02,4231997.0,US,-82.5271,33.194,46.0,1685520692.0
315,Bonthe,80.78,85.0,7.54,2409914.0,SL,-12.505,7.5264,100.0,1685520694.0
316,Songjianghe,74.25,30.0,11.43,2034691.0,CN,127.479,42.1859,95.0,1685520696.0
317,Salisbury,53.64,76.0,16.11,2638664.0,GB,-1.7957,51.0693,75.0,1685520698.0
318,Xi'an,63.28,92.0,11.79,1790630.0,CN,108.9286,34.2583,100.0,1685520651.0
319,Touros,73.71,93.0,9.95,3386213.0,BR,-35.4608,-5.1989,22.0,1685520702.0
320,Boda,81.66,62.0,4.12,2388614.0,CF,17.4695,4.3189,83.0,1685520704.0
321,Mayumba,77.4,86.0,7.63,2399001.0,GA,10.6554,-3.432,77.0,1685520707.0
322,Chul'man,59.07,45.0,11.14,2025261.0,RU,124.9104,56.8479,94.0,1685520709.0
323,Tambacounda,87.85,58.0,6.91,2244991.0,SN,-13.7586,13.7539,0.0,1685520711.0
324,Bushehr,95.09,46.0,11.5,139817.0,IR,50.8385,28.9684,40.0,1685520713.0
325,Port Hardy,48.2,86.0,4.9,6111862.0,CA,-127.4199,50.6996,14.0,1685520715.0
326,Shashi,86.74,48.0,7.43,1795816.0,CN,112.2447,30.3072,1.0,1685520717.0
327,Grand-Lahou,80.65,83.0,2.64,2288105.0,CI,-5.0242,5.1367,100.0,1685520719.0
328,State College,51.62,76.0,3.0,5213681.0,US,-77.86,40.7934,40.0,1685520619.0
329,Teguise,66.42,73.0,8.05,2510573.0,ES,-13.564,29.0605,20.0,1685520724.0
330,Magdagachi,60.46,50.0,5.3,2020591.0,RU,125.8,53.45,72.0,1685520726.0
331,Gaozhou,98.04,47.0,4.18,1810295.0,CN,110.8461,21.9392,31.0,1685520728.0
332,Meulaboh,84.94,66.0,6.46,1214488.0,ID,96.1285,4.1363,100.0,1685520730.0
333,Río Gallegos,42.85,75.0,9.22,3838859.0,AR,-69.2181,-51.6226,0.0,1685520732.0
334,Chaihe,70.95,40.0,8.5,2038198.0,CN,129.7,44.7667,100.0,1685520734.0
335,Nikel,44.78,92.0,9.19,522260.0,RU,30.222,69.4128,100.0,1685520736.0
336,Beringovskiy,49.91,54.0,9.04,2126710.0,RU,179.3167,63.05,4.0,1685520738.0
337,Coyhaique,48.15,93.0,5.75,3894426.0,CL,-72.0662,-45.5752,75.0,1685520741.0
338,Vardø,44.58,87.0,5.75,777019.0,NO,31.1107,70.3705,75.0,1685520743.0
339,Talnakh,50.86,78.0,13.73,1490256.0,RU,88.3972,69.4865,85.0,1685520745.0
340,Faya,72.12,40.0,3.24,110690.0,SA,42.4509,18.3851,72.0,1685520747.0
341,Znamenskoye,79.34,40.0,4.16,1485020.0,RU,73.8282,57.1281,30.0,1685520749.0
342,Manavgat,70.68,68.0,5.95,304854.0,TR,31.4431,36.7867,6.0,1685520751.0
343,Cairns,73.71,79.0,6.91,2172797.0,AU,145.7667,-16.9167,94.0,1685520754.0
344,Klaksvík,47.32,77.0,11.54,2618795.0,FO,-6.589,62.2266,57.0,1685520756.0
345,Fonte Boa,72.32,97.0,2.15,6319315.0,BR,-66.2662,-2.4959,100.0,1685520758.0
346,Piaçabuçu,75.16,87.0,6.04,3454005.0,BR,-36.4344,-10.4056,41.0,1685520760.0
347,Havøysund,43.03,88.0,7.76,779622.0,NO,24.6622,70.9963,100.0,1685520762.0
348,Boden,55.4,36.0,15.46,606531.0,SE,21.6886,65.8252,47.0,1685520764.0
349,Nhulunbuy,79.41,78.0,10.36,2064735.0,AU,136.7667,-12.2333,100.0,1685520766.0
350,Kamenka,60.03,88.0,8.66,553766.0,RU,42.7678,51.3223,100.0,1685520768.0
351,Kazachinskoye,68.61,46.0,13.78,1504075.0,RU,93.2761,57.6953,90.0,1685520770.0
352,Geraldton,64.81,94.0,10.36,2070998.0,AU,114.6,-28.7667,75.0,1685520773.0
353,Maxixe,80.42,57.0,6.91,1039536.0,MZ,35.3472,-23.8597,20.0,1685520775.0
354,Leon Valley,68.97,88.0,3.44,4705923.0,US,-98.6186,29.4952,0.0,1685520541.0
355,Nome,33.87,80.0,13.8,5870133.0,US,-165.4064,64.5011,100.0,1685520779.0
356,Manokwari,82.58,80.0,3.71,1636308.0,ID,134.0833,-0.8667,63.0,1685520781.0
357,Grand-Santi,71.71,100.0,2.06,3381538.0,GF,-54.3833,4.25,98.0,1685520783.0
358,Faanui,78.98,77.0,21.7,4034551.0,PF,-151.75,-16.4833,93.0,1685520785.0
359,Clyde River,23.23,86.0,13.8,5924351.0,CA,-68.5914,70.4692,100.0,1685520787.0
360,Kosa,63.86,81.0,6.8,544318.0,RU,54.9977,59.9445,100.0,1685520789.0
361,Blackwater,63.36,35.0,6.55,2175403.0,AU,148.8833,-23.5833,100.0,1685520792.0
362,Assiniboia,62.4,67.0,7.47,5887798.0,CA,-105.9845,49.6334,54.0,1685520561.0
363,Bambous Virieux,80.85,57.0,11.5,1106677.0,MU,57.7575,-20.3428,20.0,1685520796.0
364,Arona,64.51,85.0,1.14,2521582.0,ES,-16.681,28.0996,20.0,1685520798.0
365,Belyy Yar,60.69,55.0,4.47,1510377.0,RU,91.3903,53.6039,0.0,1685520800.0
366,San Miguel,74.64,89.0,0.81,3583446.0,SV,-88.1833,13.4833,57.0,1685520802.0
367,Maniitsoq,38.19,90.0,28.97,3421982.0,GL,-52.9,65.4167,100.0,1685520804.0
368,Freeport,51.82,87.0,4.61,5117949.0,US,-73.5832,40.6576,100.0,1685520807.0
369,Constitución,54.84,80.0,3.89,3893726.0,CL,-72.4167,-35.3333,97.0,1685520809.0
370,Tarakan,92.7,62.0,4.61,1624725.0,ID,117.6333,3.3,20.0,1685520811.0
371,Nirmal,104.97,15.0,9.31,1261288.0,IN,78.35,19.1,83.0,1685520813.0
372,Zmeinogorsk,70.34,34.0,10.29,1485042.0,RU,82.195,51.1567,27.0,1685520815.0
373,Valparaíso,57.99,64.0,5.75,3868626.0,CL,-71.6273,-33.0393,0.0,1685520817.0
374,Caravelas,73.17,77.0,5.82,3466980.0,BR,-39.2481,-17.7125,30.0,1685520820.0
375,Torbay,40.05,85.0,11.5,6167817.0,CA,-52.7314,47.6666,75.0,1685520822.0
376,Le Port,78.71,82.0,1.83,935616.0,RE,55.2919,-20.9373,0.0,1685520824.0
377,Kumul,80.19,7.0,20.15,1529484.0,CN,93.45,42.8,0.0,1685520826.0
378,Inverell,55.11,74.0,3.24,2162662.0,AU,151.1167,-29.7833,99.0,1685520828.0
379,Tortolì,66.02,68.0,5.75,2522890.0,IT,9.6572,39.9256,40.0,1685520830.0
380,Beipiao,84.52,24.0,23.62,2038342.0,CN,120.7792,41.7919,100.0,1685520832.0
381,Novo Aripuanã,73.4,97.0,2.57,3663142.0,BR,-60.3797,-5.1206,98.0,1685520834.0
382,Akdepe,94.51,6.0,10.67,601551.0,TM,59.3788,42.0551,50.0,1685520836.0
383,Pangnirtung,32.68,98.0,1.16,6096551.0,CA,-65.7125,66.1451,100.0,1685520839.0
384,Komatipoort,76.33,47.0,6.46,988290.0,ZA,31.9548,-25.4332,6.0,1685520841.0
385,Kailua,76.26,80.0,8.05,5847486.0,US,-157.7394,21.4022,20.0,1685520843.0
386,Massakory,97.81,30.0,11.41,2428228.0,TD,15.7293,12.996,97.0,1685520845.0
387,Byron Bay,59.7,64.0,12.46,2172880.0,AU,153.6167,-28.65,32.0,1685520766.0
388,Dawson Creek,46.04,61.0,4.61,5935804.0,CA,-120.2362,55.7666,40.0,1685520849.0
389,Port-Gentil,78.44,82.0,11.12,2396518.0,GA,8.7815,-0.7193,91.0,1685520851.0
390,Augusto Corrêa,74.03,96.0,2.46,3406961.0,BR,-46.635,-1.0217,69.0,1685520853.0
391,Araouane,90.46,16.0,12.26,2460954.0,ML,-3.5265,18.9048,100.0,1685520856.0
392,Coahuayana Viejo,78.15,78.0,0.78,4013679.0,MX,-103.6833,18.7333,58.0,1685520858.0
393,Mount Gambier,61.81,69.0,14.94,2156643.0,AU,140.7667,-37.8333,71.0,1685520569.0
394,Swan River,55.29,94.0,1.14,6160362.0,CA,-101.2676,52.1058,2.0,1685520862.0
395,Bima,84.49,68.0,5.84,1648759.0,ID,118.7167,-8.4667,93.0,1685520864.0
396,Cherskiy,36.82,66.0,17.25,2126199.0,RU,161.3,68.75,100.0,1685520866.0
397,Adrar,81.75,17.0,10.8,2381972.0,MR,-10.0711,20.5022,80.0,1685520868.0
398,Egvekinot,35.78,86.0,4.5,4031742.0,RU,-179.1667,66.3167,85.0,1685520871.0
399,Comodoro Rivadavia,57.06,54.0,18.41,3860443.0,AR,-67.5,-45.8667,0.0,1685520873.0
400,Volchikha,77.68,20.0,8.14,1486983.0,RU,80.3833,52.0333,4.0,1685520875.0
401,Paita,73.15,83.0,11.03,3694112.0,PE,-81.1144,-5.0892,27.0,1685520877.0
402,Calama,39.69,24.0,26.46,3897347.0,CL,-68.9333,-22.4667,0.0,1685520879.0
403,Abalak,77.5,26.0,4.76,1512223.0,RU,68.5944,58.1286,76.0,1685520881.0
404,Atar,84.49,20.0,10.67,2381334.0,MR,-13.0499,20.5169,53.0,1685520883.0
405,Venado Tuerto,50.77,82.0,7.25,3833062.0,AR,-61.9688,-33.7456,96.0,1685520885.0
406,Ostrovnoy,53.04,42.0,20.89,556268.0,RU,39.5131,68.0531,97.0,1685520887.0
407,Praia,77.54,50.0,16.11,3374333.0,CV,-23.5087,14.9215,0.0,1685520890.0
408,Campoverde,70.41,99.0,2.42,3733380.0,PE,-74.8058,-8.4753,68.0,1685520892.0
409,Peebles,51.66,88.0,3.0,2640526.0,GB,-3.1888,55.6519,51.0,1685520894.0
410,Ngunguru,54.54,86.0,7.96,2186111.0,NZ,174.5,-35.6167,6.0,1685520896.0
411,Haines Junction,31.95,69.0,1.14,5969025.0,CA,-137.5108,60.7522,13.0,1685520898.0
412,Chernyshevsk,69.51,22.0,10.2,2025458.0,RU,117.0174,52.5243,23.0,1685520900.0
413,Makiyivka,60.44,85.0,7.58,702320.0,UA,37.9258,48.0478,100.0,1685520902.0
414,Petropavlovsk-Kamchatskiy,40.78,75.0,23.58,2122104.0,RU,158.6483,53.0452,100.0,1685520777.0
415,Los Llanos de Aridane,64.13,65.0,5.99,2514651.0,ES,-17.9182,28.6585,20.0,1685520907.0
416,Nuevo Progreso,71.89,79.0,4.25,3522526.0,MX,-97.95,23.1667,0.0,1685520909.0
417,Norsup,77.58,78.0,13.91,2135517.0,VU,167.3833,-16.0667,61.0,1685520911.0
418,Yulara,69.1,30.0,2.06,6355222.0,AU,130.9889,-25.2406,0.0,1685520914.0
419,Hohhot,73.69,23.0,20.13,2036892.0,CN,111.6522,40.8106,20.0,1685520916.0
420,Bowen,71.35,74.0,17.16,2174444.0,AU,148.2333,-20.0167,37.0,1685520918.0
421,Smoky Lake,48.0,100.0,4.61,6150293.0,CA,-112.4686,54.1169,83.0,1685520921.0
422,Angoram,80.1,88.0,3.71,2100765.0,PG,144.0661,-4.0625,76.0,1685520923.0
423,Itarema,75.43,89.0,10.0,3393692.0,BR,-39.9167,-2.9248,13.0,1685520925.0
424,La Asuncion,78.46,89.0,7.27,3480908.0,VE,-63.8628,11.0333,100.0,1685520927.0
425,Berlevåg,42.87,87.0,2.3,780687.0,NO,29.0864,70.8578,75.0,1685520929.0
426,Ambilobe,89.22,45.0,5.44,1082243.0,MG,49.05,-13.2,1.0,1685520931.0
427,Teya,73.72,22.0,4.79,1489656.0,RU,92.6267,60.3778,95.0,1685520933.0
428,Máncora,76.06,78.0,10.02,3695000.0,PE,-81.0475,-4.1078,7.0,1685520935.0
429,Crotone,73.35,73.0,10.36,2524881.0,IT,17.1178,39.0851,20.0,1685520937.0
430,Sechura,74.26,77.0,13.31,3691954.0,PE,-80.8222,-5.5569,42.0,1685520940.0
431,Tarko-Sale,57.7,68.0,15.77,1490085.0,RU,77.785,64.9225,100.0,1685520942.0
432,Yerofey Pavlovich,64.36,35.0,4.05,2012938.0,RU,121.9667,53.9667,91.0,1685520944.0
433,Doha,101.43,33.0,16.11,290030.0,QA,51.5333,25.2867,55.0,1685520812.0
434,Palmer,45.19,82.0,3.44,4946620.0,US,-72.3287,42.1584,0.0,1685520743.0
435,Darhan,56.48,69.0,9.06,2031964.0,MN,105.9228,49.4867,100.0,1685520950.0
436,Rantauprapat,94.66,43.0,1.07,1214073.0,ID,99.8333,2.1,93.0,1685520952.0
437,Arroyo de la Encomienda,63.5,61.0,2.3,3129371.0,ES,-4.7969,41.6096,20.0,1685520954.0
438,Keetmanshoop,52.39,66.0,3.96,3356264.0,NA,18.1333,-26.5833,9.0,1685520956.0
439,Staryy Nadym,64.69,41.0,7.67,1490918.0,RU,72.6842,65.6118,40.0,1685520959.0
440,Beloha,79.72,41.0,11.32,1067565.0,MG,45.05,-25.1667,26.0,1685520961.0
441,Kelvington,61.39,78.0,8.19,5990669.0,CA,-103.5343,52.1667,48.0,1685520963.0
442,Munger,111.78,13.0,10.2,1262482.0,IN,86.4667,25.3833,10.0,1685520965.0
443,Grindavik,45.07,93.0,10.36,3416888.0,IS,-22.4338,63.8424,100.0,1685520967.0
444,Kangaatsiaq,35.53,95.0,14.61,3422683.0,GL,-53.4641,68.3065,100.0,1685520969.0
445,Omsukchan,57.15,47.0,5.86,2122493.0,RU,155.8,62.5333,20.0,1685520971.0
446,Quzhou,87.46,68.0,8.41,1797264.0,CN,118.8686,28.9594,22.0,1685520974.0
447,Neijiang,92.12,56.0,6.71,1799491.0,CN,105.0622,29.5835,68.0,1685520976.0
448,Bonavista,39.63,87.0,8.79,5905393.0,CA,-53.1147,48.6499,36.0,1685520978.0
449,Pauini,70.59,99.0,2.35,3662927.0,BR,-66.9764,-7.7136,18.0,1685520980.0
450,Poso,84.11,75.0,1.9,1630723.0,ID,120.7524,-1.3959,96.0,1685520982.0
451,Hervey Bay,66.52,66.0,5.99,2146219.0,AU,152.8535,-25.2986,0.0,1685520948.0
452,Gambēla,89.49,49.0,2.84,337405.0,ET,34.5833,8.25,11.0,1685520986.0
453,Hede,74.07,75.0,10.45,1808744.0,CN,120.2517,33.7681,66.0,1685520989.0
454,Alice Springs,71.15,20.0,7.31,2077895.0,AU,133.8833,-23.7,0.0,1685520991.0
455,Tazmalt,62.29,79.0,3.78,2477537.0,DZ,4.3989,36.3868,96.0,1685520993.0
456,Mangaratiba,63.46,87.0,4.05,3457991.0,BR,-44.0406,-22.9597,100.0,1685520995.0
457,Porto-Novo,84.78,71.0,6.71,2392087.0,BJ,2.6036,6.4965,86.0,1685520997.0
458,Sabha,84.76,27.0,13.87,2212775.0,LY,14.4283,27.0377,0.0,1685520999.0
459,Salinópolis,78.91,82.0,9.8,3389822.0,BR,-47.3561,-0.6136,21.0,1685521001.0
460,Riyadh,95.14,26.0,7.76,108410.0,SA,46.7219,24.6877,100.0,1685520903.0
461,Jönköping,64.11,59.0,9.22,2702979.0,SE,14.1562,57.7814,0.0,1685521005.0
462,Yatou,73.2,67.0,12.19,1786855.0,CN,122.3833,37.15,92.0,1685521007.0
463,Jaru,69.85,96.0,3.51,3925040.0,BR,-62.4664,-10.4389,24.0,1685521010.0
464,Yashan,97.29,49.0,4.61,1786867.0,CN,109.9419,22.1975,30.0,1685521012.0
465,Bamiantong,71.37,37.0,7.96,2038482.0,CN,130.5333,44.9333,100.0,1685521014.0
466,Boa Vista,73.83,90.0,3.06,3664980.0,BR,-60.6733,2.8197,88.0,1685521016.0
467,Barra do Bugres,65.62,99.0,1.25,3470718.0,BR,-57.1811,-15.0725,93.0,1685521018.0
468,Butembo,74.71,47.0,2.8,217562.0,CD,29.2833,0.15,5.0,1685521020.0
469,Talaya,59.18,48.0,8.81,2120769.0,RU,152.75,61.3833,97.0,1685520742.0
470,Vengurla,90.75,62.0,13.35,1253257.0,IN,73.6333,15.8667,80.0,1685521024.0
471,Maracaçumé,72.3,98.0,2.71,3395497.0,BR,-45.9592,-2.0428,99.0,1685521027.0
472,Nouadhibou,69.78,78.0,16.11,2377457.0,MR,-17.0347,20.931,100.0,1685521029.0
473,La Celia,57.88,98.0,1.68,3679542.0,CO,-76.0167,5.0433,100.0,1685521031.0
474,Lüderitz,62.01,63.0,17.38,3355672.0,NA,15.1594,-26.6481,0.0,1685521033.0
475,Carutapera,75.78,91.0,5.7,3402648.0,BR,-46.02,-1.195,48.0,1685521035.0
476,Yauya,43.77,88.0,3.89,3690733.0,PE,-77.3,-8.9833,11.0,1685521037.0
477,Port Said,72.82,73.0,10.38,358619.0,EG,32.2841,31.2565,0.0,1685521039.0
478,Sambava,79.7,70.0,14.47,1056899.0,MG,50.1667,-14.2667,16.0,1685521042.0
479,Kafanchan,77.02,79.0,5.55,2335713.0,NG,8.3,9.5833,53.0,1685521044.0
480,Neftçala,79.5,59.0,14.61,147425.0,AZ,49.2472,39.3742,100.0,1685521046.0
481,Yhú,57.72,99.0,4.56,3436595.0,PY,-55.9167,-25.05,33.0,1685521048.0
482,Necochea,51.53,78.0,11.34,3430443.0,AR,-58.7368,-38.5473,100.0,1685521050.0
483,Muros,63.46,91.0,2.04,3115824.0,ES,-9.0603,42.7762,87.0,1685521052.0
484,Linxia Chengguanzhen,59.32,65.0,2.53,1803331.0,CN,103.2064,35.6003,100.0,1685521054.0
485,Tripoli,70.65,72.0,8.43,2210247.0,LY,13.1875,32.8752,80.0,1685521056.0
486,Ixtapa,71.13,79.0,2.93,4004293.0,MX,-105.2,20.7,5.0,1685521058.0
487,Santiago del Estero,55.69,88.0,4.36,3835869.0,AR,-64.2615,-27.7951,28.0,1685521061.0
488,Uribia,81.57,78.0,7.07,3666409.0,CO,-72.266,11.7139,100.0,1685521063.0
489,Rome,56.25,81.0,6.91,5134295.0,US,-75.4557,43.2128,0.0,1685520876.0
490,Xuanzhou,75.42,85.0,5.39,1788081.0,CN,118.7553,30.9525,91.0,1685521067.0
491,Arrondissement de Muret,68.22,76.0,1.01,2991152.0,FR,1.25,43.3333,83.0,1685521069.0
492,Orlik,44.64,89.0,5.97,1496073.0,RU,99.825,52.5178,100.0,1685521071.0
493,Toyoake,73.71,67.0,8.63,1856057.0,JP,137.0137,35.0594,7.0,1685521073.0
494,Ibrā’,100.96,25.0,11.36,287832.0,OM,58.5334,22.6906,5.0,1685521075.0
495,Ayagoz,70.84,27.0,18.45,1525988.0,KZ,80.4392,47.9714,0.0,1685521077.0
496,Deputatsky,31.57,79.0,4.23,2028164.0,RU,139.9,69.3,100.0,1685521079.0
497,Moyale,74.44,59.0,11.34,186180.0,KE,39.0584,3.5167,47.0,1685521082.0
498,Gresik,81.99,51.0,7.52,1643776.0,ID,112.6561,-7.1539,64.0,1685521084.0
499,Tsushima,74.01,59.0,9.4,1849539.0,JP,136.7167,35.1667,5.0,1685521050.0
500,Boralday,78.66,29.0,8.95,1526384.0,KZ,76.8594,43.3578,75.0,1685521088.0
501,Mahina,73.17,94.0,21.85,4034307.0,PF,-149.489,-17.5065,75.0,1685521090.0
502,Ust-Maya,65.48,47.0,1.86,2013918.0,RU,134.5333,60.4167,88.0,1685521092.0
503,General Pico,51.67,73.0,8.16,3855075.0,AR,-63.7568,-35.6566,100.0,1685521094.0
504,Labuan,89.96,58.0,5.75,1733782.0,MY,115.2417,5.2767,20.0,1685521096.0
505,Saint Anthony,65.73,79.0,5.75,5044290.0,US,-93.218,45.0205,0.0,1685521099.0
506,Iqaluit,31.69,80.0,3.44,5983720.0,CA,-68.5145,63.7506,100.0,1685521101.0
507,Haapiti,72.72,79.0,20.83,4034438.0,PF,-149.8667,-17.5667,73.0,1685521103.0
508,Sarankhola,103.26,32.0,5.97,1185239.0,BD,89.7897,22.3082,28.0,1685521105.0
509,Odienné,76.82,84.0,3.29,2283016.0,CI,-7.5692,9.51,94.0,1685521107.0
510,Miles City,61.77,72.0,9.22,5666176.0,US,-105.8406,46.4083,0.0,1685520849.0
511,Daru,78.69,84.0,13.42,2098329.0,PG,143.2092,-9.0763,21.0,1685521111.0
512,Umm Kaddadah,93.04,31.0,6.35,364933.0,SD,26.6876,13.6017,10.0,1685521113.0
513,Skegness,52.88,82.0,17.25,2637762.0,GB,0.3363,53.1436,99.0,1685521115.0
514,Saint-François,65.64,55.0,4.61,2980080.0,FR,3.9054,46.4154,0.0,1685521118.0
515,Semey,80.82,17.0,6.71,1519422.0,KZ,80.2275,50.4111,4.0,1685521120.0
516,Esperance,64.02,81.0,10.69,2071860.0,AU,121.9,-33.8667,84.0,1685521122.0
517,Selkirk,56.41,95.0,3.8,6144054.0,CA,-96.8845,50.1436,47.0,1685521124.0
518,Mahajanga,83.91,49.0,9.86,1062663.0,MG,46.3167,-15.7167,0.0,1685521126.0
519,Ruwi,105.49,41.0,11.48,287286.0,OM,58.5507,23.5996,3.0,1685520969.0
520,Pucallpa,70.65,100.0,2.86,3693345.0,PE,-74.5539,-8.3791,59.0,1685521130.0
521,Ginda,60.35,92.0,4.56,1253628.0,IN,78.4932,30.6945,93.0,1685521132.0
522,Hare Bay,42.4,77.0,4.18,5970873.0,CA,-54.0148,48.8499,99.0,1685521135.0
523,Kabalo,85.73,36.0,6.11,215668.0,CD,26.9167,-6.05,2.0,1685521137.0
524,Cockburn Town,80.85,82.0,18.25,3576994.0,TC,-71.1419,21.4612,100.0,1685521139.0
525,Kolomyia,63.63,77.0,8.14,705392.0,UA,25.0403,48.5306,8.0,1685521141.0
526,Odawara,63.91,84.0,5.12,1854747.0,JP,139.1597,35.2556,100.0,1685521143.0
527,Santa Cruz de la Sierra,63.86,88.0,2.3,3904906.0,BO,-63.1667,-17.8,75.0,1685521145.0
528,Derzhavīnsk,89.82,22.0,10.22,1524606.0,KZ,66.3167,51.1,42.0,1685521147.0
529,Raduzhny,70.39,43.0,10.78,1540356.0,RU,77.475,62.0961,87.0,1685521149.0
530,Gulariyā,106.56,15.0,10.2,1283368.0,NP,81.3333,28.2333,0.0,1685521151.0
531,Oudtshoorn,52.16,57.0,2.24,967106.0,ZA,22.2014,-33.5907,85.0,1685521154.0
532,Ruteng,68.54,79.0,1.12,1629380.0,ID,120.4721,-8.6136,100.0,1685521156.0
533,Sokolac,55.58,90.0,2.89,3190385.0,BA,18.8017,43.9397,97.0,1685521158.0
534,Jieshi,81.95,81.0,8.59,1805857.0,CN,115.8257,22.8134,100.0,1685521160.0
535,Porto Velho,77.05,88.0,0.0,3662762.0,BR,-63.9039,-8.7619,20.0,1685521162.0
536,Olinda,74.93,88.0,2.3,3393536.0,BR,-34.8553,-8.0089,75.0,1685521164.0
537,Vallenar,62.29,39.0,2.77,3868633.0,CL,-70.7581,-28.5708,95.0,1685521021.0
538,Bud,65.35,87.0,6.33,4255151.0,US,-86.1758,39.447,22.0,1685521169.0
539,Dhārchula,76.08,60.0,9.53,1272864.0,IN,80.5333,29.85,86.0,1685521172.0
540,Mabaruma,73.13,99.0,1.99,3377301.0,GY,-59.7833,8.2,98.0,1685521174.0
541,Nemuro,50.67,81.0,11.01,2128975.0,JP,145.575,43.3236,70.0,1685521176.0
542,Caucayá,71.76,99.0,1.79,3671437.0,CO,-74.7819,-0.1934,29.0,1685521178.0
543,Vanderhoof,40.48,55.0,4.52,6173361.0,CA,-124.0198,54.0166,78.0,1685521180.0
544,Maravilha,54.61,96.0,3.36,3457809.0,BR,-53.1725,-26.7608,0.0,1685521182.0
545,Nanlong,86.22,63.0,12.66,1799908.0,CN,106.0631,31.3533,49.0,1685521184.0
546,Seryshevo,47.41,90.0,11.34,2016942.0,RU,128.3786,51.0933,100.0,1685521186.0
547,Les Cayes,78.44,86.0,7.45,3728097.0,HT,-73.75,18.2,100.0,1685521188.0
548,Lagoa,63.19,83.0,18.19,3372964.0,PT,-27.9833,39.05,2.0,1685521191.0
549,Pacifica,53.04,89.0,14.0,5380420.0,US,-122.4869,37.6138,100.0,1685521193.0
550,Northam,52.2,82.0,17.29,2641434.0,GB,-4.2167,51.0333,100.0,1685521195.0
551,Rio Grande,57.63,93.0,7.09,3451138.0,BR,-52.0986,-32.035,1.0,1685521197.0
552,Gejiu,85.77,30.0,8.39,1810240.0,CN,103.1635,23.306,47.0,1685521199.0
553,Opuwo,70.2,24.0,4.85,3354077.0,NA,13.84,-18.0607,0.0,1685521201.0
554,La Ronge,64.65,52.0,2.3,6050066.0,CA,-105.2842,55.1001,75.0,1685521203.0
555,Yazykovo,80.2,46.0,16.53,468483.0,RU,56.1353,55.2199,99.0,1685521205.0
556,Batticaloa,88.32,64.0,10.04,1250161.0,LK,81.6924,7.7102,50.0,1685521208.0
557,Khasan,61.05,66.0,11.59,2039557.0,RU,130.6434,42.4308,93.0,1685521210.0
558,Kattivākkam,94.06,70.0,14.45,1267433.0,IN,80.3167,13.2167,100.0,1685521212.0
559,Arrondissement de Saint-Denis,63.97,65.0,10.36,2980915.0,FR,2.3333,48.9167,0.0,1685521214.0
560,Ende,80.11,82.0,7.18,1644932.0,ID,121.6623,-8.8432,82.0,1685521216.0
561,Harlingen,72.07,100.0,4.76,4696233.0,US,-97.6961,26.1906,0.0,1685521191.0
562,Zhicheng,87.28,48.0,5.28,1784554.0,CN,111.5047,30.2956,3.0,1685521220.0
563,Havelock,65.71,91.0,13.8,4470244.0,US,-76.9013,34.8791,75.0,1685521222.0
564,Madimba,83.03,65.0,10.47,878141.0,TZ,40.3333,-10.4,94.0,1685521225.0
565,Pacific Grove,54.91,84.0,6.91,5380437.0,US,-121.9166,36.6177,100.0,1685521217.0
566,Esim,82.44,77.0,3.04,2303611.0,GH,-2.2405,4.8699,100.0,1685520981.0
567,Gorontalo,85.96,68.0,3.67,1643837.0,ID,123.0595,0.5412,97.0,1685521231.0
568,Vaitape,78.89,77.0,21.63,4033077.0,PF,-151.75,-16.5167,91.0,1685521233.0
569,Ottawa,57.18,80.0,4.61,6094817.0,CA,-75.6981,45.4112,0.0,1685521160.0
570,Petropavl,82.38,24.0,8.95,1520172.0,KZ,69.1628,54.8753,0.0,1685521237.0
571,Bossangoa,84.43,61.0,1.99,2388036.0,CF,17.4552,6.4926,90.0,1685521239.0
572,Lavrentiya,32.67,89.0,3.71,4031637.0,RU,-171.0,65.5833,48.0,1685521241.0
573,Muskegon,65.64,75.0,6.91,5003136.0,US,-86.1334,43.3,0.0,1685520945.0
574,Lālmohan,91.51,60.0,11.59,1185251.0,BD,90.7419,22.3384,52.0,1685521246.0
575,Gainesville,69.21,63.0,3.96,4156404.0,US,-82.3248,29.6516,100.0,1685521248.0
