,City,Temp_max,Humidity,wind_speed,city_id,country_code,long,lat,Cloudiness,datetime
0,Flin Flon,66.04,88.0,2.3,5954718.0,CA,-101.865,54.7682,75.0,1685797202.0
1,Severo-Kuril'sk,39.63,95.0,34.34,2121385.0,RU,156.125,50.6789,100.0,1685797204.0
2,Codrington,51.4,92.0,9.51,2171099.0,AU,141.9667,-38.2667,16.0,1685797207.0
3,Bredasdorp,59.13,69.0,22.77,1015776.0,ZA,20.0403,-34.5322,7.0,1685797210.0
4,Kindersley,57.22,94.0,11.5,5992154.0,CA,-109.1682,51.4668,100.0,1685797212.0
5,Kavieng,80.11,81.0,11.07,2094342.0,PG,150.7967,-2.5744,100.0,1685797214.0
6,Brae,51.89,83.0,11.03,2654970.0,GB,-1.353,60.3964,85.0,1685797216.0
7,Hithadhoo,82.36,71.0,4.54,1282256.0,MV,73.0833,-0.6,100.0,1685797218.0
8,Ponta Delgada,68.72,83.0,8.05,3372783.0,PT,-25.6667,37.7333,20.0,1685797211.0
9,Kaitangata,41.0,85.0,4.21,2208248.0,NZ,169.8464,-46.2817,100.0,1685797223.0
10,Neiafu,74.08,83.0,0.0,4032420.0,TO,-173.9833,-18.65,75.0,1685797226.0
11,Busselton,61.68,59.0,10.07,2075265.0,AU,115.3333,-33.65,100.0,1685797228.0
12,Kudahuvadhoo,83.57,75.0,17.6,1337607.0,MV,72.8944,2.6708,100.0,1685797230.0
13,Port Macquarie,56.89,93.0,1.66,2152659.0,AU,152.9167,-31.4333,81.0,1685797232.0
14,Jamestown,67.64,82.0,6.91,5122534.0,US,-79.2353,42.097,0.0,1685797234.0
15,Nantucket,51.19,94.0,28.74,4944903.0,US,-70.0995,41.2835,100.0,1685797224.0
16,São João da Barra,71.69,59.0,4.52,3448903.0,BR,-41.0511,-21.6403,0.0,1685797238.0
17,Castlebar,68.04,54.0,7.11,2965654.0,IE,-9.3,53.85,19.0,1685797240.0
18,Katobu,74.53,97.0,4.5,1640972.0,ID,122.5276,-4.9408,100.0,1685797243.0
19,Port Lincoln,61.65,45.0,6.53,2063036.0,AU,135.8667,-34.7333,47.0,1685797245.0
20,Padampur,96.28,24.0,0.47,1260938.0,IN,73.6167,29.6833,0.0,1685797247.0
21,Cayenne,78.84,89.0,2.3,3382160.0,GF,-52.3333,4.9333,100.0,1685797203.0
22,Norman Wells,55.44,54.0,10.36,6089245.0,CA,-126.8329,65.282,75.0,1685797251.0
23,Upernavik,30.07,74.0,10.13,3418910.0,GL,-56.1549,72.7868,100.0,1685797253.0
24,Ushuaia,38.86,75.0,4.61,3833367.0,AR,-68.3,-54.8,0.0,1685797232.0
25,Tasiilaq,33.96,89.0,2.13,3424607.0,GL,-37.6368,65.6145,45.0,1685797257.0
26,Thunder Bay,58.91,88.0,3.44,6166142.0,CA,-89.3168,48.4001,40.0,1685797260.0
27,Provideniya,33.53,95.0,4.32,4031574.0,RU,-173.3,64.3833,100.0,1685797262.0
28,Cap Malheureux,78.48,60.0,5.01,934649.0,MU,57.6142,-19.9842,0.0,1685797060.0
29,West Wendover,60.01,39.0,6.91,5710035.0,US,-114.0733,40.7391,20.0,1685797266.0
30,Tautira,76.96,74.0,6.85,4033557.0,PF,-149.15,-17.7333,99.0,1685797269.0
31,Avarua,64.45,94.0,2.3,4035715.0,CK,-159.775,-21.2078,20.0,1685797271.0
32,Punta Arenas,30.31,93.0,5.75,3874787.0,CL,-70.9167,-53.15,0.0,1685797037.0
33,Ozernovskiy,39.78,91.0,17.34,2122293.0,RU,156.5167,51.5,100.0,1685797275.0
34,Aksu,78.94,21.0,5.53,1529660.0,CN,80.2644,41.1231,100.0,1685797225.0
35,Arrondissement d'Ajaccio,73.38,50.0,9.22,3038333.0,FR,8.9167,42.0,78.0,1685797103.0
36,Cabedelo,84.87,67.0,15.37,3404558.0,BR,-34.8339,-6.9811,5.0,1685797281.0
37,Dikson,31.77,99.0,1.88,1507390.0,RU,80.5464,73.5069,100.0,1685797283.0
38,Hobart,39.76,86.0,10.36,2163355.0,AU,147.3294,-42.8794,20.0,1685797036.0
39,Vestmannaeyjar,50.99,87.0,16.11,3412093.0,IS,-20.2734,63.4427,100.0,1685797288.0
40,Alofi,71.49,94.0,5.75,4036284.0,NU,-169.9187,-19.0595,100.0,1685797290.0
41,Carnarvon,66.79,47.0,13.73,2074865.0,AU,113.6333,-24.8667,0.0,1685797292.0
42,Saint-Philippe,76.59,82.0,11.21,935215.0,RE,55.7679,-21.3585,13.0,1685797294.0
43,Cabra,76.5,35.0,5.68,2520645.0,ES,-4.4421,37.4725,42.0,1685797296.0
44,Feldbach,68.58,62.0,4.92,2779685.0,AT,15.8883,46.9531,92.0,1685797298.0
45,Tual,81.81,79.0,17.96,1623197.0,ID,132.75,-5.6667,48.0,1685797300.0
46,Longyearbyen,35.44,64.0,4.61,2729907.0,SJ,15.6401,78.2186,0.0,1685797302.0
47,Dukat,49.91,73.0,5.7,2125906.0,RU,155.55,62.55,92.0,1685797305.0
48,Jalu,95.83,17.0,10.45,86049.0,LY,21.5482,29.0331,0.0,1685797307.0
49,Vaini,69.96,83.0,5.75,4032243.0,TO,-175.2,-21.2,75.0,1685797309.0
50,Albany,58.46,80.0,4.61,5106841.0,US,-73.9662,42.6001,100.0,1685797137.0
51,Karaton,77.02,90.0,1.16,1630058.0,ID,106.1045,-6.3424,100.0,1685797313.0
52,Saldanha,60.85,67.0,16.22,3361934.0,ZA,17.9442,-33.0117,100.0,1685797315.0
53,Castro,61.02,66.0,3.78,3466704.0,BR,-50.0119,-24.7911,0.0,1685797317.0
54,Inhambane,83.7,58.0,13.8,1045114.0,MZ,35.3833,-23.865,0.0,1685797320.0
55,Mataura,43.16,84.0,3.98,6201424.0,NZ,168.8643,-46.1927,100.0,1685797322.0
56,Puerto Ayora,78.55,94.0,5.99,3652764.0,EC,-90.3518,-0.7393,72.0,1685797324.0
57,Arraial do Cabo,71.46,78.0,3.44,3471451.0,BR,-42.0278,-22.9661,0.0,1685797297.0
58,Obihiro,48.33,91.0,2.19,2128815.0,JP,143.2044,42.9172,87.0,1685797328.0
59,Penzance,63.63,67.0,12.66,2640377.0,GB,-5.5371,50.1186,20.0,1685797330.0
60,Butaritari,83.93,75.0,13.15,2110227.0,KI,172.7902,3.0707,71.0,1685797332.0
61,Rikitea,74.05,75.0,12.33,4030556.0,PF,-134.9692,-23.1203,4.0,1685797277.0
62,Namatanai,78.53,86.0,5.84,2090021.0,PG,152.4333,-3.6667,81.0,1685797337.0
63,Isangel,73.51,88.0,0.0,2136825.0,VU,169.2667,-19.55,75.0,1685797339.0
64,Saint George,64.99,39.0,0.0,5546220.0,US,-113.5841,37.1041,0.0,1685797341.0
65,Kruisfontein,63.88,61.0,20.83,986717.0,ZA,24.7314,-34.0033,99.0,1685797343.0
66,Mwinilunga,83.91,18.0,4.5,902620.0,ZM,24.4293,-11.7358,26.0,1685797345.0
67,Port Alfred,75.18,43.0,5.01,964432.0,ZA,26.891,-33.5906,79.0,1685797347.0
68,Marzuq,92.89,22.0,7.18,72181.0,YE,46.4667,14.4,17.0,1685797350.0
69,Puerto Escondido,81.43,69.0,0.0,3520994.0,MX,-97.0667,15.85,0.0,1685797352.0
70,Sivaki,54.75,71.0,8.19,2016477.0,RU,126.75,52.6333,76.0,1685797354.0
71,Yellowknife,48.72,66.0,6.91,6185377.0,CA,-114.3525,62.456,75.0,1685797122.0
72,Canchungo,87.93,29.0,5.46,2373951.0,GW,-16.0333,12.0672,100.0,1685797358.0
73,Östersund,45.05,39.0,17.27,2685750.0,SE,14.6357,63.1792,100.0,1685797360.0
74,Fort Nelson,51.94,63.0,3.44,5955902.0,CA,-122.7002,58.8053,75.0,1685797362.0
75,Castelo Branco,79.0,52.0,1.16,2269514.0,PT,-7.4909,39.8222,10.0,1685797365.0
76,Black River,81.37,77.0,5.7,3491355.0,JM,-77.8487,18.0264,5.0,1685797367.0
77,Atuona,79.95,80.0,8.84,4020109.0,PF,-139.0333,-9.8,25.0,1685797277.0
78,Birao,99.43,29.0,3.04,240210.0,CF,22.7882,10.2849,100.0,1685797371.0
79,Ekhabi,35.91,95.0,5.32,2122614.0,RU,142.9671,53.5102,100.0,1685797373.0
80,Barrow,26.62,93.0,9.22,5880054.0,US,-156.7887,71.2906,75.0,1685797375.0
81,Hilo,66.9,89.0,3.0,5855927.0,US,-155.09,19.7297,13.0,1685797208.0
82,Mehamn,53.55,40.0,12.66,778707.0,NO,27.8492,71.0357,75.0,1685797379.0
83,Shingū,60.62,74.0,7.67,1847947.0,JP,135.9833,33.7333,0.0,1685797381.0
84,George Town,86.5,80.0,2.3,1735106.0,MY,100.3354,5.4112,40.0,1685797337.0
85,Russell,72.12,78.0,0.0,4047434.0,US,-85.1999,32.3502,0.0,1685797386.0
86,Sidhi,102.0,15.0,3.91,1256369.0,IN,81.8833,24.4167,53.0,1685797388.0
87,Laramie,47.48,77.0,1.59,5830062.0,US,-105.5911,41.3114,100.0,1685797208.0
88,Bluff,49.15,80.0,15.84,2206939.0,NZ,168.3333,-46.6,100.0,1685797392.0
89,Bayir,70.32,70.0,7.49,304183.0,TR,28.2167,37.2687,68.0,1685797394.0
90,Vila Velha,73.35,68.0,9.22,3445026.0,BR,-40.2925,-20.3297,40.0,1685797355.0
91,Kapaa,71.02,80.0,9.22,5848280.0,US,-159.319,22.0752,40.0,1685797399.0
92,Margate,60.64,72.0,11.01,2643044.0,GB,1.3862,51.3813,10.0,1685797286.0
93,Kamaishi,55.33,83.0,9.53,2112444.0,JP,141.8833,39.2667,0.0,1685797403.0
94,Stăncuţa,71.04,56.0,20.02,666309.0,RO,27.8333,44.9,100.0,1685797405.0
95,Ankang,61.25,98.0,1.83,1789065.0,CN,109.0172,32.68,100.0,1685797407.0
96,Port Elizabeth,70.88,54.0,18.41,964420.0,ZA,25.5701,-33.918,0.0,1685797410.0
97,Morant Bay,80.22,78.0,5.79,3489440.0,JM,-76.4093,17.8815,26.0,1685797412.0
98,São Miguel,84.97,65.0,18.32,3388304.0,BR,-35.3667,-5.4667,12.0,1685797414.0
99,Guerrero Negro,57.25,89.0,11.3,4021858.0,MX,-114.0611,27.9769,2.0,1685797416.0
100,Husavik,53.53,64.0,6.98,2629833.0,IS,-17.3389,66.0449,32.0,1685797418.0
101,Ahipara,54.12,73.0,5.44,2194098.0,NZ,173.1667,-35.1667,2.0,1685797420.0
102,Saint Paul Harbor,42.31,87.0,0.0,5866583.0,US,-152.4072,57.79,0.0,1685797422.0
103,Mahébourg,77.29,73.0,14.97,934322.0,MU,57.7,-20.4081,75.0,1685797271.0
104,Mount Isa,58.77,67.0,1.14,2065594.0,AU,139.5,-20.7333,0.0,1685797426.0
105,Te Anau,46.02,95.0,5.97,2181625.0,NZ,167.7167,-45.4167,100.0,1685797275.0
106,Alenquer,81.28,78.0,4.65,3407980.0,BR,-54.7383,-1.9417,12.0,1685797431.0
107,São Miguel do Araguaia,84.69,44.0,6.73,3448455.0,BR,-50.1628,-13.275,83.0,1685797226.0
108,Kriel,73.78,22.0,15.9,987202.0,ZA,29.2253,-26.2739,100.0,1685797435.0
109,Marsh Harbour,79.54,72.0,4.47,3571913.0,BS,-77.0636,26.5412,15.0,1685797437.0
110,Souillac,77.38,73.0,14.97,933995.0,MU,57.5167,-20.5167,75.0,1685797439.0
111,Tigil',40.95,90.0,8.41,2120612.0,RU,158.6667,57.8,99.0,1685797441.0
112,Kaeo,50.54,86.0,3.78,2189343.0,NZ,173.7833,-35.1,0.0,1685797443.0
113,Cape Town,61.29,65.0,10.36,3369157.0,ZA,18.4232,-33.9258,75.0,1685797445.0
114,Cidreira,68.22,51.0,5.08,3466165.0,BR,-50.2056,-30.1811,3.0,1685797448.0
115,Khatanga,42.4,91.0,14.12,2022572.0,RU,102.5,71.9667,100.0,1685797450.0
116,Karlshamn,63.09,44.0,13.18,2701727.0,SE,14.8619,56.1706,99.0,1685797452.0
117,Pevek,23.74,88.0,6.13,2122090.0,RU,170.3133,69.7008,21.0,1685797454.0
118,Mar del Plata,56.32,83.0,4.61,3430863.0,AR,-57.5575,-38.0023,0.0,1685797186.0
119,Gobabis,82.35,11.0,22.3,3357247.0,NA,18.9667,-22.45,0.0,1685797458.0
120,Gaoyou,72.99,46.0,11.05,1810309.0,CN,119.4278,32.7858,100.0,1685797460.0
121,Bethel,60.94,82.0,11.5,5282297.0,US,-73.414,41.3712,100.0,1685797381.0
122,Santa Maria da Vitória,82.27,45.0,8.72,3450063.0,BR,-44.1886,-13.3947,0.0,1685797465.0
123,Banda Aceh,82.15,77.0,14.09,1215502.0,ID,95.3222,5.5577,100.0,1685797467.0
124,Georgiyevka,80.64,24.0,13.42,1524243.0,KZ,74.7114,43.0369,40.0,1685797469.0
125,Zonguldak,61.65,86.0,4.36,737021.0,TR,31.8333,41.25,100.0,1685797471.0
126,Booué,88.68,59.0,2.24,2401495.0,GA,11.9385,-0.0921,81.0,1685797473.0
127,Siyabuswa,81.09,17.0,5.14,955313.0,ZA,29.0445,-25.1132,100.0,1685797475.0
128,Dunedin,46.27,71.0,7.27,2191562.0,NZ,170.5036,-45.8742,100.0,1685797402.0
129,Roald,50.61,81.0,17.27,3141667.0,NO,6.1333,62.5833,75.0,1685797480.0
130,Tweed,61.14,73.0,15.37,6170799.0,CA,-77.3162,44.4751,0.0,1685797337.0
131,Nanortalik,35.31,92.0,7.9,3421765.0,GL,-45.2371,60.1432,100.0,1685797484.0
132,Port Blair,82.44,78.0,9.22,1259385.0,IN,92.75,11.6667,75.0,1685797486.0
133,Lubango,79.47,26.0,3.76,3347762.0,AO,13.4925,-14.9172,9.0,1685797488.0
134,Shumskiy,66.7,67.0,13.38,1491977.0,RU,99.1328,54.8318,100.0,1685797490.0
135,San Cristobal,75.38,76.0,4.74,3628473.0,VE,-72.225,7.7669,72.0,1685797492.0
136,Nioro,97.77,19.0,5.17,2412408.0,GM,-15.75,13.35,66.0,1685797494.0
137,Thompson,64.56,82.0,3.44,6165406.0,CA,-97.8558,55.7435,100.0,1685797496.0
138,Manaus,75.69,88.0,5.75,3663517.0,BR,-60.025,-3.1019,75.0,1685797426.0
139,Laguna,57.42,74.0,5.75,5364271.0,US,-121.4238,38.421,0.0,1685797464.0
140,Hermanus,57.79,74.0,26.78,3366880.0,ZA,19.2345,-34.4187,22.0,1685797503.0
141,Westport,62.29,82.0,16.11,4845585.0,US,-73.3579,41.1415,100.0,1685797505.0
142,Dicabisagan,79.99,89.0,3.29,1715015.0,PH,122.4157,17.0818,100.0,1685797507.0
143,Newport,68.43,56.0,12.84,2641598.0,GB,-2.9984,51.5877,0.0,1685797240.0
144,Tateyama,67.3,76.0,1.05,1850523.0,JP,139.8667,34.9833,99.0,1685797511.0
145,Kuznechikha,61.14,81.0,10.36,537760.0,RU,42.3348,57.2161,99.0,1685797514.0
146,Poum,74.53,69.0,17.81,2138555.0,NC,164.0167,-20.2333,74.0,1685797516.0
147,Chokurdakh,43.03,74.0,4.9,2126123.0,RU,147.9167,70.6333,18.0,1685797518.0
148,Coquimbo,55.13,76.0,9.22,3893629.0,CL,-71.3436,-29.9533,0.0,1685797521.0
149,Ust-Nera,54.72,57.0,3.27,2120048.0,RU,143.2,64.5667,38.0,1685797523.0
150,Kavaratti,85.59,70.0,5.99,1267390.0,IN,72.642,10.5669,76.0,1685797525.0
151,Eruwa,88.65,54.0,8.01,2338669.0,NG,3.4167,7.5333,100.0,1685797527.0
152,Polyarny,46.98,50.0,9.19,506763.0,RU,33.4478,69.1989,54.0,1685797530.0
153,Ribeira Grande,68.4,77.0,4.61,3372707.0,PT,-28.7,38.5167,75.0,1685797532.0
154,Kalemie,81.21,53.0,8.1,214974.0,CD,29.1947,-5.9475,6.0,1685797534.0
155,Tuktoyaktuk,35.44,82.0,6.49,6170031.0,CA,-133.0374,69.4541,20.0,1685797536.0
156,Tomatlán,68.95,91.0,2.35,3981391.0,MX,-105.25,19.9333,15.0,1685797538.0
157,Bratca,67.28,69.0,6.38,683837.0,RO,22.6167,46.9333,82.0,1685797540.0
158,Chiang Khong,75.51,95.0,2.75,1611197.0,TH,100.4046,20.2613,91.0,1685797542.0
159,Gijang,69.53,78.0,7.18,1842966.0,KR,129.2139,35.2442,60.0,1685797544.0
160,Vao,70.95,65.0,19.37,2137773.0,NC,167.4833,-22.6667,100.0,1685797546.0
161,Marawi,70.95,92.0,2.17,1701054.0,PH,124.2928,7.9986,100.0,1685797549.0
162,Kununurra,71.58,73.0,1.14,2068110.0,AU,128.7333,-15.7667,70.0,1685797551.0
163,Ponta do Sol,72.03,75.0,2.3,2264557.0,PT,-17.1,32.6667,99.0,1685797553.0
164,Vanimo,78.89,84.0,1.74,2084442.0,PG,141.3028,-2.6741,16.0,1685797555.0
165,Kenai,42.84,86.0,3.44,5866063.0,US,-151.2583,60.5544,100.0,1685797557.0
166,Tarnogskiy Gorodok,54.99,95.0,9.66,484314.0,RU,43.5761,60.4997,100.0,1685797559.0
167,Tottori-shi,62.67,88.0,4.61,1849892.0,JP,134.2333,35.5,20.0,1685797305.0
168,Baracoa,80.98,80.0,5.77,3567834.0,CU,-74.4958,20.3467,78.0,1685797563.0
169,Krasnyy Kholm,54.9,40.0,9.86,541704.0,RU,37.1203,58.0607,100.0,1685797566.0
170,Nabire,77.92,90.0,1.57,1634614.0,ID,135.4833,-3.3667,100.0,1685797568.0
171,Zaysan,74.64,30.0,5.61,1517060.0,KZ,84.8667,47.4667,1.0,1685797570.0
172,New Norfolk,38.98,69.0,2.13,2155415.0,AU,147.0587,-42.7826,0.0,1685797572.0
173,Muhos,51.58,42.0,2.89,645765.0,FI,25.9931,64.808,100.0,1685797574.0
174,Sabzawār,97.88,13.0,13.8,118063.0,IR,57.6819,36.2126,40.0,1685797576.0
175,Catuday,80.1,82.0,5.44,1717787.0,PH,119.8062,16.2923,100.0,1685797578.0
176,Enshi,68.7,87.0,0.87,1811720.0,CN,109.4833,30.3,100.0,1685797581.0
177,Timiryazevskiy,83.08,48.0,5.06,1489597.0,RU,84.8769,56.49,97.0,1685797583.0
178,Aklavik,46.74,50.0,4.43,5882953.0,CA,-135.0107,68.2191,100.0,1685797524.0
179,Pochutla,77.83,74.0,2.57,3517970.0,MX,-96.4661,15.7432,7.0,1685797587.0
180,Bathsheba,83.01,89.0,10.36,3374083.0,BB,-59.5167,13.2167,40.0,1685797589.0
181,Salalah,89.69,66.0,13.8,286621.0,OM,54.0924,17.0151,20.0,1685797591.0
182,Airai,61.12,97.0,2.53,1651810.0,TL,125.4092,-8.9266,82.0,1685797593.0
183,Fuyang,68.9,68.0,9.95,1810845.0,CN,115.8167,32.9,100.0,1685797595.0
184,Makakilo City,70.23,79.0,8.05,5850554.0,US,-158.0858,21.3469,0.0,1685797598.0
185,Impfondo,86.97,57.0,2.04,2259655.0,CG,18.0667,1.6381,100.0,1685797600.0
186,Anloga,80.31,82.0,13.31,2304548.0,GH,0.8973,5.7947,100.0,1685797602.0
187,Chui,64.02,77.0,7.83,3443061.0,UY,-53.4616,-33.6971,99.0,1685797604.0
188,Nishihara,75.7,92.0,5.75,1855342.0,JP,127.7558,26.1842,40.0,1685797606.0
189,Bariloche,43.25,89.0,9.06,7647007.0,AR,-71.3082,-41.1456,100.0,1685797608.0
190,Kristianstad,66.34,42.0,8.05,2699310.0,SE,14.1524,56.0313,0.0,1685797610.0
191,Cabo San Lucas,71.83,49.0,3.44,3985710.0,MX,-109.9124,22.8909,20.0,1685797464.0
192,Hunchun,52.74,88.0,4.23,2036653.0,CN,130.3581,42.8675,10.0,1685797615.0
193,Aykhal,51.73,68.0,16.51,2027296.0,RU,111.5,66.0,97.0,1685797617.0
194,Nchelenge,80.13,47.0,9.26,175499.0,ZM,28.734,-9.3451,88.0,1685797619.0
195,Hobyo,84.54,74.0,24.49,57000.0,SO,48.5268,5.3505,62.0,1685797621.0
196,Pechenga,52.3,38.0,8.72,511865.0,RU,31.1703,69.5259,100.0,1685797623.0
197,Hambantota,83.43,80.0,19.69,1244926.0,LK,81.1185,6.1241,51.0,1685797625.0
198,Lompoc,52.61,86.0,3.44,5367788.0,US,-120.4579,34.6391,100.0,1685797337.0
199,Hasaki,59.56,63.0,16.75,2112802.0,JP,140.8333,35.7333,0.0,1685797629.0
200,Departamento de Maldonado,65.52,86.0,8.25,3441890.0,UY,-54.9167,-34.6667,88.0,1685797631.0
201,Naze,69.66,75.0,8.5,1855540.0,JP,129.4833,28.3667,91.0,1685797634.0
202,Nikolskoye,54.43,65.0,9.71,546105.0,RU,30.7861,59.7035,98.0,1685797636.0
203,Dul'durga,48.6,78.0,6.85,2024812.0,RU,113.5931,50.6761,100.0,1685797638.0
204,Leh,50.54,33.0,5.19,1264976.0,IN,77.5833,34.1667,89.0,1685797640.0
205,Lata,79.36,49.0,5.28,2738381.0,PT,-8.3327,40.1629,41.0,1685797642.0
206,Tiksi,39.22,83.0,3.09,2015306.0,RU,128.8694,71.6872,60.0,1685797644.0
207,Qaanaaq,23.47,77.0,2.1,3831208.0,GL,-69.3632,77.484,28.0,1685797647.0
208,Ilulissat,29.62,97.0,4.83,3423146.0,GL,-51.1,69.2167,100.0,1685797649.0
209,Saint-Augustin,45.36,46.0,13.02,6137462.0,CA,-58.6502,51.226,78.0,1685797651.0
210,Saskylakh,53.46,97.0,7.07,2017155.0,RU,114.0833,71.9167,100.0,1685797653.0
211,Tessalit,102.43,9.0,12.77,2449893.0,ML,1.0114,20.1986,14.0,1685797655.0
212,Rayong,85.78,81.0,7.47,1607016.0,TH,101.4333,12.8333,10.0,1685797657.0
213,Sur,97.84,38.0,6.02,286245.0,OM,59.5289,22.5667,0.0,1685797659.0
214,Bereket,96.42,19.0,7.27,161974.0,TM,55.5154,39.2446,0.0,1685797400.0
215,Staraya Kulatka,77.23,41.0,7.05,489164.0,RU,47.6167,52.7167,100.0,1685797663.0
216,Roswell,70.36,72.0,5.75,4219934.0,US,-84.3616,34.0232,0.0,1685797666.0
217,Santa Luzia,65.16,77.0,12.66,3450144.0,BR,-43.8514,-19.7697,20.0,1685797507.0
218,São Filipe,75.4,75.0,7.63,3374210.0,CV,-24.4956,14.8961,8.0,1685797670.0
219,San Luis,62.96,64.0,4.81,3837056.0,AR,-66.3356,-33.295,21.0,1685797672.0
220,Fairbanks,40.1,84.0,3.44,5861897.0,US,-147.7164,64.8378,75.0,1685797589.0
221,Sibolga,78.01,89.0,2.48,1213855.0,ID,98.7792,1.7427,100.0,1685797676.0
222,Pahrump,65.25,29.0,0.74,5509851.0,US,-115.9839,36.2083,0.0,1685797658.0
223,Narsaq,46.62,97.0,5.06,3421719.0,GL,-46.05,60.9167,100.0,1685797680.0
224,Hamilton,74.5,58.0,5.75,4513583.0,US,-84.5333,39.1834,0.0,1685797536.0
225,Fortuna,49.89,94.0,0.0,5563839.0,US,-124.1573,40.5982,100.0,1685797685.0
226,Ayan,39.49,89.0,3.74,2027316.0,RU,138.1667,56.45,62.0,1685797687.0
227,El Dorado,54.3,67.0,3.0,5345659.0,US,-120.5177,38.7666,5.0,1685797689.0
228,Leonidovo,40.78,94.0,4.94,2123805.0,RU,142.8667,49.2833,100.0,1685797692.0
229,Chicama,72.14,80.0,6.44,3698359.0,PE,-79.1469,-7.8447,14.0,1685797694.0
230,Umluj,90.41,47.0,8.34,100926.0,SA,37.2685,25.0213,0.0,1685797696.0
231,Acapulco de Juárez,82.22,78.0,8.05,3533462.0,MX,-99.8901,16.8634,40.0,1685797582.0
232,Santa Maria,67.87,68.0,6.22,3450083.0,BR,-53.8069,-29.6842,13.0,1685797700.0
233,Ubinskoye,84.56,46.0,3.8,1488708.0,RU,79.6802,55.3068,30.0,1685797702.0
234,Flinders,62.82,81.0,3.0,6255012.0,AU,150.8552,-34.5833,99.0,1685797704.0
235,Broome,68.56,75.0,6.91,5110365.0,US,-75.833,42.2506,40.0,1685797706.0
236,Mossamedes,75.49,58.0,15.73,3347019.0,AO,12.1522,-15.1961,8.0,1685797709.0
237,Orange Cove,60.03,73.0,0.0,5379533.0,US,-119.3137,36.6244,0.0,1685797711.0
238,Barra Patuca,81.5,72.0,6.31,3614835.0,HN,-84.2833,15.8,0.0,1685797713.0
239,Arlit,109.87,4.0,14.05,2447513.0,NE,7.3853,18.7369,9.0,1685797715.0
240,Chilia Veche,69.46,65.0,15.66,682117.0,RO,29.2833,45.4167,100.0,1685797717.0
241,Conde,83.66,65.0,14.97,3385077.0,BR,-34.9075,-7.2597,75.0,1685797719.0
242,Bulungu,93.92,37.0,1.16,2316259.0,CD,18.6,-4.55,100.0,1685797721.0
243,Baker City,45.9,78.0,3.44,5712169.0,US,-117.8344,44.7749,0.0,1685797723.0
244,Rājākhera,101.3,19.0,9.53,1258930.0,IN,78.1714,26.8961,0.0,1685797726.0
245,Portland,47.53,83.0,4.61,5746545.0,US,-122.6762,45.5234,0.0,1685797662.0
246,Birkeland,60.35,55.0,11.5,3161532.0,NO,8.2323,58.3309,0.0,1685797730.0
247,Dvinskoy Bereznik,52.68,81.0,5.06,577240.0,RU,42.7072,62.8551,100.0,1685797732.0
248,Jalingo,96.91,39.0,7.72,2336589.0,NG,11.3667,8.8833,68.0,1685797700.0
249,Yar-Sale,68.56,47.0,5.19,1486321.0,RU,70.8333,66.8333,89.0,1685797736.0
250,Tafresh,81.54,18.0,11.25,113636.0,IR,50.013,34.692,4.0,1685797738.0
251,Homer,49.68,60.0,8.05,5864145.0,US,-151.5483,59.6425,100.0,1685797740.0
252,Mandalgovi,57.69,37.0,9.31,2030065.0,MN,106.2708,45.7625,0.0,1685797742.0
253,Kibala,89.87,48.0,7.7,2425791.0,TD,18.3463,9.1104,100.0,1685797745.0
254,Ulladulla,59.77,83.0,9.24,2145554.0,AU,150.4667,-35.35,100.0,1685797508.0
255,Sitka,49.89,87.0,0.0,5557293.0,US,-135.33,57.0531,75.0,1685797749.0
256,Leningradskiy,22.87,94.0,5.93,2123814.0,RU,178.4167,69.3833,100.0,1685797751.0
257,Takāb,77.0,23.0,15.88,113508.0,IR,47.1133,36.4009,39.0,1685797641.0
258,Tarancón,71.26,37.0,2.44,3108317.0,ES,-3.0073,40.0085,30.0,1685797755.0
259,Goderich,71.91,74.0,9.1,5962442.0,CA,-81.7165,43.7501,6.0,1685797757.0
260,Rosa Zarate,77.76,91.0,1.54,3652257.0,EC,-79.4667,0.3333,88.0,1685797759.0
261,Luganville,78.37,87.0,11.92,2136150.0,VU,167.1667,-15.5333,99.0,1685797762.0
262,Druzhba,57.24,46.0,15.46,709584.0,UA,33.9453,52.0428,62.0,1685797764.0
263,Valea lui Mihai,73.11,50.0,6.58,663692.0,RO,22.15,47.5167,8.0,1685797766.0
264,Ancud,49.35,77.0,17.98,3899695.0,CL,-73.8203,-41.8697,100.0,1685797768.0
265,Matagami,61.05,42.0,6.53,6067747.0,CA,-77.6328,49.7502,19.0,1685797770.0
266,Peniche,71.4,76.0,13.06,2264923.0,PT,-9.3811,39.3558,8.0,1685797499.0
267,Miraflores,61.45,63.0,0.4,3761194.0,MX,-98.8083,19.2167,0.0,1685797774.0
268,Lebu,55.92,88.0,17.16,3883457.0,CL,-73.65,-37.6167,37.0,1685797777.0
269,Crawley,67.96,54.0,13.8,2652053.0,GB,-0.1831,51.113,40.0,1685797779.0
270,Khonsa,74.21,59.0,3.65,1266668.0,IN,95.5667,27.0167,0.0,1685797781.0
271,Yumen,65.41,37.0,18.1,1528998.0,CN,97.2,40.2833,100.0,1685797783.0
272,Bubaque,80.29,71.0,9.01,2374583.0,GW,-15.8333,11.2833,100.0,1685797785.0
273,Ribas do Rio Pardo,70.72,62.0,6.6,3451399.0,BR,-53.7592,-20.4431,0.0,1685797628.0
274,Malbork,60.75,42.0,5.19,3092472.0,PL,19.0266,54.0359,28.0,1685797789.0
275,Saint-Leu,75.38,76.0,12.64,6690297.0,RE,55.2833,-21.15,6.0,1685797791.0
276,Arkhara,48.94,83.0,3.49,2027487.0,RU,130.0842,49.4212,69.0,1685797793.0
277,Tura,84.83,44.0,2.95,1254046.0,IN,90.2201,25.5198,0.0,1685797797.0
278,Ingham,70.0,68.0,4.61,4997130.0,US,-84.3833,42.6,0.0,1685797799.0
279,Sarandi,65.21,72.0,8.19,3447998.0,BR,-51.8739,-23.4436,0.0,1685797801.0
280,Biak,78.03,84.0,5.12,1637001.0,ID,122.8766,-0.9131,100.0,1685797803.0
281,Nieuw Amsterdam,79.02,94.0,5.01,3383434.0,SR,-55.0833,5.8833,100.0,1685797805.0
282,Boundiali,91.53,45.0,4.52,2290836.0,CI,-6.4869,9.5217,83.0,1685797807.0
283,Aitape,78.1,86.0,3.56,2101169.0,PG,142.3475,-3.1374,100.0,1685797810.0
284,Manadhoo,82.72,80.0,22.41,1337618.0,MV,73.3833,5.7667,100.0,1685797812.0
285,Ca Mau,83.17,78.0,6.6,1586443.0,VN,105.15,9.1769,96.0,1685797814.0
286,San Patricio,76.98,78.0,6.22,4726521.0,US,-97.5169,28.017,94.0,1685797816.0
287,Portree,59.52,82.0,8.23,2640006.0,GB,-6.1942,57.4129,6.0,1685797818.0
288,Srednekolymsk,56.1,33.0,4.25,2121025.0,RU,153.6833,67.45,100.0,1685797820.0
289,Zhangaözen,91.42,19.0,3.91,607610.0,KZ,52.8,43.3,66.0,1685797822.0
290,Mayo,73.67,79.0,5.75,4362001.0,US,-76.5119,38.8876,0.0,1685797825.0
291,Hualmay,68.47,82.0,9.53,3939761.0,PE,-77.6139,-11.0964,63.0,1685797827.0
292,Púchov,68.65,31.0,3.96,3057963.0,SK,18.326,49.1249,5.0,1685797829.0
293,Hong Kong,86.79,84.0,8.01,1819729.0,HK,114.1577,22.2855,6.0,1685797831.0
294,Dzilam González,81.99,63.0,5.79,3529654.0,MX,-88.9333,21.2833,3.0,1685797833.0
295,Sistranda,46.36,85.0,19.73,3139597.0,NO,8.834,63.7256,100.0,1685797835.0
296,Ondjiva,89.29,15.0,6.06,3346821.0,AO,15.7333,-17.0667,0.0,1685797837.0
297,Taguatinga,85.48,39.0,10.74,6319623.0,BR,-46.5711,-12.3857,0.0,1685797603.0
298,Evensk,45.41,80.0,1.92,2125693.0,RU,159.2333,61.95,16.0,1685797843.0
299,Katsuura,65.28,79.0,7.58,2112309.0,JP,140.3,35.1333,7.0,1685797845.0
300,Ambovombe,79.14,52.0,6.46,1079048.0,MG,46.0833,-25.1667,0.0,1685797847.0
301,Pisco,69.85,78.0,4.61,3932145.0,PE,-76.2167,-13.7,100.0,1685797849.0
302,Lala,77.67,92.0,1.86,1707944.0,PH,123.7458,7.9745,100.0,1685797851.0
303,East London,77.94,31.0,14.97,1006984.0,ZA,27.9116,-33.0153,0.0,1685797853.0
304,Nyurba,58.51,62.0,6.4,2018735.0,RU,118.3319,63.2842,91.0,1685797855.0
305,Baykit,65.41,42.0,10.11,1510689.0,RU,96.37,61.67,4.0,1685797858.0
306,Muyezerskiy,42.84,73.0,3.96,524100.0,RU,31.65,63.9333,100.0,1685797860.0
307,Umarkot,108.66,15.0,16.93,1162959.0,PK,69.7362,25.3616,0.0,1685797862.0
308,Paamiut,33.15,88.0,17.31,3421193.0,GL,-49.6678,61.994,10.0,1685797864.0
309,Gberia Fotombu,83.41,66.0,3.94,2409019.0,SL,-11.1667,9.8833,100.0,1685797866.0
310,Auki,77.85,88.0,4.07,2109701.0,SB,160.7034,-8.7676,100.0,1685797868.0
311,Timmins,55.22,62.0,2.3,6166739.0,CA,-81.3331,48.4669,100.0,1685797870.0
312,Pachino,70.59,70.0,14.18,6539213.0,IT,15.0907,36.7186,12.0,1685797873.0
313,Arrondissement d'Arcachon,82.45,47.0,9.22,6621469.0,FR,-1.0519,44.5875,71.0,1685797875.0
314,Avera,70.41,73.0,8.3,4231997.0,US,-82.5271,33.194,87.0,1685797877.0
315,Bonthe,83.53,73.0,6.67,2409914.0,SL,-12.505,7.5264,100.0,1685797879.0
316,Songjianghe,46.08,93.0,5.21,2034691.0,CN,127.479,42.1859,4.0,1685797881.0
317,Salisbury,69.19,53.0,13.8,2638664.0,GB,-1.7957,51.0693,75.0,1685797883.0
318,Xi'an,58.87,95.0,2.26,1790630.0,CN,108.9286,34.2583,100.0,1685797886.0
319,Touros,85.93,60.0,17.29,3386213.0,BR,-35.4608,-5.1989,0.0,1685797631.0
320,Boda,93.78,38.0,0.67,2388614.0,CF,17.4695,4.3189,25.0,1685797890.0
321,Mayumba,79.03,75.0,9.98,2399001.0,GA,10.6554,-3.432,47.0,1685797892.0
322,Chul'man,49.82,70.0,4.21,2025261.0,RU,124.9104,56.8479,53.0,1685797894.0
323,Tambacounda,100.45,30.0,6.91,2244991.0,SN,-13.7586,13.7539,0.0,1685797896.0
324,Bushehr,90.86,51.0,9.75,139817.0,IR,50.8385,28.9684,3.0,1685797898.0
325,Port Hardy,48.38,93.0,3.44,6111862.0,CA,-127.4199,50.6996,75.0,1685797900.0
326,Shashi,68.02,69.0,14.27,1795816.0,CN,112.2447,30.3072,52.0,1685797902.0
327,Grand-Lahou,80.82,79.0,9.1,2288105.0,CI,-5.0242,5.1367,100.0,1685797905.0
328,State College,72.81,65.0,6.91,5213681.0,US,-77.86,40.7934,0.0,1685797907.0
329,Teguise,77.22,44.0,8.05,2510573.0,ES,-13.564,29.0605,20.0,1685797641.0
330,Magdagachi,52.66,72.0,5.35,2020591.0,RU,125.8,53.45,69.0,1685797911.0
331,Gaozhou,81.59,83.0,7.67,1810295.0,CN,110.8461,21.9392,2.0,1685797724.0
332,Meulaboh,79.63,81.0,0.92,1214488.0,ID,96.1285,4.1363,100.0,1685797915.0
333,Río Gallegos,39.36,64.0,6.8,3838859.0,AR,-69.2181,-51.6226,100.0,1685797917.0
334,Chaihe,50.22,90.0,0.63,2038198.0,CN,129.7,44.7667,100.0,1685797919.0
335,Nikel,50.18,36.0,7.29,522260.0,RU,30.222,69.4128,100.0,1685797921.0
336,Beringovskiy,42.48,85.0,7.25,2126710.0,RU,179.3167,63.05,80.0,1685797924.0
337,Coyhaique,37.35,93.0,5.75,3894426.0,CL,-72.0662,-45.5752,75.0,1685797926.0
338,Vardø,46.38,66.0,9.22,777019.0,NO,31.1107,70.3705,100.0,1685797928.0
339,Talnakh,48.96,65.0,7.9,1490256.0,RU,88.3972,69.4865,98.0,1685797930.0
340,Faya,70.32,49.0,1.39,110690.0,SA,42.4509,18.3851,90.0,1685797933.0
341,Znamenskoye,84.96,35.0,8.3,1485020.0,RU,73.8282,57.1281,12.0,1685797935.0
342,Manavgat,73.27,77.0,10.8,304854.0,TR,31.4431,36.7867,20.0,1685797937.0
343,Cairns,71.82,100.0,10.36,2172797.0,AU,145.7667,-16.9167,100.0,1685797907.0
344,Klaksvík,50.92,85.0,9.8,2618795.0,FO,-6.589,62.2266,51.0,1685797941.0
345,Fonte Boa,77.54,89.0,2.48,6319315.0,BR,-66.2662,-2.4959,62.0,1685797943.0
346,Piaçabuçu,78.96,82.0,7.61,3454005.0,BR,-36.4344,-10.4056,12.0,1685797946.0
347,Havøysund,50.23,81.0,10.09,779622.0,NO,24.6622,70.9963,92.0,1685797948.0
348,Boden,51.8,58.0,3.38,606531.0,SE,21.6886,65.8252,100.0,1685797950.0
349,Nhulunbuy,77.61,88.0,5.75,2064735.0,AU,136.7667,-12.2333,75.0,1685797952.0
350,Kamenka,70.3,62.0,8.25,553766.0,RU,42.7678,51.3223,100.0,1685797954.0
351,Kazachinskoye,71.85,45.0,7.92,1504075.0,RU,93.2761,57.6953,12.0,1685797956.0
352,Geraldton,52.21,82.0,6.91,2070998.0,AU,114.6,-28.7667,100.0,1685797958.0
353,Maxixe,85.08,52.0,11.68,1039536.0,MZ,35.3472,-23.8597,0.0,1685797960.0
354,Leon Valley,68.0,87.0,3.44,4705923.0,US,-98.6186,29.4952,0.0,1685797963.0
355,Nome,33.87,93.0,3.44,5870133.0,US,-165.4064,64.5011,100.0,1685797965.0
356,Manokwari,79.56,82.0,3.47,1636308.0,ID,134.0833,-0.8667,90.0,1685797967.0
357,Grand-Santi,81.61,79.0,3.24,3381538.0,GF,-54.3833,4.25,100.0,1685797969.0
358,Faanui,77.45,66.0,8.99,4034551.0,PF,-151.75,-16.4833,18.0,1685797971.0
359,Clyde River,23.23,93.0,9.22,5924351.0,CA,-68.5914,70.4692,20.0,1685797973.0
360,Kosa,62.31,94.0,10.02,544318.0,RU,54.9977,59.9445,100.0,1685797975.0
361,Blackwater,61.07,84.0,8.79,2175403.0,AU,148.8833,-23.5833,0.0,1685797977.0
362,Assiniboia,62.42,94.0,10.36,5887798.0,CA,-105.9845,49.6334,100.0,1685797979.0
363,Bambous Virieux,77.25,73.0,14.97,1106677.0,MU,57.7575,-20.3428,75.0,1685797982.0
364,Arona,69.17,64.0,4.61,2521582.0,ES,-16.681,28.0996,75.0,1685797984.0
365,Belyy Yar,82.29,30.0,6.71,1510377.0,RU,91.3903,53.6039,0.0,1685797986.0
366,San Miguel,74.8,100.0,0.0,3583446.0,SV,-88.1833,13.4833,0.0,1685797988.0
367,Maniitsoq,32.97,77.0,16.02,3421982.0,GL,-52.9,65.4167,100.0,1685797990.0
368,Freeport,65.3,76.0,17.27,5117949.0,US,-73.5832,40.6576,100.0,1685797725.0
369,Constitución,55.98,94.0,9.89,3893726.0,CL,-72.4167,-35.3333,100.0,1685797994.0
370,Tarakan,83.7,79.0,2.3,1624725.0,ID,117.6333,3.3,40.0,1685797996.0
371,Nirmal,100.81,20.0,9.44,1261288.0,IN,78.35,19.1,90.0,1685797998.0
372,Zmeinogorsk,71.33,64.0,10.63,1485042.0,RU,82.195,51.1567,34.0,1685798001.0
373,Valparaíso,57.74,92.0,5.75,3868626.0,CL,-71.6273,-33.0393,75.0,1685797923.0
374,Caravelas,78.42,56.0,10.38,3466980.0,BR,-39.2481,-17.7125,0.0,1685798005.0
375,Torbay,42.17,97.0,13.8,6167817.0,CA,-52.7314,47.6666,100.0,1685798007.0
376,Le Port,76.01,76.0,3.62,935616.0,RE,55.2919,-20.9373,28.0,1685798009.0
377,Kumul,80.78,12.0,4.18,1529484.0,CN,93.45,42.8,13.0,1685798011.0
378,Inverell,48.11,88.0,1.01,2162662.0,AU,151.1167,-29.7833,15.0,1685798013.0
379,Tortolì,75.02,64.0,6.91,2522890.0,IT,9.6572,39.9256,20.0,1685798015.0
380,Beipiao,69.89,20.0,3.58,2038342.0,CN,120.7792,41.7919,7.0,1685798018.0
381,Novo Aripuanã,83.05,72.0,3.02,3663142.0,BR,-60.3797,-5.1206,74.0,1685798020.0
382,Akdepe,100.49,10.0,6.38,601551.0,TM,59.3788,42.0551,0.0,1685798022.0
383,Pangnirtung,33.58,98.0,4.76,6096551.0,CA,-65.7125,66.1451,99.0,1685798024.0
384,Komatipoort,92.05,14.0,9.78,988290.0,ZA,31.9548,-25.4332,20.0,1685798026.0
385,Kailua,72.9,82.0,13.18,5847486.0,US,-157.7394,21.4022,100.0,1685798025.0
386,Massakory,98.46,34.0,13.89,2428228.0,TD,15.7293,12.996,89.0,1685798030.0
387,Byron Bay,57.7,84.0,2.82,2172880.0,AU,153.6167,-28.65,47.0,1685797760.0
388,Dawson Creek,58.64,58.0,6.91,5935804.0,CA,-120.2362,55.7666,20.0,1685798034.0
389,Port-Gentil,82.36,74.0,17.27,2396518.0,GA,8.7815,-0.7193,20.0,1685798037.0
390,Augusto Corrêa,82.26,85.0,5.44,3406961.0,BR,-46.635,-1.0217,22.0,1685798039.0
391,Araouane,104.18,10.0,7.07,2460954.0,ML,-3.5265,18.9048,16.0,1685798041.0
392,Coahuayana Viejo,71.91,78.0,3.65,4013679.0,MX,-103.6833,18.7333,12.0,1685798043.0
393,Mount Gambier,51.85,95.0,6.69,2156643.0,AU,140.7667,-37.8333,10.0,1685798045.0
394,Swan River,67.89,83.0,8.05,6160362.0,CA,-101.2676,52.1058,78.0,1685798047.0
395,Bima,72.12,92.0,4.07,1648759.0,ID,118.7167,-8.4667,5.0,1685798012.0
396,Cherskiy,39.51,74.0,8.01,2126199.0,RU,161.3,68.75,100.0,1685798051.0
397,Adrar,94.06,16.0,9.08,2381972.0,MR,-10.0711,20.5022,0.0,1685798054.0
398,Egvekinot,25.7,90.0,4.68,4031742.0,RU,-179.1667,66.3167,37.0,1685798056.0
399,Comodoro Rivadavia,53.11,53.0,10.6,3860443.0,AR,-67.5,-45.8667,100.0,1685797763.0
400,Volchikha,82.92,32.0,9.86,1486983.0,RU,80.3833,52.0333,8.0,1685798060.0
401,Paita,74.48,80.0,12.8,3694112.0,PE,-81.1144,-5.0892,19.0,1685798062.0
402,Calama,50.49,10.0,25.32,3897347.0,CL,-68.9333,-22.4667,0.0,1685798064.0
403,Abalak,88.48,38.0,9.48,1512223.0,RU,68.5944,58.1286,57.0,1685798066.0
404,Atar,94.08,18.0,7.4,2381334.0,MR,-13.0499,20.5169,0.0,1685798068.0
405,Venado Tuerto,64.76,89.0,6.91,3833062.0,AR,-61.9688,-33.7456,100.0,1685798071.0
406,Ostrovnoy,40.15,70.0,8.81,556268.0,RU,39.5131,68.0531,47.0,1685798073.0
407,Praia,81.14,54.0,20.71,3374333.0,CV,-23.5087,14.9215,20.0,1685798075.0
408,Campoverde,80.29,79.0,1.16,3733380.0,PE,-74.8058,-8.4753,91.0,1685798077.0
409,Peebles,62.47,47.0,5.97,2640526.0,GB,-3.1888,55.6519,10.0,1685798079.0
410,Ngunguru,52.09,82.0,6.51,2186111.0,NZ,174.5,-35.6167,46.0,1685798081.0
411,Haines Junction,28.35,86.0,1.14,5969025.0,CA,-137.5108,60.7522,4.0,1685798083.0
412,Chernyshevsk,57.7,40.0,4.12,2025458.0,RU,117.0174,52.5243,47.0,1685798085.0
413,Makiyivka,72.03,53.0,7.52,702320.0,UA,37.9258,48.0478,88.0,1685798087.0
414,Petropavlovsk-Kamchatskiy,37.99,100.0,4.47,2122104.0,RU,158.6483,53.0452,100.0,1685798090.0
415,Los Llanos de Aridane,67.12,86.0,5.01,2514651.0,ES,-17.9182,28.6585,75.0,1685798092.0
416,Nuevo Progreso,77.9,72.0,1.99,3522526.0,MX,-97.95,23.1667,15.0,1685798094.0
417,Norsup,79.14,82.0,14.81,2135517.0,VU,167.3833,-16.0667,93.0,1685798097.0
418,Yulara,65.89,30.0,5.14,6355222.0,AU,130.9889,-25.2406,100.0,1685798099.0
419,Hohhot,70.09,24.0,8.95,2036892.0,CN,111.6522,40.8106,20.0,1685798101.0
420,Bowen,70.56,83.0,13.78,2174444.0,AU,148.2333,-20.0167,12.0,1685798104.0
421,Smoky Lake,55.44,100.0,3.44,6150293.0,CA,-112.4686,54.1169,100.0,1685798000.0
422,Angoram,74.37,99.0,1.12,2100765.0,PG,144.0661,-4.0625,98.0,1685798108.0
423,Itarema,83.34,70.0,15.08,3393692.0,BR,-39.9167,-2.9248,40.0,1685798110.0
424,La Asuncion,83.93,74.0,5.75,3480908.0,VE,-63.8628,11.0333,19.0,1685798112.0
425,Berlevåg,51.6,40.0,12.66,780687.0,NO,29.0864,70.8578,100.0,1685798114.0
426,Ambilobe,84.72,51.0,12.68,1082243.0,MG,49.05,-13.2,31.0,1685798116.0
427,Teya,68.97,43.0,6.46,1489656.0,RU,92.6267,60.3778,41.0,1685798119.0
428,Máncora,78.06,73.0,7.67,3695000.0,PE,-81.0475,-4.1078,9.0,1685798121.0
429,Crotone,76.95,60.0,12.66,2524881.0,IT,17.1178,39.0851,20.0,1685798123.0
430,Sechura,75.07,77.0,13.33,3691954.0,PE,-80.8222,-5.5569,25.0,1685798125.0
431,Tarko-Sale,73.58,32.0,2.01,1490085.0,RU,77.785,64.9225,77.0,1685798127.0
432,Yerofey Pavlovich,53.55,60.0,4.94,2012938.0,RU,121.9667,53.9667,90.0,1685798129.0
433,Doha,97.83,37.0,17.27,290030.0,QA,51.5333,25.2867,0.0,1685798132.0
434,Palmer,55.24,76.0,5.75,4946620.0,US,-72.3287,42.1584,100.0,1685798134.0
435,Darhan,54.79,79.0,3.56,2031964.0,MN,105.9228,49.4867,100.0,1685798136.0
436,Rantauprapat,78.6,88.0,1.83,1214073.0,ID,99.8333,2.1,99.0,1685798138.0
437,Arroyo de la Encomienda,75.67,43.0,4.61,3129371.0,ES,-4.7969,41.6096,20.0,1685798140.0
438,Keetmanshoop,64.92,39.0,10.27,3356264.0,NA,18.1333,-26.5833,0.0,1685798142.0
439,Staryy Nadym,74.19,32.0,9.98,1490918.0,RU,72.6842,65.6118,68.0,1685798144.0
440,Beloha,84.96,26.0,4.12,1067565.0,MG,45.05,-25.1667,0.0,1685798147.0
441,Kelvington,64.02,94.0,9.37,5990669.0,CA,-103.5343,52.1667,100.0,1685798149.0
442,Munger,100.54,10.0,7.52,1262482.0,IN,86.4667,25.3833,0.0,1685798151.0
443,Grindavik,50.47,87.0,14.97,3416888.0,IS,-22.4338,63.8424,100.0,1685798153.0
444,Kangaatsiaq,31.48,79.0,3.98,3422683.0,GL,-53.4641,68.3065,100.0,1685798155.0
445,Omsukchan,52.34,70.0,5.77,2122493.0,RU,155.8,62.5333,94.0,1685798157.0
446,Quzhou,77.99,78.0,6.44,1797264.0,CN,118.8686,28.9594,90.0,1685798159.0
447,Neijiang,64.81,94.0,5.1,1799491.0,CN,105.0622,29.5835,100.0,1685798161.0
448,Bonavista,38.79,97.0,13.91,5905393.0,CA,-53.1147,48.6499,100.0,1685798163.0
449,Pauini,76.98,88.0,1.32,3662927.0,BR,-66.9764,-7.7136,44.0,1685798166.0
450,Poso,78.39,90.0,4.07,1630723.0,ID,120.7524,-1.3959,20.0,1685798168.0
451,Hervey Bay,68.11,85.0,8.12,2146219.0,AU,152.8535,-25.2986,94.0,1685798153.0
452,Gambēla,90.64,46.0,3.78,337405.0,ET,34.5833,8.25,100.0,1685798172.0
453,Hede,68.05,54.0,6.55,1808744.0,CN,120.2517,33.7681,100.0,1685798174.0
454,Alice Springs,72.95,25.0,10.36,2077895.0,AU,133.8833,-23.7,40.0,1685798176.0
455,Tazmalt,66.72,76.0,4.41,2477537.0,DZ,4.3989,36.3868,100.0,1685798178.0
456,Mangaratiba,72.46,68.0,2.48,3457991.0,BR,-44.0406,-22.9597,2.0,1685798181.0
457,Porto-Novo,78.62,67.0,9.33,2392087.0,BJ,2.6036,6.4965,100.0,1685798183.0
458,Sabha,103.15,10.0,12.68,2212775.0,LY,14.4283,27.0377,0.0,1685798185.0
459,Salinópolis,82.62,78.0,10.09,3389822.0,BR,-47.3561,-0.6136,55.0,1685798187.0
460,Riyadh,102.34,9.0,15.46,108410.0,SA,46.7219,24.6877,6.0,1685797993.0
461,Jönköping,67.71,30.0,9.22,2702979.0,SE,14.1562,57.7814,40.0,1685798191.0
462,Yatou,66.0,52.0,5.1,1786855.0,CN,122.3833,37.15,84.0,1685798195.0
463,Jaru,77.09,87.0,1.43,3925040.0,BR,-62.4664,-10.4389,4.0,1685798197.0
464,Yashan,81.1,89.0,6.2,1786867.0,CN,109.9419,22.1975,2.0,1685798199.0
465,Bamiantong,50.16,91.0,2.75,2038482.0,CN,130.5333,44.9333,100.0,1685798201.0
466,Boa Vista,82.38,74.0,4.61,3664980.0,BR,-60.6733,2.8197,40.0,1685798203.0
467,Barra do Bugres,80.28,57.0,4.79,3470718.0,BR,-57.1811,-15.0725,50.0,1685798205.0
468,Butembo,71.38,63.0,0.34,217562.0,CD,29.2833,0.15,82.0,1685798207.0
469,Talaya,53.58,64.0,6.35,2120769.0,RU,152.75,61.3833,25.0,1685798209.0
470,Vengurla,85.98,69.0,13.56,1253257.0,IN,73.6333,15.8667,0.0,1685798211.0
471,Maracaçumé,83.8,75.0,5.61,3395497.0,BR,-45.9592,-2.0428,59.0,1685798214.0
472,Nouadhibou,76.98,65.0,17.27,2377457.0,MR,-17.0347,20.931,0.0,1685798216.0
473,La Celia,62.19,86.0,1.57,3679542.0,CO,-76.0167,5.0433,100.0,1685798218.0
474,Lüderitz,61.5,68.0,9.04,3355672.0,NA,15.1594,-26.6481,36.0,1685798220.0
475,Carutapera,83.08,80.0,7.74,3402648.0,BR,-46.02,-1.195,25.0,1685798222.0
476,Yauya,48.02,73.0,0.83,3690733.0,PE,-77.3,-8.9833,83.0,1685798224.0
477,Port Said,72.81,76.0,17.76,358619.0,EG,32.2841,31.2565,12.0,1685798227.0
478,Sambava,77.11,81.0,11.97,1056899.0,MG,50.1667,-14.2667,10.0,1685798229.0
479,Kafanchan,81.88,65.0,5.35,2335713.0,NG,8.3,9.5833,100.0,1685798231.0
480,Neftçala,78.03,65.0,14.56,147425.0,AZ,49.2472,39.3742,0.0,1685798233.0
481,Yhú,67.14,70.0,8.41,3436595.0,PY,-55.9167,-25.05,0.0,1685798235.0
482,Necochea,53.64,74.0,6.87,3430443.0,AR,-58.7368,-38.5473,6.0,1685798237.0
483,Muros,69.44,78.0,6.98,3115824.0,ES,-9.0603,42.7762,39.0,1685798239.0
484,Linxia Chengguanzhen,55.76,79.0,1.68,1803331.0,CN,103.2064,35.6003,100.0,1685798241.0
485,Tripoli,79.16,59.0,17.74,2210247.0,LY,13.1875,32.8752,6.0,1685798088.0
486,Ixtapa,78.03,83.0,0.0,4004293.0,MX,-105.2,20.7,100.0,1685798246.0
487,Santiago del Estero,69.26,73.0,2.24,3835869.0,AR,-64.2615,-27.7951,11.0,1685798248.0
488,Uribia,83.48,73.0,5.97,3666409.0,CO,-72.266,11.7139,100.0,1685798250.0
489,Rome,69.01,71.0,6.91,5134295.0,US,-75.4557,43.2128,20.0,1685798252.0
490,Xuanzhou,74.68,61.0,8.66,1788081.0,CN,118.7553,30.9525,98.0,1685798254.0
491,Arrondissement de Muret,79.34,48.0,4.0,2991152.0,FR,1.25,43.3333,72.0,1685798256.0
492,Orlik,53.65,72.0,3.11,1496073.0,RU,99.825,52.5178,99.0,1685798259.0
493,Toyoake,67.78,56.0,10.96,1856057.0,JP,137.0137,35.0594,6.0,1685798261.0
494,Ibrā’,103.26,6.0,17.83,287832.0,OM,58.5334,22.6906,0.0,1685798263.0
495,Ayagoz,76.98,22.0,16.8,1525988.0,KZ,80.4392,47.9714,0.0,1685798265.0
496,Deputatsky,44.28,64.0,2.59,2028164.0,RU,139.9,69.3,100.0,1685798267.0
497,Moyale,75.81,60.0,7.85,186180.0,KE,39.0584,3.5167,75.0,1685798269.0
498,Gresik,82.31,76.0,4.83,1643776.0,ID,112.6561,-7.1539,12.0,1685798271.0
499,Tsushima,68.05,71.0,7.54,1849539.0,JP,136.7167,35.1667,17.0,1685798273.0
500,Boralday,78.66,31.0,8.95,1526384.0,KZ,76.8594,43.3578,75.0,1685798275.0
501,Mahina,69.57,78.0,2.3,4034307.0,PF,-149.489,-17.5065,20.0,1685798278.0
502,Ust-Maya,53.89,60.0,2.8,2013918.0,RU,134.5333,60.4167,100.0,1685798280.0
503,General Pico,57.07,64.0,7.99,3855075.0,AR,-63.7568,-35.6566,100.0,1685798282.0
504,Labuan,80.96,94.0,0.0,1733782.0,MY,115.2417,5.2767,20.0,1685798284.0
505,Saint Anthony,71.08,79.0,5.75,5044290.0,US,-93.218,45.0205,0.0,1685798286.0
506,Iqaluit,38.93,65.0,5.75,5983720.0,CA,-68.5145,63.7506,100.0,1685798288.0
507,Haapiti,69.53,70.0,7.76,4034438.0,PF,-149.8667,-17.5667,100.0,1685798292.0
508,Sarankhola,81.3,65.0,14.38,1185239.0,BD,89.7897,22.3082,100.0,1685798295.0
509,Odienné,89.96,49.0,5.08,2283016.0,CI,-7.5692,9.51,92.0,1685798297.0
510,Miles City,61.77,100.0,3.44,5666176.0,US,-105.8406,46.4083,100.0,1685798300.0
511,Daru,77.45,90.0,14.52,2098329.0,PG,143.2092,-9.0763,99.0,1685798302.0
512,Umm Kaddadah,100.11,23.0,5.41,364933.0,SD,26.6876,13.6017,93.0,1685798304.0
513,Skegness,61.63,75.0,12.82,2637762.0,GB,0.3363,53.1436,2.0,1685798306.0
514,Saint-François,78.24,38.0,5.75,2980080.0,FR,3.9054,46.4154,0.0,1685798308.0
515,Semey,84.07,27.0,12.01,1519422.0,KZ,80.2275,50.4111,1.0,1685798310.0
516,Esperance,57.78,75.0,3.47,2071860.0,AU,121.9,-33.8667,100.0,1685798312.0
517,Selkirk,73.92,80.0,4.0,6144054.0,CA,-96.8845,50.1436,100.0,1685798150.0
518,Mahajanga,85.46,51.0,9.78,1062663.0,MG,46.3167,-15.7167,86.0,1685798317.0
519,Ruwi,94.69,39.0,5.41,287286.0,OM,58.5507,23.5996,0.0,1685798319.0
520,Pucallpa,80.64,78.0,2.3,3693345.0,PE,-74.5539,-8.3791,40.0,1685798321.0
521,Ginda,71.56,45.0,2.95,1253628.0,IN,78.4932,30.6945,67.0,1685798323.0
522,Hare Bay,38.8,93.0,9.48,5970873.0,CA,-54.0148,48.8499,100.0,1685798325.0
523,Kabalo,95.43,27.0,4.7,215668.0,CD,26.9167,-6.05,65.0,1685798327.0
524,Cockburn Town,79.68,81.0,4.23,3576994.0,TC,-71.1419,21.4612,100.0,1685798329.0
525,Kolomyia,60.71,48.0,6.62,705392.0,UA,25.0403,48.5306,13.0,1685798331.0
526,Odawara,66.27,90.0,5.64,1854747.0,JP,139.1597,35.2556,100.0,1685798333.0
527,Santa Cruz de la Sierra,75.25,78.0,20.71,3904906.0,BO,-63.1667,-17.8,40.0,1685798106.0
528,Derzhavīnsk,91.58,15.0,13.09,1524606.0,KZ,66.3167,51.1,13.0,1685798338.0
529,Raduzhny,73.0,44.0,4.14,1540356.0,RU,77.475,62.0961,93.0,1685798340.0
530,Gulariyā,98.26,16.0,9.44,1283368.0,NP,81.3333,28.2333,0.0,1685798342.0
531,Oudtshoorn,61.16,58.0,15.43,967106.0,ZA,22.2014,-33.5907,100.0,1685798344.0
532,Ruteng,62.11,91.0,1.77,1629380.0,ID,120.4721,-8.6136,24.0,1685798346.0
533,Sokolac,66.58,80.0,6.17,3190385.0,BA,18.8017,43.9397,84.0,1685798348.0
534,Jieshi,82.94,81.0,8.48,1805857.0,CN,115.8257,22.8134,7.0,1685798350.0
535,Porto Velho,80.65,83.0,1.14,3662762.0,BR,-63.9039,-8.7619,20.0,1685798353.0
536,Olinda,83.93,70.0,10.36,3393536.0,BR,-34.8553,-8.0089,40.0,1685798355.0
537,Vallenar,65.61,40.0,3.06,3868633.0,CL,-70.7581,-28.5708,100.0,1685798357.0
538,Bud,74.14,57.0,7.2,4255151.0,US,-86.1758,39.447,100.0,1685798359.0
539,Dhārchula,76.05,44.0,5.82,1272864.0,IN,80.5333,29.85,100.0,1685798361.0
540,Mabaruma,82.29,78.0,3.53,3377301.0,GY,-59.7833,8.2,94.0,1685798363.0
541,Nemuro,44.78,95.0,14.03,2128975.0,JP,145.575,43.3236,100.0,1685798365.0
542,Caucayá,74.01,93.0,2.15,3671437.0,CO,-74.7819,-0.1934,55.0,1685798368.0
543,Vanderhoof,48.69,76.0,3.47,6173361.0,CA,-124.0198,54.0166,5.0,1685798370.0
544,Maravilha,62.62,62.0,4.5,3457809.0,BR,-53.1725,-26.7608,0.0,1685798372.0
545,Nanlong,63.12,94.0,4.94,1799908.0,CN,106.0631,31.3533,100.0,1685798374.0
546,Seryshevo,53.31,53.0,7.65,2016942.0,RU,128.3786,51.0933,100.0,1685798376.0
547,Les Cayes,78.53,90.0,7.54,3728097.0,HT,-73.75,18.2,100.0,1685798378.0
548,Lagoa,64.22,80.0,3.71,3372964.0,PT,-27.9833,39.05,48.0,1685798380.0
549,Pacifica,51.17,89.0,5.01,5380420.0,US,-122.4869,37.6138,75.0,1685798383.0
550,Northam,60.87,64.0,13.76,2641434.0,GB,-4.2167,51.0333,8.0,1685798385.0
551,Rio Grande,69.91,70.0,8.9,3451138.0,BR,-52.0986,-32.035,99.0,1685798387.0
552,Gejiu,61.68,87.0,3.4,1810240.0,CN,103.1635,23.306,51.0,1685798389.0
553,Opuwo,86.79,14.0,11.21,3354077.0,NA,13.84,-18.0607,4.0,1685798391.0
554,La Ronge,61.05,94.0,10.36,6050066.0,CA,-105.2842,55.1001,75.0,1685798393.0
555,Yazykovo,71.22,75.0,14.7,468483.0,RU,56.1353,55.2199,62.0,1685798395.0
556,Batticaloa,85.91,76.0,7.07,1250161.0,LK,81.6924,7.7102,100.0,1685798397.0
557,Khasan,55.76,79.0,9.31,2039557.0,RU,130.6434,42.4308,7.0,1685798400.0
558,Kattivākkam,90.07,81.0,16.17,1267433.0,IN,80.3167,13.2167,75.0,1685798402.0
559,Arrondissement de Saint-Denis,75.04,42.0,9.22,2980915.0,FR,2.3333,48.9167,0.0,1685798404.0
560,Ende,74.73,89.0,3.0,1644932.0,ID,121.6623,-8.8432,35.0,1685798406.0
561,Harlingen,76.57,98.0,5.75,4696233.0,US,-97.6961,26.1906,0.0,1685798408.0
562,Zhicheng,69.3,68.0,6.42,1784554.0,CN,111.5047,30.2956,100.0,1685798411.0
563,Havelock,70.0,92.0,5.75,4470244.0,US,-76.9013,34.8791,75.0,1685798413.0
564,Madimba,82.74,57.0,12.08,878141.0,TZ,40.3333,-10.4,74.0,1685798415.0
565,Pacific Grove,50.94,90.0,5.75,5380437.0,US,-121.9166,36.6177,100.0,1685798417.0
566,Esim,81.23,77.0,8.28,2303611.0,GH,-2.2405,4.8699,100.0,1685798419.0
567,Gorontalo,77.34,93.0,2.53,1643837.0,ID,123.0595,0.5412,84.0,1685798421.0
568,Vaitape,77.43,65.0,8.9,4033077.0,PF,-151.75,-16.5167,17.0,1685798423.0
569,Ottawa,60.96,57.0,23.02,6094817.0,CA,-75.6981,45.4112,40.0,1685798426.0
570,Petropavl,87.49,35.0,9.26,1520172.0,KZ,69.1628,54.8753,0.0,1685798428.0
571,Bossangoa,87.6,52.0,7.09,2388036.0,CF,17.4552,6.4926,99.0,1685798430.0
572,Lavrentiya,25.72,94.0,5.41,4031637.0,RU,-171.0,65.5833,37.0,1685798432.0
573,Muskegon,72.75,55.0,5.75,5003136.0,US,-86.1334,43.3,20.0,1685798195.0
574,Lālmohan,86.25,76.0,19.22,1185251.0,BD,90.7419,22.3384,32.0,1685798436.0
575,Gainesville,71.58,83.0,5.75,4156404.0,US,-82.3248,29.6516,100.0,1685798372.0
