,City,Temp_max,Humidity,wind_speed,city_id,country_code,long,lat,Cloudiness,datetime
0,Flin Flon,71.44,49.0,0.0,5954718.0,CA,-101.865,54.7682,0.0,1685466002.0
1,Severo-Kuril'sk,41.59,96.0,22.5,2121385.0,RU,156.125,50.6789,100.0,1685466006.0
2,Codrington,57.52,85.0,14.92,2171099.0,AU,141.9667,-38.2667,100.0,1685466009.0
3,Bredasdorp,57.49,79.0,7.36,1015776.0,ZA,20.0403,-34.5322,100.0,1685466011.0
4,Kindersley,75.22,41.0,12.66,5992154.0,CA,-109.1682,51.4668,40.0,1685466017.0
5,Kavieng,83.34,79.0,11.05,2094342.0,PG,150.7967,-2.5744,28.0,1685466022.0
6,Brae,49.73,84.0,17.63,2654970.0,GB,-1.353,60.3964,36.0,1685466027.0
7,Hithadhoo,83.79,74.0,12.15,1282256.0,MV,73.0833,-0.6,86.0,1685466032.0
8,Ponta Delgada,63.32,82.0,6.91,3372783.0,PT,-25.6667,37.7333,75.0,1685466036.0
9,Kaitangata,39.72,90.0,4.25,2208248.0,NZ,169.8464,-46.2817,55.0,1685466038.0
10,Neiafu,77.68,94.0,5.75,4032420.0,TO,-173.9833,-18.65,40.0,1685466041.0
11,Busselton,63.64,87.0,4.88,2075265.0,AU,115.3333,-33.65,99.0,1685466043.0
12,Kudahuvadhoo,84.11,75.0,13.38,1337607.0,MV,72.8944,2.6708,64.0,1685466050.0
13,Port Macquarie,43.9,67.0,2.46,2152659.0,AU,152.9167,-31.4333,48.0,1685466052.0
14,Jamestown,77.86,37.0,8.01,5122534.0,US,-79.2353,42.097,0.0,1685465805.0
15,Nantucket,55.33,82.0,13.69,4944903.0,US,-70.0995,41.2835,6.0,1685466057.0
16,São João da Barra,77.09,65.0,12.46,3448903.0,BR,-41.0511,-21.6403,73.0,1685465767.0
17,Castlebar,70.59,55.0,6.87,2965654.0,IE,-9.3,53.85,11.0,1685466061.0
18,Katobu,74.16,96.0,4.14,1640972.0,ID,122.5276,-4.9408,52.0,1685466064.0
19,Port Lincoln,61.72,71.0,13.22,2063036.0,AU,135.8667,-34.7333,100.0,1685466066.0
20,Padampur,71.83,78.0,3.33,1260938.0,IN,73.6167,29.6833,100.0,1685466068.0
21,Cayenne,87.84,66.0,14.97,3382160.0,GF,-52.3333,4.9333,100.0,1685465894.0
22,Norman Wells,55.44,58.0,8.05,6089245.0,CA,-126.8329,65.282,40.0,1685466072.0
23,Upernavik,31.59,96.0,7.61,3418910.0,GL,-56.1549,72.7868,100.0,1685465808.0
24,Ushuaia,53.26,66.0,4.61,3833367.0,AR,-68.3,-54.8,75.0,1685466077.0
25,Tasiilaq,41.16,92.0,2.51,3424607.0,GL,-37.6368,65.6145,24.0,1685466079.0
26,Thunder Bay,64.31,45.0,11.5,6166142.0,CA,-89.3168,48.4001,20.0,1685465947.0
27,Provideniya,34.61,62.0,6.69,4031574.0,RU,-173.3,64.3833,13.0,1685466083.0
28,Cap Malheureux,72.46,74.0,1.01,934649.0,MU,57.6142,-19.9842,33.0,1685466085.0
29,West Wendover,67.21,42.0,0.0,5710035.0,US,-114.0733,40.7391,0.0,1685466087.0
30,Tautira,79.18,78.0,7.54,4033557.0,PF,-149.15,-17.7333,57.0,1685466090.0
31,Avarua,71.65,60.0,9.22,4035715.0,CK,-159.775,-21.2078,100.0,1685466092.0
32,Punta Arenas,44.42,87.0,8.05,3874787.0,CL,-70.9167,-53.15,75.0,1685466047.0
33,Ozernovskiy,42.8,90.0,9.82,2122293.0,RU,156.5167,51.5,100.0,1685466096.0
34,Aksu,72.03,25.0,0.27,1529660.0,CN,80.2644,41.1231,79.0,1685466098.0
35,Arrondissement d'Ajaccio,71.49,64.0,10.36,3038333.0,FR,8.9167,42.0,56.0,1685466101.0
36,Cabedelo,86.67,70.0,17.38,3404558.0,BR,-34.8339,-6.9811,81.0,1685465818.0
37,Dikson,39.33,80.0,25.66,1507390.0,RU,80.5464,73.5069,100.0,1685466106.0
38,Hobart,60.67,66.0,13.8,2163355.0,AU,147.3294,-42.8794,100.0,1685466005.0
39,Vestmannaeyjar,45.59,81.0,20.71,3412093.0,IS,-20.2734,63.4427,75.0,1685466110.0
40,Alofi,73.29,88.0,9.22,4036284.0,NU,-169.9187,-19.0595,90.0,1685466112.0
41,Carnarvon,72.88,68.0,9.22,2074865.0,AU,113.6333,-24.8667,0.0,1685466014.0
42,Saint-Philippe,71.19,79.0,7.76,935215.0,RE,55.7679,-21.3585,23.0,1685466116.0
43,Cabra,72.05,41.0,13.69,2520645.0,ES,-4.4421,37.4725,21.0,1685466119.0
44,Feldbach,71.04,57.0,10.83,2779685.0,AT,15.8883,46.9531,88.0,1685466121.0
45,Tual,81.9,79.0,20.04,1623197.0,ID,132.75,-5.6667,33.0,1685466123.0
46,Longyearbyen,33.64,93.0,20.71,2729907.0,SJ,15.6401,78.2186,75.0,1685466126.0
47,Dukat,39.45,83.0,4.29,2125906.0,RU,155.55,62.55,18.0,1685466128.0
48,Jalu,95.59,12.0,10.98,86049.0,LY,21.5482,29.0331,94.0,1685466130.0
49,Vaini,77.16,88.0,12.66,4032243.0,TO,-175.2,-21.2,40.0,1685466132.0
50,Albany,74.05,37.0,1.99,5106841.0,US,-73.9662,42.6001,28.0,1685466134.0
51,Karaton,74.23,91.0,1.43,1630058.0,ID,106.1045,-6.3424,16.0,1685466136.0
52,Saldanha,57.25,93.0,7.76,3361934.0,ZA,17.9442,-33.0117,100.0,1685466139.0
53,Castro,58.21,82.0,7.9,3466704.0,BR,-50.0119,-24.7911,100.0,1685466072.0
54,Inhambane,70.11,76.0,7.76,1045114.0,MZ,35.3833,-23.865,25.0,1685466143.0
55,Mataura,42.48,88.0,4.99,6201424.0,NZ,168.8643,-46.1927,31.0,1685466145.0
56,Puerto Ayora,80.55,93.0,5.01,3652764.0,EC,-90.3518,-0.7393,87.0,1685465897.0
57,Arraial do Cabo,75.06,69.0,8.05,3471451.0,BR,-42.0278,-22.9661,40.0,1685466150.0
58,Obihiro,44.76,87.0,4.18,2128815.0,JP,143.2044,42.9172,54.0,1685466152.0
59,Penzance,64.99,63.0,6.91,2640377.0,GB,-5.5371,50.1186,0.0,1685466154.0
60,Butaritari,82.78,74.0,5.73,2110227.0,KI,172.7902,3.0707,99.0,1685466156.0
61,Rikitea,75.99,73.0,18.14,4030556.0,PF,-134.9692,-23.1203,81.0,1685466076.0
62,Namatanai,80.24,85.0,3.49,2090021.0,PG,152.4333,-3.6667,97.0,1685466160.0
63,Isangel,74.16,72.0,17.9,2136825.0,VU,169.2667,-19.55,97.0,1685466163.0
64,Saint George,77.14,21.0,5.75,5546220.0,US,-113.5841,37.1041,0.0,1685466017.0
65,Kruisfontein,59.88,92.0,1.3,986717.0,ZA,24.7314,-34.0033,100.0,1685466167.0
66,Mwinilunga,70.54,41.0,2.53,902620.0,ZM,24.4293,-11.7358,68.0,1685466169.0
67,Port Alfred,64.53,89.0,8.43,964432.0,ZA,26.891,-33.5906,100.0,1685466171.0
68,Marzuq,82.2,50.0,5.59,72181.0,YE,46.4667,14.4,82.0,1685466173.0
69,Puerto Escondido,94.98,46.0,6.13,3520994.0,MX,-97.0667,15.85,5.0,1685466012.0
70,Sivaki,47.37,92.0,4.07,2016477.0,RU,126.75,52.6333,96.0,1685466177.0
71,Yellowknife,52.32,82.0,17.27,6185377.0,CA,-114.3525,62.456,40.0,1685465907.0
72,Canchungo,95.13,56.0,13.0,2373951.0,GW,-16.0333,12.0672,88.0,1685466182.0
73,Östersund,50.45,37.0,24.16,2685750.0,SE,14.6357,63.1792,0.0,1685466184.0
74,Fort Nelson,54.95,39.0,5.01,5955902.0,CA,-122.7002,58.8053,40.0,1685466186.0
75,Castelo Branco,65.23,62.0,6.13,2269514.0,PT,-7.4909,39.8222,87.0,1685466188.0
76,Black River,86.29,66.0,5.44,3491355.0,JM,-77.8487,18.0264,100.0,1685466191.0
77,Atuona,80.71,67.0,17.18,4020109.0,PF,-139.0333,-9.8,99.0,1685466077.0
78,Birao,90.01,41.0,5.53,240210.0,CF,22.7882,10.2849,59.0,1685466195.0
79,Ekhabi,33.78,98.0,9.15,2122614.0,RU,142.9671,53.5102,100.0,1685466197.0
80,Barrow,30.22,93.0,8.05,5880054.0,US,-156.7887,71.2906,100.0,1685466199.0
81,Hilo,71.1,89.0,4.0,5855927.0,US,-155.09,19.7297,100.0,1685465994.0
82,Mehamn,42.75,65.0,6.91,778707.0,NO,27.8492,71.0357,0.0,1685466203.0
83,Shingū,63.79,92.0,5.41,1847947.0,JP,135.9833,33.7333,100.0,1685466206.0
84,George Town,85.84,79.0,4.61,1735106.0,MY,100.3354,5.4112,20.0,1685466181.0
85,Russell,77.95,53.0,3.44,4047434.0,US,-85.1999,32.3502,20.0,1685466210.0
86,Sidhi,95.61,24.0,3.22,1256369.0,IN,81.8833,24.4167,4.0,1685466212.0
87,Laramie,70.63,23.0,9.22,5830062.0,US,-105.5911,41.3114,0.0,1685466214.0
88,Bluff,47.08,83.0,16.69,2206939.0,NZ,168.3333,-46.6,75.0,1685466070.0
89,Bayir,64.92,86.0,3.6,304183.0,TR,28.2167,37.2687,70.0,1685466219.0
90,Vila Velha,75.94,72.0,16.11,3445026.0,BR,-40.2925,-20.3297,75.0,1685466221.0
91,Kapaa,72.03,90.0,12.77,5848280.0,US,-159.319,22.0752,24.0,1685466223.0
92,Margate,53.96,77.0,13.0,2643044.0,GB,1.3862,51.3813,100.0,1685466225.0
93,Kamaishi,52.25,88.0,5.37,2112444.0,JP,141.8833,39.2667,84.0,1685466227.0
94,Stăncuţa,70.84,54.0,6.11,666309.0,RO,27.8333,44.9,100.0,1685466229.0
95,Ankang,70.14,90.0,3.0,1789065.0,CN,109.0172,32.68,3.0,1685466231.0
96,Port Elizabeth,61.2,97.0,12.66,964420.0,ZA,25.5701,-33.918,20.0,1685466234.0
97,Morant Bay,87.42,72.0,8.95,3489440.0,JM,-76.4093,17.8815,99.0,1685466079.0
98,São Miguel,81.37,69.0,17.43,3388304.0,BR,-35.3667,-5.4667,96.0,1685466238.0
99,Guerrero Negro,65.66,58.0,14.56,4021858.0,MX,-114.0611,27.9769,4.0,1685466240.0
100,Husavik,46.83,73.0,17.67,2629833.0,IS,-17.3389,66.0449,5.0,1685466242.0
101,Ahipara,52.83,89.0,7.54,2194098.0,NZ,173.1667,-35.1667,60.0,1685466244.0
102,Saint Paul Harbor,45.91,71.0,3.44,5866583.0,US,-152.4072,57.79,100.0,1685466246.0
103,Mahébourg,75.49,73.0,6.91,934322.0,MU,57.7,-20.4081,40.0,1685466249.0
104,Mount Isa,40.77,60.0,3.44,2065594.0,AU,139.5,-20.7333,7.0,1685466010.0
105,Te Anau,45.91,92.0,7.4,2181625.0,NZ,167.7167,-45.4167,100.0,1685466253.0
106,Alenquer,85.62,68.0,4.92,3407980.0,BR,-54.7383,-1.9417,99.0,1685466255.0
107,São Miguel do Araguaia,93.99,27.0,6.76,3448455.0,BR,-50.1628,-13.275,87.0,1685466169.0
108,Kriel,60.82,59.0,7.02,987202.0,ZA,29.2253,-26.2739,3.0,1685466259.0
109,Marsh Harbour,80.37,73.0,8.41,3571913.0,BS,-77.0636,26.5412,100.0,1685466262.0
110,Souillac,75.58,73.0,6.91,933995.0,MU,57.5167,-20.5167,40.0,1685466264.0
111,Tigil',50.76,77.0,9.13,2120612.0,RU,158.6667,57.8,98.0,1685466266.0
112,Kaeo,52.79,94.0,5.23,2189343.0,NZ,173.7833,-35.1,49.0,1685466268.0
113,Cape Town,55.9,92.0,6.91,3369157.0,ZA,18.4232,-33.9258,75.0,1685466234.0
114,Cidreira,67.78,69.0,16.98,3466165.0,BR,-50.2056,-30.1811,100.0,1685466270.0
115,Khatanga,33.03,82.0,7.99,2022572.0,RU,102.5,71.9667,29.0,1685466274.0
116,Karlshamn,61.29,62.0,8.34,2701727.0,SE,14.8619,56.1706,26.0,1685466277.0
117,Pevek,33.85,93.0,13.09,2122090.0,RU,170.3133,69.7008,100.0,1685466279.0
118,Mar del Plata,58.95,65.0,12.66,3430863.0,AR,-57.5575,-38.0023,0.0,1685466175.0
119,Gobabis,55.92,25.0,10.94,3357247.0,NA,18.9667,-22.45,0.0,1685466283.0
120,Gaoyou,69.28,83.0,6.24,1810309.0,CN,119.4278,32.7858,100.0,1685466285.0
121,Bethel,68.43,47.0,6.91,5282297.0,US,-73.414,41.3712,0.0,1685466232.0
122,Santa Maria da Vitória,92.93,27.0,6.8,3450063.0,BR,-44.1886,-13.3947,15.0,1685466235.0
123,Banda Aceh,81.18,78.0,13.65,1215502.0,ID,95.3222,5.5577,100.0,1685466291.0
124,Georgiyevka,71.64,15.0,15.66,1524243.0,KZ,74.7114,43.0369,0.0,1685466293.0
125,Zonguldak,57.24,93.0,1.59,737021.0,TR,31.8333,41.25,95.0,1685466296.0
126,Booué,82.58,69.0,0.87,2401495.0,GA,11.9385,-0.0921,62.0,1685466298.0
127,Siyabuswa,65.77,48.0,8.93,955313.0,ZA,29.0445,-25.1132,2.0,1685466300.0
128,Dunedin,47.8,60.0,1.99,2191562.0,NZ,170.5036,-45.8742,100.0,1685466044.0
129,Roald,50.54,93.0,23.02,3141667.0,NO,6.1333,62.5833,75.0,1685466304.0
130,Tweed,79.86,42.0,4.56,6170799.0,CA,-77.3162,44.4751,30.0,1685466307.0
131,Nanortalik,44.08,81.0,14.61,3421765.0,GL,-45.2371,60.1432,100.0,1685466309.0
132,Port Blair,80.64,89.0,2.3,1259385.0,IN,92.75,11.6667,40.0,1685466311.0
133,Lubango,60.37,55.0,4.29,3347762.0,AO,13.4925,-14.9172,55.0,1685466313.0
134,Shumskiy,47.48,97.0,4.12,1491977.0,RU,99.1328,54.8318,100.0,1685466315.0
135,San Cristobal,78.98,63.0,4.74,3628473.0,VE,-72.225,7.7669,81.0,1685466318.0
136,Nioro,104.32,26.0,7.49,2412408.0,GM,-15.75,13.35,59.0,1685466320.0
137,Thompson,66.36,68.0,8.05,6165406.0,CA,-97.8558,55.7435,75.0,1685466322.0
138,Manaus,88.29,70.0,8.05,3663517.0,BR,-60.025,-3.1019,40.0,1685466265.0
139,Laguna,64.87,61.0,11.5,5364271.0,US,-121.4238,38.421,0.0,1685466326.0
140,Hermanus,55.8,94.0,12.57,3366880.0,ZA,19.2345,-34.4187,100.0,1685466328.0
141,Westport,65.01,54.0,11.5,4845585.0,US,-73.3579,41.1415,0.0,1685466331.0
142,Dicabisagan,81.75,74.0,3.94,1715015.0,PH,122.4157,17.0818,100.0,1685466333.0
143,Newport,65.82,66.0,17.78,2641598.0,GB,-2.9984,51.5877,10.0,1685466335.0
144,Tateyama,68.07,89.0,7.23,1850523.0,JP,139.8667,34.9833,100.0,1685466337.0
145,Kuznechikha,60.01,62.0,3.0,537760.0,RU,42.3348,57.2161,100.0,1685466339.0
146,Poum,72.16,73.0,8.93,2138555.0,NC,164.0167,-20.2333,100.0,1685466341.0
147,Chokurdakh,33.51,96.0,9.73,2126123.0,RU,147.9167,70.6333,100.0,1685466343.0
148,Coquimbo,62.33,72.0,11.5,3893629.0,CL,-71.3436,-29.9533,0.0,1685466346.0
149,Ust-Nera,51.12,67.0,2.89,2120048.0,RU,143.2,64.5667,86.0,1685466348.0
150,Kavaratti,86.25,71.0,5.64,1267390.0,IN,72.642,10.5669,89.0,1685466350.0
151,Eruwa,85.35,63.0,10.51,2338669.0,NG,3.4167,7.5333,85.0,1685466352.0
152,Polyarny,49.19,53.0,9.73,506763.0,RU,33.4478,69.1989,76.0,1685466354.0
153,Ribeira Grande,70.2,64.0,16.11,3372707.0,PT,-28.7,38.5167,20.0,1685466356.0
154,Kalemie,73.49,70.0,2.68,214974.0,CD,29.1947,-5.9475,9.0,1685466359.0
155,Tuktoyaktuk,41.0,75.0,3.44,6170031.0,CA,-133.0374,69.4541,40.0,1685466361.0
156,Tomatlán,93.2,35.0,5.79,3981391.0,MX,-105.25,19.9333,2.0,1685466363.0
157,Bratca,64.27,82.0,2.71,683837.0,RO,22.6167,46.9333,86.0,1685466375.0
158,Chiang Khong,78.58,76.0,0.4,1611197.0,TH,100.4046,20.2613,41.0,1685466378.0
159,Gijang,65.93,82.0,10.4,1842966.0,KR,129.2139,35.2442,99.0,1685466380.0
160,Vao,71.02,68.0,16.46,2137773.0,NC,167.4833,-22.6667,100.0,1685466382.0
161,Marawi,71.2,89.0,7.07,1701054.0,PH,124.2928,7.9986,100.0,1685466384.0
162,Kununurra,49.98,87.0,3.44,2068110.0,AU,128.7333,-15.7667,72.0,1685466386.0
163,Ponta do Sol,73.56,64.0,6.87,2264557.0,PT,-17.1,32.6667,100.0,1685466389.0
164,Vanimo,78.98,85.0,1.48,2084442.0,PG,141.3028,-2.6741,40.0,1685466391.0
165,Kenai,46.18,75.0,5.75,5866063.0,US,-151.2583,60.5544,100.0,1685466114.0
166,Tarnogskiy Gorodok,55.38,86.0,7.52,484314.0,RU,43.5761,60.4997,56.0,1685466395.0
167,Tottori-shi,59.79,87.0,4.41,1849892.0,JP,134.2333,35.5,90.0,1685466350.0
168,Baracoa,88.29,63.0,5.1,3567834.0,CU,-74.4958,20.3467,96.0,1685466399.0
169,Krasnyy Kholm,53.55,92.0,8.9,541704.0,RU,37.1203,58.0607,67.0,1685466401.0
170,Nabire,77.47,92.0,3.98,1634614.0,ID,135.4833,-3.3667,72.0,1685466403.0
171,Zaysan,47.93,84.0,6.02,1517060.0,KZ,84.8667,47.4667,55.0,1685466406.0
172,New Norfolk,55.94,69.0,3.0,2155415.0,AU,147.0587,-42.7826,100.0,1685466408.0
173,Muhos,51.67,48.0,7.07,645765.0,FI,25.9931,64.808,99.0,1685466410.0
174,Sabzawār,86.97,11.0,10.56,118063.0,IR,57.6819,36.2126,59.0,1685466412.0
175,Catuday,82.47,76.0,16.8,1717787.0,PH,119.8062,16.2923,100.0,1685466414.0
176,Enshi,73.36,97.0,0.69,1811720.0,CN,109.4833,30.3,51.0,1685466416.0
177,Timiryazevskiy,54.09,67.0,3.04,1489597.0,RU,84.8769,56.49,100.0,1685466418.0
178,Aklavik,61.43,56.0,6.42,5882953.0,CA,-135.0107,68.2191,92.0,1685466420.0
179,Pochutla,93.81,44.0,6.98,3517970.0,MX,-96.4661,15.7432,7.0,1685466423.0
180,Bathsheba,86.61,74.0,11.5,3374083.0,BB,-59.5167,13.2167,40.0,1685466425.0
181,Salalah,86.09,79.0,8.05,286621.0,OM,54.0924,17.0151,20.0,1685466427.0
182,Airai,58.86,92.0,3.91,1651810.0,TL,125.4092,-8.9266,95.0,1685466429.0
183,Fuyang,68.72,90.0,5.03,1810845.0,CN,115.8167,32.9,100.0,1685466431.0
184,Makakilo City,72.5,72.0,12.66,5850554.0,US,-158.0858,21.3469,0.0,1685466433.0
185,Impfondo,77.22,77.0,4.03,2259655.0,CG,18.0667,1.6381,76.0,1685466436.0
186,Anloga,84.11,72.0,10.87,2304548.0,GH,0.8973,5.7947,98.0,1685466438.0
187,Chui,61.09,66.0,6.6,3443061.0,UY,-53.4616,-33.6971,100.0,1685466440.0
188,Nishihara,81.68,89.0,19.57,1855342.0,JP,127.7558,26.1842,100.0,1685466442.0
189,Bariloche,56.95,47.0,21.85,7647007.0,AR,-71.3082,-41.1456,20.0,1685466444.0
190,Kristianstad,69.94,37.0,13.8,2699310.0,SE,14.1524,56.0313,0.0,1685466446.0
191,Cabo San Lucas,82.74,44.0,6.91,3985710.0,MX,-109.9124,22.8909,0.0,1685466449.0
192,Hunchun,50.58,68.0,3.29,2036653.0,CN,130.3581,42.8675,38.0,1685466451.0
193,Aykhal,33.71,76.0,14.47,2027296.0,RU,111.5,66.0,100.0,1685466453.0
194,Nchelenge,74.71,66.0,1.74,175499.0,ZM,28.734,-9.3451,54.0,1685466455.0
195,Hobyo,83.43,78.0,22.88,57000.0,SO,48.5268,5.3505,88.0,1685466457.0
196,Pechenga,50.67,48.0,8.12,511865.0,RU,31.1703,69.5259,95.0,1685466459.0
197,Hambantota,81.25,85.0,13.96,1244926.0,LK,81.1185,6.1241,40.0,1685466461.0
198,Lompoc,59.56,77.0,3.0,5367788.0,US,-120.4579,34.6391,100.0,1685466464.0
199,Hasaki,66.6,83.0,16.67,2112802.0,JP,140.8333,35.7333,74.0,1685466466.0
200,Departamento de Maldonado,58.14,50.0,5.21,3441890.0,UY,-54.9167,-34.6667,99.0,1685466468.0
201,Naze,73.42,95.0,6.04,1855540.0,JP,129.4833,28.3667,82.0,1685466470.0
202,Nikolskoye,54.82,52.0,6.04,546105.0,RU,30.7861,59.7035,25.0,1685466472.0
203,Dul'durga,55.36,38.0,4.05,2024812.0,RU,113.5931,50.6761,100.0,1685466474.0
204,Leh,47.7,66.0,4.38,1264976.0,IN,77.5833,34.1667,90.0,1685466476.0
205,Lata,65.03,84.0,5.35,2738381.0,PT,-8.3327,40.1629,97.0,1685466478.0
206,Tiksi,28.08,87.0,6.58,2015306.0,RU,128.8694,71.6872,88.0,1685466481.0
207,Qaanaaq,23.85,64.0,1.81,3831208.0,GL,-69.3632,77.484,1.0,1685466484.0
208,Ilulissat,35.62,87.0,6.91,3423146.0,GL,-51.1,69.2167,75.0,1685466486.0
209,Saint-Augustin,59.34,45.0,12.97,6137462.0,CA,-58.6502,51.226,100.0,1685466488.0
210,Saskylakh,31.03,86.0,6.51,2017155.0,RU,114.0833,71.9167,39.0,1685466490.0
211,Tessalit,100.11,15.0,17.81,2449893.0,ML,1.0114,20.1986,53.0,1685466492.0
212,Rayong,84.79,82.0,4.0,1607016.0,TH,101.4333,12.8333,93.0,1685466494.0
213,Sur,91.42,56.0,12.17,286245.0,OM,59.5289,22.5667,1.0,1685466311.0
214,Bereket,93.42,8.0,15.26,161974.0,TM,55.5154,39.2446,88.0,1685466499.0
215,Staraya Kulatka,67.37,74.0,6.33,489164.0,RU,47.6167,52.7167,100.0,1685466501.0
216,Roswell,77.04,64.0,8.05,4219934.0,US,-84.3616,34.0232,40.0,1685466402.0
217,Santa Luzia,74.16,58.0,11.5,3450144.0,BR,-43.8514,-19.7697,75.0,1685466231.0
218,São Filipe,76.98,71.0,12.62,3374210.0,CV,-24.4956,14.8961,88.0,1685466507.0
219,San Luis,65.59,36.0,6.82,3837056.0,AR,-66.3356,-33.295,100.0,1685466509.0
220,Fairbanks,42.85,92.0,10.36,5861897.0,US,-147.7164,64.8378,100.0,1685466463.0
221,Sibolga,78.1,89.0,2.15,1213855.0,ID,98.7792,1.7427,98.0,1685466514.0
222,Pahrump,79.3,19.0,5.99,5509851.0,US,-115.9839,36.2083,93.0,1685466516.0
223,Narsaq,55.62,76.0,0.87,3421719.0,GL,-46.05,60.9167,100.0,1685466518.0
224,Hamilton,81.32,58.0,8.05,4513583.0,US,-84.5333,39.1834,40.0,1685466396.0
225,Fortuna,52.56,95.0,11.5,5563839.0,US,-124.1573,40.5982,100.0,1685466522.0
226,Ayan,39.56,92.0,11.88,2027316.0,RU,138.1667,56.45,100.0,1685466524.0
227,El Dorado,59.04,74.0,1.99,5345659.0,US,-120.5177,38.7666,5.0,1685466527.0
228,Leonidovo,42.1,83.0,6.8,2123805.0,RU,142.8667,49.2833,91.0,1685466529.0
229,Chicama,77.54,63.0,8.57,3698359.0,PE,-79.1469,-7.8447,51.0,1685466531.0
230,Umluj,82.58,62.0,8.97,100926.0,SA,37.2685,25.0213,0.0,1685466533.0
231,Acapulco de Juárez,89.42,62.0,8.05,3533462.0,MX,-99.8901,16.8634,0.0,1685466376.0
232,Santa Maria,67.03,68.0,2.44,3450083.0,BR,-53.8069,-29.6842,72.0,1685466537.0
233,Ubinskoye,57.34,49.0,3.96,1488708.0,RU,79.6802,55.3068,3.0,1685466539.0
234,Flinders,61.41,65.0,5.01,6255012.0,AU,150.8552,-34.5833,43.0,1685466541.0
235,Broome,77.5,38.0,5.75,5110365.0,US,-75.833,42.2506,0.0,1685466544.0
236,Mossamedes,68.38,61.0,6.4,3347019.0,AO,12.1522,-15.1961,27.0,1685466546.0
237,Orange Cove,68.13,55.0,5.75,5379533.0,US,-119.3137,36.6244,75.0,1685466548.0
238,Barra Patuca,87.17,64.0,5.88,3614835.0,HN,-84.2833,15.8,100.0,1685466550.0
239,Arlit,105.69,8.0,10.18,2447513.0,NE,7.3853,18.7369,87.0,1685466552.0
240,Chilia Veche,69.31,55.0,7.36,682117.0,RO,29.2833,45.4167,79.0,1685466554.0
241,Conde,85.46,62.0,16.11,3385077.0,BR,-34.9075,-7.2597,20.0,1685466311.0
242,Bulungu,79.77,69.0,2.01,2316259.0,CD,18.6,-4.55,85.0,1685466559.0
243,Baker City,62.82,55.0,0.0,5712169.0,US,-117.8344,44.7749,0.0,1685466315.0
244,Rājākhera,91.08,33.0,4.41,1258930.0,IN,78.1714,26.8961,64.0,1685466563.0
245,Portland,56.01,64.0,8.05,5746545.0,US,-122.6762,45.5234,75.0,1685466453.0
246,Birkeland,63.95,48.0,16.11,3161532.0,NO,8.2323,58.3309,0.0,1685466567.0
247,Dvinskoy Bereznik,57.34,49.0,2.44,577240.0,RU,42.7072,62.8551,85.0,1685466570.0
248,Jalingo,86.74,56.0,9.78,2336589.0,NG,11.3667,8.8833,80.0,1685466572.0
249,Yar-Sale,54.84,98.0,3.18,1486321.0,RU,70.8333,66.8333,100.0,1685466574.0
250,Tafresh,72.93,37.0,3.33,113636.0,IR,50.013,34.692,95.0,1685466576.0
251,Homer,47.86,73.0,9.22,5864145.0,US,-151.5483,59.6425,100.0,1685466578.0
252,Mandalgovi,52.07,48.0,22.26,2030065.0,MN,106.2708,45.7625,69.0,1685466494.0
253,Kibala,91.4,40.0,1.16,2425791.0,TD,18.3463,9.1104,52.0,1685466583.0
254,Ulladulla,55.89,76.0,6.87,2145554.0,AU,150.4667,-35.35,71.0,1685466585.0
255,Sitka,46.29,87.0,5.75,5557293.0,US,-135.33,57.0531,75.0,1685466587.0
256,Leningradskiy,36.28,91.0,24.54,2123814.0,RU,178.4167,69.3833,100.0,1685466589.0
257,Takāb,63.52,52.0,2.64,113508.0,IR,47.1133,36.4009,100.0,1685466591.0
258,Tarancón,65.28,55.0,7.38,3108317.0,ES,-3.0073,40.0085,86.0,1685466593.0
259,Goderich,67.91,71.0,2.06,5962442.0,CA,-81.7165,43.7501,19.0,1685466595.0
260,Rosa Zarate,85.78,68.0,3.2,3652257.0,EC,-79.4667,0.3333,70.0,1685466598.0
261,Luganville,77.04,79.0,11.9,2136150.0,VU,167.1667,-15.5333,83.0,1685466601.0
262,Druzhba,62.82,63.0,3.8,709584.0,UA,33.9453,52.0428,98.0,1685466603.0
263,Valea lui Mihai,73.11,71.0,8.39,663692.0,RO,22.15,47.5167,54.0,1685466605.0
264,Ancud,51.55,92.0,17.2,3899695.0,CL,-73.8203,-41.8697,100.0,1685466607.0
265,Matagami,85.71,31.0,7.9,6067747.0,CA,-77.6328,49.7502,44.0,1685466610.0
266,Peniche,67.98,79.0,8.08,2264923.0,PT,-9.3811,39.3558,89.0,1685466612.0
267,Miraflores,70.36,30.0,5.1,3761194.0,MX,-98.8083,19.2167,0.0,1685466614.0
268,Lebu,57.47,68.0,11.07,3883457.0,CL,-73.65,-37.6167,66.0,1685466616.0
269,Crawley,59.47,62.0,17.27,2652053.0,GB,-0.1831,51.113,40.0,1685466618.0
270,Khonsa,72.75,76.0,3.74,1266668.0,IN,95.5667,27.0167,95.0,1685466620.0
271,Yumen,57.16,16.0,8.97,1528998.0,CN,97.2,40.2833,81.0,1685466623.0
272,Bubaque,82.44,81.0,10.38,2374583.0,GW,-15.8333,11.2833,97.0,1685466625.0
273,Ribas do Rio Pardo,64.0,98.0,3.78,3451399.0,BR,-53.7592,-20.4431,100.0,1685466627.0
274,Malbork,58.77,69.0,10.36,3092472.0,PL,19.0266,54.0359,0.0,1685466629.0
275,Saint-Leu,69.12,94.0,8.3,6690297.0,RE,55.2833,-21.15,15.0,1685466631.0
276,Arkhara,47.5,57.0,2.13,2027487.0,RU,130.0842,49.4212,58.0,1685466633.0
277,Tura,80.13,58.0,3.44,1254046.0,IN,90.2201,25.5198,94.0,1685466635.0
278,Ingham,86.07,31.0,0.0,4997130.0,US,-84.3833,42.6,0.0,1685466637.0
279,Sarandi,60.46,97.0,1.95,3447998.0,BR,-51.8739,-23.4436,100.0,1685466441.0
280,Biak,76.26,86.0,6.8,1637001.0,ID,122.8766,-0.9131,28.0,1685466642.0
281,Nieuw Amsterdam,89.62,55.0,0.0,3383434.0,SR,-55.0833,5.8833,40.0,1685466644.0
282,Boundiali,89.01,53.0,8.01,2290836.0,CI,-6.4869,9.5217,100.0,1685466646.0
283,Aitape,78.12,87.0,2.53,2101169.0,PG,142.3475,-3.1374,80.0,1685466648.0
284,Manadhoo,84.11,77.0,10.87,1337618.0,MV,73.3833,5.7667,58.0,1685466650.0
285,Ca Mau,80.24,85.0,5.19,1586443.0,VN,105.15,9.1769,21.0,1685466652.0
286,San Patricio,85.87,56.0,6.17,4726521.0,US,-97.5169,28.017,11.0,1685466654.0
287,Portree,57.52,75.0,6.71,2640006.0,GB,-6.1942,57.4129,11.0,1685466657.0
288,Srednekolymsk,53.29,45.0,4.21,2121025.0,RU,153.6833,67.45,22.0,1685466659.0
289,Zhangaözen,89.4,10.0,20.24,607610.0,KZ,52.8,43.3,39.0,1685466661.0
290,Mayo,70.34,69.0,10.36,4362001.0,US,-76.5119,38.8876,0.0,1685466663.0
291,Hualmay,74.61,70.0,9.33,3939761.0,PE,-77.6139,-11.0964,43.0,1685466665.0
292,Púchov,68.49,63.0,10.58,3057963.0,SK,18.326,49.1249,69.0,1685466667.0
293,Hong Kong,87.04,94.0,10.98,1819729.0,HK,114.1577,22.2855,9.0,1685466573.0
294,Dzilam González,97.0,39.0,2.77,3529654.0,MX,-88.9333,21.2833,61.0,1685466672.0
295,Sistranda,49.96,85.0,41.7,3139597.0,NO,8.834,63.7256,100.0,1685466674.0
296,Ondjiva,72.99,27.0,6.69,3346821.0,AO,15.7333,-17.0667,4.0,1685466676.0
297,Taguatinga,94.41,23.0,6.11,6319623.0,BR,-46.5711,-12.3857,19.0,1685466678.0
298,Evensk,45.75,55.0,10.58,2125693.0,RU,159.2333,61.95,25.0,1685466680.0
299,Katsuura,66.83,87.0,9.51,2112309.0,JP,140.3,35.1333,100.0,1685466683.0
300,Ambovombe,69.96,80.0,14.23,1079048.0,MG,46.0833,-25.1667,1.0,1685466460.0
301,Pisco,69.85,73.0,3.44,3932145.0,PE,-76.2167,-13.7,100.0,1685466687.0
302,Lala,76.69,95.0,1.81,1707944.0,PH,123.7458,7.9745,100.0,1685466689.0
303,East London,59.94,88.0,11.5,1006984.0,ZA,27.9116,-33.0153,20.0,1685466692.0
304,Nyurba,49.59,61.0,5.64,2018735.0,RU,118.3319,63.2842,73.0,1685466694.0
305,Baykit,50.18,70.0,5.12,1510689.0,RU,96.37,61.67,48.0,1685466696.0
306,Muyezerskiy,50.59,55.0,8.75,524100.0,RU,31.65,63.9333,90.0,1685466698.0
307,Umarkot,93.43,44.0,19.89,1162959.0,PK,69.7362,25.3616,73.0,1685466509.0
308,Paamiut,38.68,68.0,4.29,3421193.0,GL,-49.6678,61.994,88.0,1685466702.0
309,Gberia Fotombu,86.88,61.0,5.79,2409019.0,SL,-11.1667,9.8833,89.0,1685466704.0
310,Auki,76.01,88.0,6.8,2109701.0,SB,160.7034,-8.7676,99.0,1685466706.0
311,Timmins,84.47,23.0,7.45,6166739.0,CA,-81.3331,48.4669,28.0,1685466709.0
312,Pachino,69.08,69.0,1.54,6539213.0,IT,15.0907,36.7186,95.0,1685466711.0
313,Arrondissement d'Arcachon,75.25,53.0,13.8,6621469.0,FR,-1.0519,44.5875,0.0,1685466503.0
314,Avera,79.65,49.0,6.89,4231997.0,US,-82.5271,33.194,52.0,1685466715.0
315,Bonthe,84.69,72.0,7.47,2409914.0,SL,-12.505,7.5264,56.0,1685466717.0
316,Songjianghe,46.96,65.0,3.06,2034691.0,CN,127.479,42.1859,100.0,1685466724.0
317,Salisbury,63.72,61.0,19.57,2638664.0,GB,-1.7957,51.0693,20.0,1685466726.0
318,Xi'an,71.01,69.0,3.78,1790630.0,CN,108.9286,34.2583,11.0,1685466729.0
319,Touros,84.33,68.0,16.02,3386213.0,BR,-35.4608,-5.1989,96.0,1685466731.0
320,Boda,79.97,65.0,1.97,2388614.0,CF,17.4695,4.3189,51.0,1685466733.0
321,Mayumba,76.51,87.0,9.42,2399001.0,GA,10.6554,-3.432,45.0,1685466735.0
322,Chul'man,40.55,84.0,4.09,2025261.0,RU,124.9104,56.8479,86.0,1685466737.0
323,Tambacounda,105.85,27.0,4.61,2244991.0,SN,-13.7586,13.7539,0.0,1685466739.0
324,Bushehr,90.18,51.0,24.25,139817.0,IR,50.8385,28.9684,100.0,1685466741.0
325,Port Hardy,51.98,62.0,6.91,6111862.0,CA,-127.4199,50.6996,75.0,1685466744.0
326,Shashi,71.83,86.0,7.18,1795816.0,CN,112.2447,30.3072,78.0,1685466746.0
327,Grand-Lahou,83.01,77.0,7.56,2288105.0,CI,-5.0242,5.1367,87.0,1685466748.0
328,State College,75.43,36.0,4.61,5213681.0,US,-77.86,40.7934,0.0,1685466544.0
329,Teguise,68.22,78.0,8.05,2510573.0,ES,-13.564,29.0605,40.0,1685466752.0
330,Magdagachi,45.79,95.0,4.52,2020591.0,RU,125.8,53.45,100.0,1685466754.0
331,Gaozhou,80.92,83.0,3.53,1810295.0,CN,110.8461,21.9392,10.0,1685466756.0
332,Meulaboh,77.68,88.0,2.75,1214488.0,ID,96.1285,4.1363,100.0,1685466758.0
333,Río Gallegos,59.05,55.0,16.11,3838859.0,AR,-69.2181,-51.6226,40.0,1685466761.0
334,Chaihe,47.1,62.0,1.99,2038198.0,CN,129.7,44.7667,12.0,1685466763.0
335,Nikel,48.38,48.0,11.41,522260.0,RU,30.222,69.4128,99.0,1685466765.0
336,Beringovskiy,37.78,67.0,9.37,2126710.0,RU,179.3167,63.05,8.0,1685466767.0
337,Coyhaique,53.55,82.0,10.36,3894426.0,CL,-72.0662,-45.5752,75.0,1685466769.0
338,Vardø,46.38,61.0,5.75,777019.0,NO,31.1107,70.3705,75.0,1685466771.0
339,Talnakh,40.21,82.0,9.8,1490256.0,RU,88.3972,69.4865,93.0,1685466773.0
340,Faya,63.12,64.0,4.94,110690.0,SA,42.4509,18.3851,89.0,1685466775.0
341,Znamenskoye,57.36,92.0,7.52,1485020.0,RU,73.8282,57.1281,96.0,1685466777.0
342,Manavgat,67.08,81.0,2.15,304854.0,TR,31.4431,36.7867,74.0,1685466780.0
343,Cairns,69.44,79.0,10.36,2172797.0,AU,145.7667,-16.9167,100.0,1685466782.0
344,Klaksvík,50.92,89.0,28.72,2618795.0,FO,-6.589,62.2266,100.0,1685466784.0
345,Fonte Boa,89.22,59.0,3.47,6319315.0,BR,-66.2662,-2.4959,82.0,1685466786.0
346,Piaçabuçu,82.29,65.0,11.86,3454005.0,BR,-36.4344,-10.4056,21.0,1685466788.0
347,Havøysund,43.03,85.0,12.71,779622.0,NO,24.6622,70.9963,97.0,1685466790.0
348,Boden,50.0,43.0,8.21,606531.0,SE,21.6886,65.8252,100.0,1685466793.0
349,Nhulunbuy,72.21,68.0,8.05,2064735.0,AU,136.7667,-12.2333,100.0,1685466795.0
350,Kamenka,62.29,92.0,10.56,553766.0,RU,42.7678,51.3223,100.0,1685466797.0
351,Kazachinskoye,52.61,86.0,1.07,1504075.0,RU,93.2761,57.6953,100.0,1685466799.0
352,Geraldton,66.61,94.0,6.91,2070998.0,AU,114.6,-28.7667,100.0,1685466793.0
353,Maxixe,68.95,78.0,6.98,1039536.0,MZ,35.3472,-23.8597,27.0,1685466803.0
354,Leon Valley,82.27,64.0,4.61,4705923.0,US,-98.6186,29.4952,40.0,1685466545.0
355,Nome,33.87,86.0,8.05,5870133.0,US,-165.4064,64.5011,100.0,1685466808.0
356,Manokwari,80.19,80.0,1.5,1636308.0,ID,134.0833,-0.8667,28.0,1685466810.0
357,Grand-Santi,84.99,70.0,3.6,3381538.0,GF,-54.3833,4.25,79.0,1685466812.0
358,Faanui,79.97,75.0,7.16,4034551.0,PF,-151.75,-16.4833,82.0,1685466814.0
359,Clyde River,28.63,86.0,18.41,5924351.0,CA,-68.5914,70.4692,75.0,1685466816.0
360,Kosa,59.94,60.0,4.07,544318.0,RU,54.9977,59.9445,54.0,1685466819.0
361,Blackwater,50.49,52.0,5.39,2175403.0,AU,148.8833,-23.5833,0.0,1685466821.0
362,Assiniboia,75.02,29.0,3.44,5887798.0,CA,-105.9845,49.6334,14.0,1685466823.0
363,Bambous Virieux,75.45,73.0,6.91,1106677.0,MU,57.7575,-20.3428,40.0,1685466825.0
364,Arona,66.58,83.0,10.36,2521582.0,ES,-16.681,28.0996,40.0,1685466729.0
365,Belyy Yar,48.09,100.0,0.0,1510377.0,RU,91.3903,53.6039,0.0,1685466829.0
366,San Miguel,78.08,87.0,4.14,3583446.0,SV,-88.1833,13.4833,100.0,1685466831.0
367,Maniitsoq,37.53,83.0,14.54,3421982.0,GL,-52.9,65.4167,96.0,1685466834.0
368,Freeport,65.44,52.0,12.66,5117949.0,US,-73.5832,40.6576,0.0,1685466661.0
369,Constitución,60.93,51.0,3.29,3893726.0,CL,-72.4167,-35.3333,100.0,1685466838.0
370,Tarakan,81.43,83.0,8.08,1624725.0,ID,117.6333,3.3,79.0,1685466840.0
371,Nirmal,93.83,27.0,0.74,1261288.0,IN,78.35,19.1,89.0,1685466842.0
372,Zmeinogorsk,46.99,87.0,3.53,1485042.0,RU,82.195,51.1567,2.0,1685466844.0
373,Valparaíso,65.64,70.0,5.75,3868626.0,CL,-71.6273,-33.0393,75.0,1685466846.0
374,Caravelas,77.22,72.0,12.84,3466980.0,BR,-39.2481,-17.7125,45.0,1685466848.0
375,Torbay,46.94,60.0,6.91,6167817.0,CA,-52.7314,47.6666,40.0,1685466850.0
376,Le Port,68.86,93.0,2.24,935616.0,RE,55.2919,-20.9373,35.0,1685466853.0
377,Kumul,66.81,15.0,3.58,1529484.0,CN,93.45,42.8,39.0,1685466855.0
378,Inverell,42.93,82.0,3.56,2162662.0,AU,151.1167,-29.7833,16.0,1685466857.0
379,Tortolì,71.42,73.0,6.91,2522890.0,IT,9.6572,39.9256,20.0,1685466859.0
380,Beipiao,64.81,33.0,3.83,2038342.0,CN,120.7792,41.7919,100.0,1685466861.0
381,Novo Aripuanã,93.36,46.0,4.34,3663142.0,BR,-60.3797,-5.1206,52.0,1685466863.0
382,Akdepe,83.77,11.0,10.13,601551.0,TM,59.3788,42.0551,51.0,1685466865.0
383,Pangnirtung,39.2,87.0,4.61,6096551.0,CA,-65.7125,66.1451,100.0,1685466868.0
384,Komatipoort,68.05,61.0,5.64,988290.0,ZA,31.9548,-25.4332,96.0,1685466870.0
385,Kailua,74.26,79.0,1.01,5847486.0,US,-157.7394,21.4022,15.0,1685466872.0
386,Massakory,100.92,25.0,7.76,2428228.0,TD,15.7293,12.996,89.0,1685466874.0
387,Byron Bay,48.7,74.0,5.48,2172880.0,AU,153.6167,-28.65,20.0,1685466877.0
388,Dawson Creek,55.04,47.0,4.61,5935804.0,CA,-120.2362,55.7666,75.0,1685466879.0
389,Port-Gentil,79.21,83.0,14.45,2396518.0,GA,8.7815,-0.7193,8.0,1685466881.0
390,Augusto Corrêa,83.59,74.0,7.18,3406961.0,BR,-46.635,-1.0217,99.0,1685466883.0
391,Araouane,104.59,14.0,14.38,2460954.0,ML,-3.5265,18.9048,81.0,1685466885.0
392,Coahuayana Viejo,93.7,45.0,7.31,4013679.0,MX,-103.6833,18.7333,12.0,1685466887.0
393,Mount Gambier,56.61,89.0,10.76,2156643.0,AU,140.7667,-37.8333,100.0,1685466889.0
394,Swan River,73.29,56.0,3.44,6160362.0,CA,-101.2676,52.1058,22.0,1685466891.0
395,Bima,72.7,94.0,3.76,1648759.0,ID,118.7167,-8.4667,95.0,1685466894.0
396,Cherskiy,42.19,86.0,9.73,2126199.0,RU,161.3,68.75,89.0,1685466896.0
397,Adrar,99.55,17.0,10.74,2381972.0,MR,-10.0711,20.5022,72.0,1685466898.0
398,Egvekinot,30.88,68.0,2.73,4031742.0,RU,-179.1667,66.3167,43.0,1685466900.0
399,Comodoro Rivadavia,62.46,45.0,21.85,3860443.0,AR,-67.5,-45.8667,0.0,1685466902.0
400,Volchikha,54.03,63.0,5.44,1486983.0,RU,80.3833,52.0333,4.0,1685466904.0
401,Paita,78.13,68.0,11.32,3694112.0,PE,-81.1144,-5.0892,10.0,1685466907.0
402,Calama,72.09,7.0,3.44,3897347.0,CL,-68.9333,-22.4667,0.0,1685466726.0
403,Abalak,62.83,54.0,5.64,1512223.0,RU,68.5944,58.1286,4.0,1685466911.0
404,Atar,102.07,16.0,11.41,2381334.0,MR,-13.0499,20.5169,54.0,1685466913.0
405,Venado Tuerto,61.77,44.0,11.07,3833062.0,AR,-61.9688,-33.7456,94.0,1685466915.0
406,Ostrovnoy,45.0,78.0,6.26,556268.0,RU,39.5131,68.0531,94.0,1685466917.0
407,Praia,82.94,54.0,19.57,3374333.0,CV,-23.5087,14.9215,0.0,1685466920.0
408,Campoverde,83.89,93.0,4.07,3733380.0,PE,-74.8058,-8.4753,81.0,1685466922.0
409,Peebles,70.11,44.0,1.99,2640526.0,GB,-3.1888,55.6519,8.0,1685466924.0
410,Ngunguru,55.27,89.0,7.65,2186111.0,NZ,174.5,-35.6167,30.0,1685466926.0
411,Haines Junction,46.35,42.0,3.44,5969025.0,CA,-137.5108,60.7522,99.0,1685466929.0
412,Chernyshevsk,48.63,34.0,8.19,2025458.0,RU,117.0174,52.5243,50.0,1685466751.0
413,Makiyivka,63.77,90.0,7.05,702320.0,UA,37.9258,48.0478,100.0,1685466933.0
414,Petropavlovsk-Kamchatskiy,45.19,93.0,11.18,2122104.0,RU,158.6483,53.0452,100.0,1685466935.0
415,Los Llanos de Aridane,71.13,51.0,7.0,2514651.0,ES,-17.9182,28.6585,40.0,1685466937.0
416,Nuevo Progreso,88.9,57.0,4.0,3522526.0,MX,-97.95,23.1667,0.0,1685466939.0
417,Norsup,76.66,77.0,12.17,2135517.0,VU,167.3833,-16.0667,91.0,1685466941.0
418,Yulara,52.66,51.0,6.46,6355222.0,AU,130.9889,-25.2406,1.0,1685466943.0
419,Hohhot,55.69,88.0,4.47,2036892.0,CN,111.6522,40.8106,13.0,1685466946.0
420,Bowen,63.72,78.0,9.89,2174444.0,AU,148.2333,-20.0167,71.0,1685466948.0
421,Smoky Lake,69.84,49.0,8.05,6150293.0,CA,-112.4686,54.1169,92.0,1685466708.0
422,Angoram,75.0,97.0,1.45,2100765.0,PG,144.0661,-4.0625,95.0,1685466952.0
423,Itarema,85.01,69.0,13.69,3393692.0,BR,-39.9167,-2.9248,77.0,1685466954.0
424,La Asuncion,89.33,62.0,16.11,3480908.0,VE,-63.8628,11.0333,100.0,1685466956.0
425,Berlevåg,44.67,61.0,5.75,780687.0,NO,29.0864,70.8578,40.0,1685466958.0
426,Ambilobe,73.72,85.0,2.93,1082243.0,MG,49.05,-13.2,58.0,1685466960.0
427,Teya,50.88,62.0,3.51,1489656.0,RU,92.6267,60.3778,31.0,1685466963.0
428,Máncora,82.29,63.0,5.93,3695000.0,PE,-81.0475,-4.1078,8.0,1685466965.0
429,Crotone,71.55,78.0,5.75,2524881.0,IT,17.1178,39.0851,40.0,1685466967.0
430,Sechura,81.1,60.0,8.1,3691954.0,PE,-80.8222,-5.5569,11.0,1685466969.0
431,Tarko-Sale,62.8,43.0,17.76,1490085.0,RU,77.785,64.9225,92.0,1685466971.0
432,Yerofey Pavlovich,38.59,91.0,4.36,2012938.0,RU,121.9667,53.9667,24.0,1685466973.0
433,Doha,96.03,34.0,19.57,290030.0,QA,51.5333,25.2867,0.0,1685466976.0
434,Palmer,71.87,38.0,5.75,4946620.0,US,-72.3287,42.1584,20.0,1685466978.0
435,Darhan,52.9,92.0,7.7,2031964.0,MN,105.9228,49.4867,100.0,1685466980.0
436,Rantauprapat,74.93,98.0,2.26,1214073.0,ID,99.8333,2.1,100.0,1685466982.0
437,Arroyo de la Encomienda,72.25,56.0,9.22,3129371.0,ES,-4.7969,41.6096,20.0,1685466984.0
438,Keetmanshoop,55.15,60.0,16.51,3356264.0,NA,18.1333,-26.5833,8.0,1685466986.0
439,Staryy Nadym,61.05,74.0,9.8,1490918.0,RU,72.6842,65.6118,100.0,1685466988.0
440,Beloha,67.21,84.0,10.36,1067565.0,MG,45.05,-25.1667,3.0,1685466991.0
441,Kelvington,72.81,48.0,8.34,5990669.0,CA,-103.5343,52.1667,0.0,1685466993.0
442,Munger,96.69,25.0,3.36,1262482.0,IN,86.4667,25.3833,70.0,1685466995.0
443,Grindavik,45.07,76.0,13.8,3416888.0,IS,-22.4338,63.8424,100.0,1685466997.0
444,Kangaatsiaq,33.35,97.0,41.67,3422683.0,GL,-53.4641,68.3065,100.0,1685466999.0
445,Omsukchan,40.55,87.0,5.59,2122493.0,RU,155.8,62.5333,13.0,1685467001.0
446,Quzhou,75.78,96.0,5.88,1797264.0,CN,118.8686,28.9594,5.0,1685467003.0
447,Neijiang,79.23,80.0,2.15,1799491.0,CN,105.0622,29.5835,0.0,1685467005.0
448,Bonavista,43.65,62.0,10.4,5905393.0,CA,-53.1147,48.6499,56.0,1685467008.0
449,Pauini,87.19,59.0,4.14,3662927.0,BR,-66.9764,-7.7136,100.0,1685467010.0
450,Poso,76.35,85.0,5.66,1630723.0,ID,120.7524,-1.3959,16.0,1685467012.0
451,Hervey Bay,58.51,82.0,8.32,2146219.0,AU,152.8535,-25.2986,0.0,1685467014.0
452,Gambēla,75.51,78.0,4.45,337405.0,ET,34.5833,8.25,89.0,1685467016.0
453,Hede,66.33,85.0,3.94,1808744.0,CN,120.2517,33.7681,100.0,1685467018.0
454,Alice Springs,40.55,75.0,4.97,2077895.0,AU,133.8833,-23.7,67.0,1685467020.0
455,Tazmalt,69.06,61.0,8.66,2477537.0,DZ,4.3989,36.3868,100.0,1685467023.0
456,Mangaratiba,74.26,69.0,5.08,3457991.0,BR,-44.0406,-22.9597,72.0,1685467025.0
457,Porto-Novo,84.45,71.0,9.95,2392087.0,BJ,2.6036,6.4965,82.0,1685466747.0
458,Sabha,96.67,7.0,10.45,2212775.0,LY,14.4283,27.0377,24.0,1685467029.0
459,Salinópolis,84.16,72.0,12.21,3389822.0,BR,-47.3561,-0.6136,91.0,1685467031.0
460,Riyadh,89.74,27.0,4.59,108410.0,SA,46.7219,24.6877,62.0,1685467033.0
461,Jönköping,69.51,34.0,6.91,2702979.0,SE,14.1562,57.7814,0.0,1685467035.0
462,Yatou,61.88,56.0,4.23,1786855.0,CN,122.3833,37.15,74.0,1685467037.0
463,Jaru,83.35,70.0,4.09,3925040.0,BR,-62.4664,-10.4389,100.0,1685467040.0
464,Yashan,79.81,85.0,4.29,1786867.0,CN,109.9419,22.1975,8.0,1685467042.0
465,Bamiantong,46.92,70.0,3.98,2038482.0,CN,130.5333,44.9333,7.0,1685467044.0
466,Boa Vista,82.38,69.0,4.61,3664980.0,BR,-60.6733,2.8197,75.0,1685466972.0
467,Barra do Bugres,79.61,63.0,4.94,3470718.0,BR,-57.1811,-15.0725,98.0,1685466760.0
468,Butembo,58.86,96.0,2.48,217562.0,CD,29.2833,0.15,64.0,1685466890.0
469,Talaya,40.59,86.0,4.52,2120769.0,RU,152.75,61.3833,40.0,1685467052.0
470,Vengurla,83.01,85.0,9.73,1253257.0,IN,73.6333,15.8667,75.0,1685467054.0
471,Maracaçumé,86.07,66.0,7.29,3395497.0,BR,-45.9592,-2.0428,38.0,1685467057.0
472,Nouadhibou,76.98,57.0,14.97,2377457.0,MR,-17.0347,20.931,55.0,1685467059.0
473,La Celia,69.39,74.0,1.19,3679542.0,CO,-76.0167,5.0433,80.0,1685467061.0
474,Lüderitz,57.78,87.0,10.13,3355672.0,NA,15.1594,-26.6481,7.0,1685467063.0
475,Carutapera,83.59,75.0,9.19,3402648.0,BR,-46.02,-1.195,97.0,1685467065.0
476,Yauya,60.13,57.0,3.33,3690733.0,PE,-77.3,-8.9833,54.0,1685467067.0
477,Port Said,72.25,71.0,14.14,358619.0,EG,32.2841,31.2565,0.0,1685467069.0
478,Sambava,74.68,88.0,11.1,1056899.0,MG,50.1667,-14.2667,10.0,1685467071.0
479,Kafanchan,83.59,61.0,5.32,2335713.0,NG,8.3,9.5833,96.0,1685467074.0
480,Neftçala,75.65,69.0,13.22,147425.0,AZ,49.2472,39.3742,100.0,1685467076.0
481,Yhú,68.74,90.0,6.26,3436595.0,PY,-55.9167,-25.05,90.0,1685467078.0
482,Necochea,60.66,49.0,15.3,3430443.0,AR,-58.7368,-38.5473,35.0,1685467080.0
483,Muros,64.44,86.0,3.22,3115824.0,ES,-9.0603,42.7762,78.0,1685467082.0
484,Linxia Chengguanzhen,55.29,94.0,16.17,1803331.0,CN,103.2064,35.6003,100.0,1685467084.0
485,Tripoli,70.88,69.0,15.52,2210247.0,LY,13.1875,32.8752,97.0,1685467087.0
486,Ixtapa,85.23,54.0,9.22,4004293.0,MX,-105.2,20.7,0.0,1685467089.0
487,Santiago del Estero,67.1,54.0,6.24,3835869.0,AR,-64.2615,-27.7951,52.0,1685466831.0
488,Uribia,90.88,54.0,11.03,3666409.0,CO,-72.266,11.7139,97.0,1685467093.0
489,Rome,79.02,34.0,4.61,5134295.0,US,-75.4557,43.2128,0.0,1685467095.0
490,Xuanzhou,72.86,97.0,4.94,1788081.0,CN,118.7553,30.9525,100.0,1685467097.0
491,Arrondissement de Muret,75.29,64.0,4.88,2991152.0,FR,1.25,43.3333,23.0,1685467100.0
492,Orlik,42.78,72.0,3.6,1496073.0,RU,99.825,52.5178,100.0,1685467102.0
493,Toyoake,69.76,71.0,7.81,1856057.0,JP,137.0137,35.0594,100.0,1685467104.0
494,Ibrā’,91.83,36.0,17.63,287832.0,OM,58.5334,22.6906,11.0,1685467106.0
495,Ayagoz,52.3,53.0,6.69,1525988.0,KZ,80.4392,47.9714,89.0,1685467108.0
496,Deputatsky,30.97,99.0,6.31,2028164.0,RU,139.9,69.3,100.0,1685467110.0
497,Moyale,70.83,66.0,3.18,186180.0,KE,39.0584,3.5167,89.0,1685467112.0
498,Gresik,80.51,81.0,3.47,1643776.0,ID,112.6561,-7.1539,31.0,1685467115.0
499,Tsushima,70.16,73.0,4.81,1849539.0,JP,136.7167,35.1667,100.0,1685467117.0
500,Boralday,58.86,47.0,4.47,1526384.0,KZ,76.8594,43.3578,0.0,1685467119.0
501,Mahina,76.77,83.0,3.44,4034307.0,PF,-149.489,-17.5065,75.0,1685467121.0
502,Ust-Maya,50.23,75.0,3.76,2013918.0,RU,134.5333,60.4167,91.0,1685467123.0
503,General Pico,65.52,41.0,7.83,3855075.0,AR,-63.7568,-35.6566,86.0,1685467125.0
504,Labuan,80.96,78.0,2.3,1733782.0,MY,115.2417,5.2767,20.0,1685467128.0
505,Saint Anthony,79.79,55.0,16.11,5044290.0,US,-93.218,45.0205,0.0,1685467130.0
506,Iqaluit,32.7,100.0,4.61,5983720.0,CA,-68.5145,63.7506,100.0,1685467133.0
507,Haapiti,76.71,77.0,6.49,4034438.0,PF,-149.8667,-17.5667,63.0,1685467135.0
508,Sarankhola,85.64,72.0,7.94,1185239.0,BD,89.7897,22.3082,55.0,1685467137.0
509,Odienné,90.05,50.0,7.4,2283016.0,CI,-7.5692,9.51,100.0,1685467139.0
510,Miles City,72.57,56.0,3.44,5666176.0,US,-105.8406,46.4083,0.0,1685467141.0
511,Daru,77.52,88.0,15.84,2098329.0,PG,143.2092,-9.0763,59.0,1685467143.0
512,Umm Kaddadah,96.62,22.0,6.91,364933.0,SD,26.6876,13.6017,18.0,1685467145.0
513,Skegness,56.39,80.0,16.2,2637762.0,GB,0.3363,53.1436,94.0,1685467147.0
514,Saint-François,78.24,31.0,12.66,2980080.0,FR,3.9054,46.4154,0.0,1685467150.0
515,Semey,56.35,62.0,6.98,1519422.0,KZ,80.2275,50.4111,2.0,1685467152.0
516,Esperance,63.16,62.0,11.74,2071860.0,AU,121.9,-33.8667,28.0,1685467154.0
517,Selkirk,77.32,58.0,4.0,6144054.0,CA,-96.8845,50.1436,100.0,1685466990.0
518,Mahajanga,82.4,57.0,10.8,1062663.0,MG,46.3167,-15.7167,79.0,1685467158.0
519,Ruwi,96.49,42.0,6.82,287286.0,OM,58.5507,23.5996,72.0,1685467160.0
520,Pucallpa,84.24,74.0,11.5,3693345.0,PE,-74.5539,-8.3791,75.0,1685467092.0
521,Ginda,58.87,85.0,6.02,1253628.0,IN,78.4932,30.6945,81.0,1685467164.0
522,Hare Bay,55.0,35.0,1.72,5970873.0,CA,-54.0148,48.8499,35.0,1685467167.0
523,Kabalo,84.51,40.0,4.16,215668.0,CD,26.9167,-6.05,80.0,1685467169.0
524,Cockburn Town,81.68,77.0,15.66,3576994.0,TC,-71.1419,21.4612,100.0,1685467171.0
525,Kolomyia,63.5,77.0,2.33,705392.0,UA,25.0403,48.5306,75.0,1685467173.0
526,Odawara,66.63,91.0,8.97,1854747.0,JP,139.1597,35.2556,95.0,1685467175.0
527,Santa Cruz de la Sierra,69.85,73.0,11.5,3904906.0,BO,-63.1667,-17.8,75.0,1685467076.0
528,Derzhavīnsk,75.63,38.0,12.28,1524606.0,KZ,66.3167,51.1,50.0,1685467179.0
529,Raduzhny,63.81,41.0,10.4,1540356.0,RU,77.475,62.0961,69.0,1685467181.0
530,Gulariyā,85.17,31.0,5.39,1283368.0,NP,81.3333,28.2333,22.0,1685467184.0
531,Oudtshoorn,55.76,58.0,1.41,967106.0,ZA,22.2014,-33.5907,21.0,1685467186.0
532,Ruteng,60.78,84.0,4.29,1629380.0,ID,120.4721,-8.6136,100.0,1685467188.0
533,Sokolac,55.58,95.0,3.42,3190385.0,BA,18.8017,43.9397,98.0,1685467190.0
534,Jieshi,81.52,86.0,5.91,1805857.0,CN,115.8257,22.8134,24.0,1685467192.0
535,Porto Velho,84.25,74.0,2.3,3662762.0,BR,-63.9039,-8.7619,75.0,1685466959.0
536,Olinda,83.93,65.0,16.11,3393536.0,BR,-34.8553,-8.0089,40.0,1685467196.0
537,Vallenar,80.69,20.0,4.09,3868633.0,CL,-70.7581,-28.5708,56.0,1685467198.0
538,Bud,82.29,55.0,9.44,4255151.0,US,-86.1758,39.447,9.0,1685467201.0
539,Dhārchula,67.28,69.0,6.31,1272864.0,IN,80.5333,29.85,60.0,1685467203.0
540,Mabaruma,83.07,86.0,4.21,3377301.0,GY,-59.7833,8.2,98.0,1685467205.0
541,Nemuro,43.57,79.0,8.77,2128975.0,JP,145.575,43.3236,32.0,1685467207.0
542,Caucayá,82.67,82.0,0.65,3671437.0,CO,-74.7819,-0.1934,82.0,1685467209.0
543,Vanderhoof,55.87,37.0,9.01,6173361.0,CA,-124.0198,54.0166,54.0,1685467212.0
544,Maravilha,71.8,69.0,5.08,3457809.0,BR,-53.1725,-26.7608,100.0,1685467214.0
545,Nanlong,77.9,84.0,2.06,1799908.0,CN,106.0631,31.3533,5.0,1685467216.0
546,Seryshevo,54.28,47.0,2.8,2016942.0,RU,128.3786,51.0933,98.0,1685467218.0
547,Les Cayes,84.43,69.0,11.43,3728097.0,HT,-73.75,18.2,100.0,1685467220.0
548,Lagoa,63.64,82.0,15.55,3372964.0,PT,-27.9833,39.05,30.0,1685467222.0
549,Pacifica,60.15,73.0,5.01,5380420.0,US,-122.4869,37.6138,75.0,1685467225.0
550,Northam,67.24,74.0,12.93,2641434.0,GB,-4.2167,51.0333,3.0,1685467227.0
551,Rio Grande,71.71,73.0,10.8,3451138.0,BR,-52.0986,-32.035,97.0,1685467229.0
552,Gejiu,62.02,86.0,2.55,1810240.0,CN,103.1635,23.306,100.0,1685467231.0
553,Opuwo,68.63,18.0,7.85,3354077.0,NA,13.84,-18.0607,5.0,1685467233.0
554,La Ronge,71.85,28.0,4.61,6050066.0,CA,-105.2842,55.1001,100.0,1685467235.0
555,Yazykovo,70.03,70.0,7.0,468483.0,RU,56.1353,55.2199,100.0,1685467237.0
556,Batticaloa,83.12,74.0,2.28,1250161.0,LK,81.6924,7.7102,49.0,1685467240.0
557,Khasan,51.6,77.0,4.52,2039557.0,RU,130.6434,42.4308,47.0,1685467242.0
558,Kattivākkam,84.07,79.0,3.85,1267433.0,IN,80.3167,13.2167,85.0,1685467244.0
559,Arrondissement de Saint-Denis,70.65,39.0,14.97,2980915.0,FR,2.3333,48.9167,0.0,1685467246.0
560,Ende,74.61,88.0,2.01,1644932.0,ID,121.6623,-8.8432,100.0,1685467248.0
561,Harlingen,86.36,73.0,4.5,4696233.0,US,-97.6961,26.1906,20.0,1685467146.0
562,Zhicheng,74.39,82.0,2.26,1784554.0,CN,111.5047,30.2956,97.0,1685467253.0
563,Havelock,76.42,71.0,11.5,4470244.0,US,-76.9013,34.8791,75.0,1685467255.0
564,Madimba,75.9,83.0,9.01,878141.0,TZ,40.3333,-10.4,58.0,1685467257.0
565,Pacific Grove,59.45,75.0,6.91,5380437.0,US,-121.9166,36.6177,100.0,1685467234.0
566,Esim,83.71,73.0,9.69,2303611.0,GH,-2.2405,4.8699,52.0,1685467261.0
567,Gorontalo,75.34,93.0,1.88,1643837.0,ID,123.0595,0.5412,8.0,1685467263.0
568,Vaitape,79.92,76.0,7.31,4033077.0,PF,-151.75,-16.5167,83.0,1685467265.0
569,Ottawa,77.27,47.0,8.05,6094817.0,CA,-75.6981,45.4112,0.0,1685467243.0
570,Petropavl,65.55,57.0,7.58,1520172.0,KZ,69.1628,54.8753,7.0,1685467269.0
571,Bossangoa,81.14,59.0,2.13,2388036.0,CF,17.4552,6.4926,52.0,1685467272.0
572,Lavrentiya,29.37,80.0,3.31,4031637.0,RU,-171.0,65.5833,16.0,1685467274.0
573,Muskegon,83.98,27.0,8.05,5003136.0,US,-86.1334,43.3,20.0,1685467276.0
574,Lālmohan,85.5,76.0,10.74,1185251.0,BD,90.7419,22.3384,59.0,1685467278.0
575,Gainesville,84.74,53.0,4.61,4156404.0,US,-82.3248,29.6516,40.0,1685467280.0
