,City,Temp_max,Humidity,wind_speed,city_id,country_code,long,lat,Cloudiness,datetime
0,Flin Flon,72.61,44.0,5.03,5954718.0,CA,-101.865,54.7682,6.0,1685498402.0
1,Severo-Kuril'sk,39.25,98.0,15.39,2121385.0,RU,156.125,50.6789,100.0,1685498406.0
2,Codrington,63.9,68.0,17.72,2171099.0,AU,141.9667,-38.2667,100.0,1685498410.0
3,Bredasdorp,58.37,92.0,5.32,1015776.0,ZA,20.0403,-34.5322,100.0,1685498412.0
4,Kindersley,84.22,20.0,12.66,5992154.0,CA,-109.1682,51.4668,40.0,1685498414.0
5,Kavieng,85.12,70.0,6.26,2094342.0,PG,150.7967,-2.5744,64.0,1685498417.0
6,Brae,49.15,93.0,16.22,2654970.0,GB,-1.353,60.3964,99.0,1685498420.0
7,Hithadhoo,83.7,76.0,14.18,1282256.0,MV,73.0833,-0.6,70.0,1685498423.0
8,Ponta Delgada,63.32,88.0,9.22,3372783.0,PT,-25.6667,37.7333,20.0,1685498427.0
9,Kaitangata,52.77,66.0,5.77,2208248.0,NZ,169.8464,-46.2817,100.0,1685498430.0
10,Neiafu,83.08,78.0,17.27,4032420.0,TO,-173.9833,-18.65,20.0,1685498442.0
11,Busselton,60.82,91.0,9.57,2075265.0,AU,115.3333,-33.65,100.0,1685498444.0
12,Kudahuvadhoo,83.25,75.0,10.92,1337607.0,MV,72.8944,2.6708,100.0,1685498446.0
13,Port Macquarie,71.89,41.0,6.87,2152659.0,AU,152.9167,-31.4333,88.0,1685498351.0
14,Jamestown,72.32,60.0,4.61,5122534.0,US,-79.2353,42.097,0.0,1685498451.0
15,Nantucket,49.57,88.0,8.05,4944903.0,US,-70.0995,41.2835,0.0,1685498220.0
16,São João da Barra,69.62,84.0,1.81,3448903.0,BR,-41.0511,-21.6403,100.0,1685498460.0
17,Castlebar,54.59,90.0,2.8,2965654.0,IE,-9.3,53.85,7.0,1685498463.0
18,Katobu,80.28,87.0,8.32,1640972.0,ID,122.5276,-4.9408,99.0,1685498465.0
19,Port Lincoln,67.21,54.0,18.88,2063036.0,AU,135.8667,-34.7333,95.0,1685498467.0
20,Padampur,73.04,73.0,4.76,1260938.0,IN,73.6167,29.6833,100.0,1685498470.0
21,Cayenne,77.04,88.0,2.3,3382160.0,GF,-52.3333,4.9333,0.0,1685498472.0
22,Norman Wells,62.64,45.0,3.44,6089245.0,CA,-126.8329,65.282,75.0,1685498193.0
23,Upernavik,31.55,99.0,7.96,3418910.0,GL,-56.1549,72.7868,100.0,1685498478.0
24,Ushuaia,55.06,54.0,10.36,3833367.0,AR,-68.3,-54.8,40.0,1685498480.0
25,Tasiilaq,35.76,76.0,5.7,3424607.0,GL,-37.6368,65.6145,87.0,1685498482.0
26,Thunder Bay,58.91,58.0,6.91,6166142.0,CA,-89.3168,48.4001,75.0,1685498459.0
27,Provideniya,42.91,61.0,13.42,4031574.0,RU,-173.3,64.3833,0.0,1685498487.0
28,Cap Malheureux,69.48,75.0,1.01,934649.0,MU,57.6142,-19.9842,0.0,1685498489.0
29,West Wendover,76.21,20.0,6.91,5710035.0,US,-114.0733,40.7391,0.0,1685498491.0
30,Tautira,78.08,83.0,15.28,4033557.0,PF,-149.15,-17.7333,48.0,1685498494.0
31,Avarua,75.25,57.0,5.75,4035715.0,CK,-159.775,-21.2078,75.0,1685498496.0
32,Punta Arenas,48.31,81.0,21.85,3874787.0,CL,-70.9167,-53.15,20.0,1685498498.0
33,Ozernovskiy,41.86,92.0,9.57,2122293.0,RU,156.5167,51.5,100.0,1685498500.0
34,Aksu,73.27,21.0,2.84,1529660.0,CN,80.2644,41.1231,67.0,1685498502.0
35,Arrondissement d'Ajaccio,57.7,81.0,5.75,3038333.0,FR,8.9167,42.0,0.0,1685498313.0
36,Cabedelo,75.87,82.0,10.92,3404558.0,BR,-34.8339,-6.9811,1.0,1685498508.0
37,Dikson,32.68,99.0,10.09,1507390.0,RU,80.5464,73.5069,100.0,1685498510.0
38,Hobart,63.46,59.0,26.46,2163355.0,AU,147.3294,-42.8794,40.0,1685498495.0
39,Vestmannaeyjar,45.81,83.0,12.82,3412093.0,IS,-20.2734,63.4427,78.0,1685498514.0
40,Alofi,78.69,69.0,16.11,4036284.0,NU,-169.9187,-19.0595,40.0,1685498516.0
41,Carnarvon,71.31,62.0,2.84,2074865.0,AU,113.6333,-24.8667,0.0,1685498519.0
42,Saint-Philippe,67.59,77.0,1.88,935215.0,RE,55.7679,-21.3585,31.0,1685498521.0
43,Cabra,59.11,84.0,1.14,2520645.0,ES,-4.4421,37.4725,55.0,1685498524.0
44,Feldbach,51.57,93.0,3.53,2779685.0,AT,15.8883,46.9531,44.0,1685498526.0
45,Tual,81.64,81.0,21.16,1623197.0,ID,132.75,-5.6667,58.0,1685498528.0
46,Longyearbyen,31.84,86.0,20.71,2729907.0,SJ,15.6401,78.2186,75.0,1685498487.0
47,Dukat,57.22,34.0,4.92,2125906.0,RU,155.55,62.55,18.0,1685498532.0
48,Jalu,83.95,19.0,10.25,86049.0,LY,21.5482,29.0331,71.0,1685498535.0
49,Vaini,78.96,89.0,13.8,4032243.0,TO,-175.2,-21.2,75.0,1685498537.0
50,Albany,61.63,57.0,5.46,5106841.0,US,-73.9662,42.6001,11.0,1685498364.0
51,Karaton,83.05,68.0,2.06,1630058.0,ID,106.1045,-6.3424,22.0,1685498541.0
52,Saldanha,57.25,90.0,14.92,3361934.0,ZA,17.9442,-33.0117,64.0,1685498543.0
53,Castro,54.14,96.0,5.39,3466704.0,BR,-50.0119,-24.7911,100.0,1685498546.0
54,Inhambane,68.18,80.0,4.88,1045114.0,MZ,35.3833,-23.865,50.0,1685498534.0
55,Mataura,55.78,72.0,7.38,6201424.0,NZ,168.8643,-46.1927,100.0,1685498550.0
56,Puerto Ayora,78.55,95.0,5.99,3652764.0,EC,-90.3518,-0.7393,100.0,1685498552.0
57,Arraial do Cabo,70.97,81.0,11.81,3471451.0,BR,-42.0278,-22.9661,97.0,1685498372.0
58,Obihiro,62.01,52.0,8.7,2128815.0,JP,143.2044,42.9172,38.0,1685498557.0
59,Penzance,56.08,87.0,15.28,2640377.0,GB,-5.5371,50.1186,37.0,1685498559.0
60,Butaritari,82.74,73.0,1.52,2110227.0,KI,172.7902,3.0707,42.0,1685498561.0
61,Rikitea,76.87,76.0,18.88,4030556.0,PF,-134.9692,-23.1203,100.0,1685498563.0
62,Namatanai,84.49,74.0,7.7,2090021.0,PG,152.4333,-3.6667,39.0,1685498565.0
63,Isangel,78.06,61.0,15.26,2136825.0,VU,169.2667,-19.55,97.0,1685498568.0
64,Saint George,87.08,10.0,14.97,5546220.0,US,-113.5841,37.1041,0.0,1685498551.0
65,Kruisfontein,53.89,89.0,7.38,986717.0,ZA,24.7314,-34.0033,100.0,1685498572.0
66,Mwinilunga,58.44,71.0,2.24,902620.0,ZM,24.4293,-11.7358,93.0,1685498574.0
67,Port Alfred,55.18,96.0,1.99,964432.0,ZA,26.891,-33.5906,54.0,1685498576.0
68,Marzuq,79.07,52.0,6.13,72181.0,YE,46.4667,14.4,94.0,1685498578.0
69,Puerto Escondido,84.52,76.0,5.75,3520994.0,MX,-97.0667,15.85,7.0,1685498580.0
70,Sivaki,57.63,52.0,6.38,2016477.0,RU,126.75,52.6333,95.0,1685498583.0
71,Yellowknife,59.52,33.0,16.11,6185377.0,CA,-114.3525,62.456,20.0,1685498509.0
72,Canchungo,81.09,82.0,9.1,2373951.0,GW,-16.0333,12.0672,100.0,1685498587.0
73,Östersund,46.85,36.0,20.71,2685750.0,SE,14.6357,63.1792,100.0,1685498589.0
74,Fort Nelson,63.95,29.0,4.61,5955902.0,CA,-122.7002,58.8053,75.0,1685498592.0
75,Castelo Branco,54.23,94.0,1.81,2269514.0,PT,-7.4909,39.8222,93.0,1685498594.0
76,Black River,80.31,84.0,5.03,3491355.0,JM,-77.8487,18.0264,100.0,1685498596.0
77,Atuona,80.49,76.0,13.35,4020109.0,PF,-139.0333,-9.8,1.0,1685498598.0
78,Birao,80.33,64.0,4.0,240210.0,CF,22.7882,10.2849,74.0,1685498600.0
79,Ekhabi,40.1,85.0,12.03,2122614.0,RU,142.9671,53.5102,100.0,1685498602.0
80,Barrow,33.82,86.0,0.0,5880054.0,US,-156.7887,71.2906,100.0,1685498350.0
81,Hilo,74.03,90.0,6.91,5855927.0,US,-155.09,19.7297,100.0,1685498438.0
82,Mehamn,40.95,81.0,1.14,778707.0,NO,27.8492,71.0357,75.0,1685498609.0
83,Shingū,65.32,94.0,4.14,1847947.0,JP,135.9833,33.7333,100.0,1685498408.0
84,George Town,85.96,76.0,2.3,1735106.0,MY,100.3354,5.4112,20.0,1685498613.0
85,Russell,69.24,88.0,0.0,4047434.0,US,-85.1999,32.3502,0.0,1685498620.0
86,Sidhi,92.71,29.0,4.79,1256369.0,IN,81.8833,24.4167,100.0,1685498622.0
87,Laramie,61.12,36.0,23.02,5830062.0,US,-105.5911,41.3114,100.0,1685498408.0
88,Bluff,54.16,79.0,13.78,2206939.0,NZ,168.3333,-46.6,100.0,1685498479.0
89,Bayir,55.92,93.0,2.04,304183.0,TR,28.2167,37.2687,18.0,1685498629.0
90,Vila Velha,69.94,88.0,0.0,3445026.0,BR,-40.2925,-20.3297,100.0,1685498427.0
91,Kapaa,78.06,78.0,5.99,5848280.0,US,-159.319,22.0752,18.0,1685498633.0
92,Margate,52.66,80.0,7.0,2643044.0,GB,1.3862,51.3813,100.0,1685498635.0
93,Kamaishi,63.09,62.0,10.49,2112444.0,JP,141.8833,39.2667,18.0,1685498567.0
94,Stăncuţa,59.97,67.0,7.34,666309.0,RO,27.8333,44.9,1.0,1685498639.0
95,Ankang,73.72,88.0,2.55,1789065.0,CN,109.0172,32.68,100.0,1685498642.0
96,Port Elizabeth,59.29,87.0,10.36,964420.0,ZA,25.5701,-33.918,75.0,1685498644.0
97,Morant Bay,78.42,86.0,6.13,3489440.0,JM,-76.4093,17.8815,100.0,1685498651.0
98,São Miguel,77.77,83.0,11.63,3388304.0,BR,-35.3667,-5.4667,15.0,1685498653.0
99,Guerrero Negro,62.13,69.0,20.18,4021858.0,MX,-114.0611,27.9769,0.0,1685498660.0
100,Husavik,42.87,80.0,5.03,2629833.0,IS,-17.3389,66.0449,4.0,1685498662.0
101,Ahipara,64.81,76.0,10.13,2194098.0,NZ,173.1667,-35.1667,2.0,1685498664.0
102,Saint Paul Harbor,45.91,76.0,5.75,5866583.0,US,-152.4072,57.79,100.0,1685498667.0
103,Mahébourg,71.89,78.0,3.44,934322.0,MU,57.7,-20.4081,40.0,1685498669.0
104,Mount Isa,73.17,20.0,12.66,2065594.0,AU,139.5,-20.7333,96.0,1685498671.0
105,Te Anau,51.31,89.0,6.35,2181625.0,NZ,167.7167,-45.4167,100.0,1685498674.0
106,Alenquer,74.86,94.0,2.3,3407980.0,BR,-54.7383,-1.9417,18.0,1685498676.0
107,São Miguel do Araguaia,77.23,50.0,2.51,3448455.0,BR,-50.1628,-13.275,41.0,1685498678.0
108,Kriel,52.81,80.0,9.28,987202.0,ZA,29.2253,-26.2739,54.0,1685498680.0
109,Marsh Harbour,79.66,76.0,12.35,3571913.0,BS,-77.0636,26.5412,100.0,1685498682.0
110,Souillac,71.98,78.0,3.44,933995.0,MU,57.5167,-20.5167,40.0,1685498684.0
111,Tigil',64.76,42.0,19.64,2120612.0,RU,158.6667,57.8,100.0,1685498686.0
112,Kaeo,67.32,77.0,7.76,2189343.0,NZ,173.7833,-35.1,35.0,1685498694.0
113,Cape Town,58.01,91.0,13.8,3369157.0,ZA,18.4232,-33.9258,100.0,1685498619.0
114,Cidreira,63.91,84.0,9.93,3466165.0,BR,-50.2056,-30.1811,100.0,1685498698.0
115,Khatanga,44.1,58.0,11.3,2022572.0,RU,102.5,71.9667,86.0,1685498700.0
116,Karlshamn,47.91,70.0,6.82,2701727.0,SE,14.8619,56.1706,7.0,1685498702.0
117,Pevek,32.5,80.0,7.94,2122090.0,RU,170.3133,69.7008,91.0,1685498705.0
118,Mar del Plata,55.6,82.0,4.61,3430863.0,AR,-57.5575,-38.0023,0.0,1685498707.0
119,Gobabis,43.34,48.0,4.99,3357247.0,NA,18.9667,-22.45,1.0,1685498709.0
120,Gaoyou,74.52,70.0,7.31,1810309.0,CN,119.4278,32.7858,74.0,1685498711.0
121,Bethel,51.66,69.0,0.0,5282297.0,US,-73.414,41.3712,0.0,1685498714.0
122,Santa Maria da Vitória,73.06,57.0,6.22,3450063.0,BR,-44.1886,-13.3947,14.0,1685498626.0
123,Banda Aceh,84.69,68.0,14.36,1215502.0,ID,95.3222,5.5577,100.0,1685498718.0
124,Georgiyevka,64.44,48.0,6.71,1524243.0,KZ,74.7114,43.0369,0.0,1685498720.0
125,Zonguldak,51.33,93.0,3.22,737021.0,TR,31.8333,41.25,87.0,1685498722.0
126,Booué,73.33,98.0,2.59,2401495.0,GA,11.9385,-0.0921,95.0,1685498725.0
127,Siyabuswa,58.71,71.0,8.72,955313.0,ZA,29.0445,-25.1132,70.0,1685498727.0
128,Dunedin,53.8,64.0,4.99,2191562.0,NZ,170.5036,-45.8742,100.0,1685498712.0
129,Roald,47.98,100.0,14.97,3141667.0,NO,6.1333,62.5833,100.0,1685498731.0
130,Tweed,58.48,73.0,3.85,6170799.0,CA,-77.3162,44.4751,0.0,1685498577.0
131,Nanortalik,41.41,96.0,15.26,3421765.0,GL,-45.2371,60.1432,100.0,1685498735.0
132,Port Blair,84.79,71.0,12.1,1259385.0,IN,92.75,11.6667,83.0,1685498737.0
133,Lubango,56.95,55.0,3.09,3347762.0,AO,13.4925,-14.9172,15.0,1685498740.0
134,Shumskiy,52.84,85.0,5.7,1491977.0,RU,99.1328,54.8318,100.0,1685498742.0
135,San Cristobal,71.78,99.0,4.36,3628473.0,VE,-72.225,7.7669,100.0,1685498471.0
136,Nioro,81.39,72.0,12.84,2412408.0,GM,-15.75,13.35,100.0,1685498746.0
137,Thompson,64.56,68.0,12.66,6165406.0,CA,-97.8558,55.7435,0.0,1685498714.0
138,Manaus,81.09,78.0,5.75,3663517.0,BR,-60.025,-3.1019,75.0,1685498750.0
139,Laguna,68.47,59.0,14.97,5364271.0,US,-121.4238,38.421,0.0,1685498752.0
140,Hermanus,59.81,93.0,11.86,3366880.0,ZA,19.2345,-34.4187,92.0,1685498754.0
141,Westport,54.23,77.0,8.99,4845585.0,US,-73.3579,41.1415,0.0,1685498757.0
142,Dicabisagan,82.89,75.0,7.65,1715015.0,PH,122.4157,17.0818,100.0,1685498759.0
143,Newport,52.97,89.0,13.8,2641598.0,GB,-2.9984,51.5877,15.0,1685498736.0
144,Tateyama,67.93,81.0,13.0,1850523.0,JP,139.8667,34.9833,100.0,1685498763.0
145,Kuznechikha,55.17,89.0,2.33,537760.0,RU,42.3348,57.2161,95.0,1685498765.0
146,Poum,74.77,65.0,7.7,2138555.0,NC,164.0167,-20.2333,100.0,1685498767.0
147,Chokurdakh,38.32,49.0,13.18,2126123.0,RU,147.9167,70.6333,90.0,1685498769.0
148,Coquimbo,55.13,94.0,4.61,3893629.0,CL,-71.3436,-29.9533,0.0,1685498772.0
149,Ust-Nera,63.46,41.0,5.7,2120048.0,RU,143.2,64.5667,100.0,1685498774.0
150,Kavaratti,84.94,71.0,2.51,1267390.0,IN,72.642,10.5669,98.0,1685498776.0
151,Eruwa,75.52,90.0,2.86,2338669.0,NG,3.4167,7.5333,81.0,1685498778.0
152,Polyarny,46.29,60.0,13.85,506763.0,RU,33.4478,69.1989,100.0,1685498780.0
153,Ribeira Grande,64.78,85.0,13.0,3372707.0,PT,-28.7,38.5167,12.0,1685498783.0
154,Kalemie,69.69,77.0,4.65,214974.0,CD,29.1947,-5.9475,71.0,1685498785.0
155,Tuktoyaktuk,43.9,86.0,9.69,6170031.0,CA,-133.0374,69.4541,100.0,1685498787.0
156,Tomatlán,78.1,72.0,5.57,3981391.0,MX,-105.25,19.9333,0.0,1685498789.0
157,Bratca,55.76,88.0,3.85,683837.0,RO,22.6167,46.9333,69.0,1685498791.0
158,Chiang Khong,90.01,52.0,2.93,1611197.0,TH,100.4046,20.2613,64.0,1685498793.0
159,Gijang,73.13,68.0,14.14,1842966.0,KR,129.2139,35.2442,26.0,1685498796.0
160,Vao,71.37,71.0,19.71,2137773.0,NC,167.4833,-22.6667,100.0,1685498798.0
161,Marawi,81.79,63.0,8.41,1701054.0,PH,124.2928,7.9986,82.0,1685498800.0
162,Kununurra,76.98,23.0,10.36,2068110.0,AU,128.7333,-15.7667,6.0,1685498802.0
163,Ponta do Sol,68.02,82.0,5.03,2264557.0,PT,-17.1,32.6667,18.0,1685498804.0
164,Vanimo,85.66,72.0,4.54,2084442.0,PG,141.3028,-2.6741,54.0,1685498806.0
165,Kenai,47.48,74.0,12.66,5866063.0,US,-151.2583,60.5544,75.0,1685498808.0
166,Tarnogskiy Gorodok,52.5,90.0,1.48,484314.0,RU,43.5761,60.4997,71.0,1685498811.0
167,Tottori-shi,69.62,58.0,10.13,1849892.0,JP,134.2333,35.5,76.0,1685498813.0
168,Baracoa,78.24,87.0,3.33,3567834.0,CU,-74.4958,20.3467,100.0,1685498815.0
169,Krasnyy Kholm,45.75,92.0,10.4,541704.0,RU,37.1203,58.0607,100.0,1685498817.0
170,Nabire,88.23,63.0,4.21,1634614.0,ID,135.4833,-3.3667,78.0,1685498819.0
171,Zaysan,56.77,59.0,7.9,1517060.0,KZ,84.8667,47.4667,1.0,1685498821.0
172,New Norfolk,57.81,63.0,4.0,2155415.0,AU,147.0587,-42.7826,94.0,1685498823.0
173,Muhos,47.32,94.0,10.42,645765.0,FI,25.9931,64.808,100.0,1685498826.0
174,Sabzawār,74.21,15.0,8.48,118063.0,IR,57.6819,36.2126,33.0,1685498828.0
175,Catuday,83.57,76.0,14.81,1717787.0,PH,119.8062,16.2923,100.0,1685498830.0
176,Enshi,76.55,88.0,0.65,1811720.0,CN,109.4833,30.3,100.0,1685498832.0
177,Timiryazevskiy,60.85,54.0,4.54,1489597.0,RU,84.8769,56.49,35.0,1685498835.0
178,Aklavik,64.94,47.0,12.91,5882953.0,CA,-135.0107,68.2191,100.0,1685498837.0
179,Pochutla,75.02,75.0,4.05,3517970.0,MX,-96.4661,15.7432,71.0,1685498839.0
180,Bathsheba,81.21,89.0,9.22,3374083.0,BB,-59.5167,13.2167,75.0,1685498841.0
181,Salalah,81.88,81.0,4.79,286621.0,OM,54.0924,17.0151,76.0,1685498843.0
182,Airai,64.18,82.0,3.44,1651810.0,TL,125.4092,-8.9266,95.0,1685498846.0
183,Fuyang,78.73,61.0,7.96,1810845.0,CN,115.8167,32.9,43.0,1685498848.0
184,Makakilo City,80.91,57.0,21.85,5850554.0,US,-158.0858,21.3469,100.0,1685498850.0
185,Impfondo,71.37,88.0,1.79,2259655.0,CG,18.0667,1.6381,100.0,1685498852.0
186,Anloga,81.09,81.0,7.07,2304548.0,GH,0.8973,5.7947,70.0,1685498854.0
187,Chui,54.77,89.0,2.15,3443061.0,UY,-53.4616,-33.6971,54.0,1685498856.0
188,Nishihara,85.26,79.0,23.02,1855342.0,JP,127.7558,26.1842,75.0,1685498858.0
189,Bariloche,44.35,87.0,6.91,7647007.0,AR,-71.3082,-41.1456,100.0,1685498569.0
190,Kristianstad,50.14,71.0,5.75,2699310.0,SE,14.1524,56.0313,10.0,1685498863.0
191,Cabo San Lucas,76.51,58.0,8.99,3985710.0,MX,-109.9124,22.8909,0.0,1685498576.0
192,Hunchun,75.42,26.0,2.55,2036653.0,CN,130.3581,42.8675,100.0,1685498867.0
193,Aykhal,36.39,61.0,13.47,2027296.0,RU,111.5,66.0,91.0,1685498869.0
194,Nchelenge,65.28,65.0,3.87,175499.0,ZM,28.734,-9.3451,28.0,1685498871.0
195,Hobyo,81.9,79.0,21.9,57000.0,SO,48.5268,5.3505,100.0,1685498873.0
196,Pechenga,45.19,76.0,16.71,511865.0,RU,31.1703,69.5259,100.0,1685498875.0
197,Hambantota,77.34,100.0,0.0,1244926.0,LK,81.1185,6.1241,20.0,1685498877.0
198,Lompoc,59.29,83.0,6.91,5367788.0,US,-120.4579,34.6391,100.0,1685498880.0
199,Hasaki,66.6,69.0,13.69,2112802.0,JP,140.8333,35.7333,100.0,1685498882.0
200,Departamento de Maldonado,50.07,91.0,5.7,3441890.0,UY,-54.9167,-34.6667,43.0,1685498886.0
201,Naze,77.18,85.0,7.74,1855540.0,JP,129.4833,28.3667,71.0,1685498888.0
202,Nikolskoye,42.12,83.0,4.36,546105.0,RU,30.7861,59.7035,7.0,1685498890.0
203,Dul'durga,61.11,31.0,12.5,2024812.0,RU,113.5931,50.6761,100.0,1685498892.0
204,Leh,45.19,71.0,1.97,1264976.0,IN,77.5833,34.1667,100.0,1685498894.0
205,Lata,59.92,98.0,1.01,2738381.0,PT,-8.3327,40.1629,95.0,1685498897.0
206,Tiksi,31.51,75.0,2.71,2015306.0,RU,128.8694,71.6872,34.0,1685498899.0
207,Qaanaaq,13.42,70.0,7.25,3831208.0,GL,-69.3632,77.484,0.0,1685498901.0
208,Ilulissat,35.62,93.0,6.91,3423146.0,GL,-51.1,69.2167,100.0,1685498903.0
209,Saint-Augustin,44.91,79.0,11.01,6137462.0,CA,-58.6502,51.226,100.0,1685498905.0
210,Saskylakh,39.6,59.0,7.67,2017155.0,RU,114.0833,71.9167,12.0,1685498907.0
211,Tessalit,83.62,25.0,7.94,2449893.0,ML,1.0114,20.1986,100.0,1685498909.0
212,Rayong,89.29,69.0,8.88,1607016.0,TH,101.4333,12.8333,96.0,1685498912.0
213,Sur,88.32,54.0,11.48,286245.0,OM,59.5289,22.5667,4.0,1685498914.0
214,Bereket,81.14,16.0,8.23,161974.0,TM,55.5154,39.2446,27.0,1685498916.0
215,Staraya Kulatka,64.54,68.0,1.59,489164.0,RU,47.6167,52.7167,19.0,1685498918.0
216,Roswell,69.22,75.0,0.0,4219934.0,US,-84.3616,34.0232,0.0,1685498858.0
217,Santa Luzia,63.5,92.0,4.09,3450144.0,BR,-43.8514,-19.7697,100.0,1685498922.0
218,São Filipe,76.21,69.0,7.58,3374210.0,CV,-24.4956,14.8961,100.0,1685498925.0
219,San Luis,51.96,63.0,2.77,3837056.0,AR,-66.3356,-33.295,100.0,1685498927.0
220,Fairbanks,48.24,91.0,9.22,5861897.0,US,-147.7164,64.8378,100.0,1685498701.0
221,Sibolga,83.16,73.0,0.74,1213855.0,ID,98.7792,1.7427,56.0,1685498931.0
222,Pahrump,82.69,14.0,5.01,5509851.0,US,-115.9839,36.2083,22.0,1685498750.0
223,Narsaq,46.62,97.0,1.43,3421719.0,GL,-46.05,60.9167,100.0,1685498935.0
224,Hamilton,72.39,68.0,0.0,4513583.0,US,-84.5333,39.1834,0.0,1685498880.0
225,Fortuna,56.71,77.0,10.36,5563839.0,US,-124.1573,40.5982,0.0,1685498939.0
226,Ayan,37.94,95.0,11.27,2027316.0,RU,138.1667,56.45,100.0,1685498942.0
227,El Dorado,61.81,66.0,1.01,5345659.0,US,-120.5177,38.7666,99.0,1685498944.0
228,Leonidovo,50.4,63.0,7.87,2123805.0,RU,142.8667,49.2833,97.0,1685498946.0
229,Chicama,72.14,82.0,6.8,3698359.0,PE,-79.1469,-7.8447,24.0,1685498948.0
230,Umluj,80.28,68.0,7.9,100926.0,SA,37.2685,25.0213,0.0,1685498950.0
231,Acapulco de Juárez,85.82,74.0,5.75,3533462.0,MX,-99.8901,16.8634,100.0,1685498953.0
232,Santa Maria,55.54,94.0,0.69,3450083.0,BR,-53.8069,-29.6842,0.0,1685498955.0
233,Ubinskoye,65.35,46.0,1.9,1488708.0,RU,79.6802,55.3068,0.0,1685498957.0
234,Flinders,71.65,56.0,8.99,6255012.0,AU,150.8552,-34.5833,100.0,1685498959.0
235,Broome,61.81,70.0,4.54,5110365.0,US,-75.833,42.2506,7.0,1685498961.0
236,Mossamedes,66.36,58.0,1.23,3347019.0,AO,12.1522,-15.1961,20.0,1685498963.0
237,Orange Cove,75.76,45.0,5.75,5379533.0,US,-119.3137,36.6244,0.0,1685498966.0
238,Barra Patuca,83.37,78.0,11.27,3614835.0,HN,-84.2833,15.8,95.0,1685498968.0
239,Arlit,87.82,18.0,12.53,2447513.0,NE,7.3853,18.7369,50.0,1685498970.0
240,Chilia Veche,59.11,70.0,7.92,682117.0,RO,29.2833,45.4167,87.0,1685498972.0
241,Conde,74.66,100.0,5.75,3385077.0,BR,-34.9075,-7.2597,20.0,1685498756.0
242,Bulungu,71.51,84.0,1.12,2316259.0,CD,18.6,-4.55,71.0,1685498976.0
243,Baker City,69.49,52.0,10.36,5712169.0,US,-117.8344,44.7749,0.0,1685498978.0
244,Rājākhera,87.91,35.0,8.84,1258930.0,IN,78.1714,26.8961,0.0,1685498981.0
245,Portland,64.65,47.0,10.36,5746545.0,US,-122.6762,45.5234,20.0,1685498790.0
246,Birkeland,49.55,81.0,3.44,3161532.0,NO,8.2323,58.3309,97.0,1685498985.0
247,Dvinskoy Bereznik,49.23,66.0,3.2,577240.0,RU,42.7072,62.8551,94.0,1685498987.0
248,Jalingo,78.87,74.0,3.42,2336589.0,NG,11.3667,8.8833,54.0,1685498989.0
249,Yar-Sale,51.89,64.0,14.14,1486321.0,RU,70.8333,66.8333,34.0,1685498991.0
250,Tafresh,66.61,45.0,3.04,113636.0,IR,50.013,34.692,41.0,1685498993.0
251,Homer,51.69,59.0,8.99,5864145.0,US,-151.5483,59.6425,75.0,1685498995.0
252,Mandalgovi,42.66,81.0,27.47,2030065.0,MN,106.2708,45.7625,100.0,1685498998.0
253,Kibala,77.45,73.0,4.61,2425791.0,TD,18.3463,9.1104,17.0,1685499000.0
254,Ulladulla,62.76,52.0,8.81,2145554.0,AU,150.4667,-35.35,100.0,1685499002.0
255,Sitka,44.49,81.0,3.44,5557293.0,US,-135.33,57.0531,100.0,1685498958.0
256,Leningradskiy,32.58,85.0,17.02,2123814.0,RU,178.4167,69.3833,100.0,1685499006.0
257,Takāb,58.46,64.0,2.35,113508.0,IR,47.1133,36.4009,100.0,1685499008.0
258,Tarancón,53.94,86.0,3.36,3108317.0,ES,-3.0073,40.0085,51.0,1685499011.0
259,Goderich,69.91,74.0,8.86,5962442.0,CA,-81.7165,43.7501,5.0,1685499013.0
260,Rosa Zarate,75.65,93.0,2.46,3652257.0,EC,-79.4667,0.3333,14.0,1685499015.0
261,Luganville,80.31,72.0,14.03,2136150.0,VU,167.1667,-15.5333,96.0,1685499017.0
262,Druzhba,51.98,84.0,7.87,709584.0,UA,33.9453,52.0428,74.0,1685499019.0
263,Valea lui Mihai,64.11,90.0,8.72,663692.0,RO,22.15,47.5167,95.0,1685499021.0
264,Ancud,51.08,92.0,15.19,3899695.0,CL,-73.8203,-41.8697,100.0,1685499024.0
265,Matagami,67.59,54.0,6.2,6067747.0,CA,-77.6328,49.7502,0.0,1685499026.0
266,Peniche,58.64,93.0,6.4,2264923.0,PT,-9.3811,39.3558,0.0,1685499028.0
267,Miraflores,74.77,57.0,4.61,3761194.0,MX,-98.8083,19.2167,91.0,1685499030.0
268,Lebu,53.85,95.0,13.35,3883457.0,CL,-73.65,-37.6167,100.0,1685499032.0
269,Crawley,50.95,86.0,10.36,2652053.0,GB,-0.1831,51.113,75.0,1685499034.0
270,Khonsa,81.57,56.0,3.31,1266668.0,IN,95.5667,27.0167,77.0,1685499037.0
271,Yumen,64.13,13.0,5.48,1528998.0,CN,97.2,40.2833,40.0,1685499039.0
272,Bubaque,81.72,85.0,17.45,2374583.0,GW,-15.8333,11.2833,100.0,1685499041.0
273,Ribas do Rio Pardo,64.47,98.0,2.82,3451399.0,BR,-53.7592,-20.4431,100.0,1685499043.0
274,Malbork,42.64,92.0,3.78,3092472.0,PL,19.0266,54.0359,10.0,1685499045.0
275,Saint-Leu,66.6,83.0,6.78,6690297.0,RE,55.2833,-21.15,0.0,1685499047.0
276,Arkhara,61.3,48.0,6.71,2027487.0,RU,130.0842,49.4212,100.0,1685499049.0
277,Tura,87.1,54.0,5.1,1254046.0,IN,90.2201,25.5198,41.0,1685499052.0
278,Ingham,75.83,41.0,9.22,4997130.0,US,-84.3833,42.6,0.0,1685499054.0
279,Sarandi,59.14,95.0,7.05,3447998.0,BR,-51.8739,-23.4436,100.0,1685499056.0
280,Biak,82.9,70.0,7.63,1637001.0,ID,122.8766,-0.9131,64.0,1685499058.0
281,Nieuw Amsterdam,76.01,93.0,6.29,3383434.0,SR,-55.0833,5.8833,100.0,1685499060.0
282,Boundiali,77.16,76.0,8.5,2290836.0,CI,-6.4869,9.5217,62.0,1685499062.0
283,Aitape,84.0,78.0,4.7,2101169.0,PG,142.3475,-3.1374,44.0,1685499064.0
284,Manadhoo,83.48,76.0,7.94,1337618.0,MV,73.3833,5.7667,96.0,1685499066.0
285,Ca Mau,88.07,63.0,9.91,1586443.0,VN,105.15,9.1769,98.0,1685499069.0
286,San Patricio,78.22,74.0,7.58,4726521.0,US,-97.5169,28.017,0.0,1685499071.0
287,Portree,44.53,93.0,7.36,2640006.0,GB,-6.1942,57.4129,16.0,1685499073.0
288,Srednekolymsk,50.95,58.0,17.52,2121025.0,RU,153.6833,67.45,100.0,1685499075.0
289,Zhangaözen,78.66,14.0,10.27,607610.0,KZ,52.8,43.3,100.0,1685499077.0
290,Mayo,61.75,79.0,12.66,4362001.0,US,-76.5119,38.8876,0.0,1685499080.0
291,Hualmay,69.58,81.0,11.81,3939761.0,PE,-77.6139,-11.0964,15.0,1685499082.0
292,Púchov,50.18,92.0,4.97,3057963.0,SK,18.326,49.1249,0.0,1685499084.0
293,Hong Kong,91.53,86.0,7.0,1819729.0,HK,114.1577,22.2855,18.0,1685498931.0
294,Dzilam González,79.14,81.0,6.64,3529654.0,MX,-88.9333,21.2833,0.0,1685499088.0
295,Sistranda,46.36,91.0,27.4,3139597.0,NO,8.834,63.7256,100.0,1685499090.0
296,Ondjiva,58.05,41.0,4.21,3346821.0,AO,15.7333,-17.0667,7.0,1685499093.0
297,Taguatinga,74.64,46.0,4.76,6319623.0,BR,-46.5711,-12.3857,8.0,1685499095.0
298,Evensk,56.86,53.0,6.62,2125693.0,RU,159.2333,61.95,34.0,1685499097.0
299,Katsuura,68.02,80.0,15.03,2112309.0,JP,140.3,35.1333,100.0,1685499099.0
300,Ambovombe,65.59,86.0,7.99,1079048.0,MG,46.0833,-25.1667,12.0,1685499101.0
301,Pisco,68.05,77.0,13.8,3932145.0,PE,-76.2167,-13.7,100.0,1685498931.0
302,Lala,87.58,64.0,7.83,1707944.0,PH,123.7458,7.9745,97.0,1685499105.0
303,East London,62.33,80.0,7.85,1006984.0,ZA,27.9116,-33.0153,73.0,1685499107.0
304,Nyurba,51.89,68.0,8.57,2018735.0,RU,118.3319,63.2842,100.0,1685499110.0
305,Baykit,62.51,49.0,5.32,1510689.0,RU,96.37,61.67,1.0,1685499112.0
306,Muyezerskiy,42.76,73.0,9.71,524100.0,RU,31.65,63.9333,86.0,1685499114.0
307,Umarkot,83.44,50.0,7.2,1162959.0,PK,69.7362,25.3616,1.0,1685499116.0
308,Paamiut,37.11,98.0,18.32,3421193.0,GL,-49.6678,61.994,100.0,1685499118.0
309,Gberia Fotombu,73.65,94.0,8.48,2409019.0,SL,-11.1667,9.8833,100.0,1685499120.0
310,Auki,86.5,64.0,6.08,2109701.0,SB,160.7034,-8.7676,71.0,1685499123.0
311,Timmins,71.42,43.0,6.91,6166739.0,CA,-81.3331,48.4669,20.0,1685499125.0
312,Pachino,65.12,83.0,8.55,6539213.0,IT,15.0907,36.7186,64.0,1685499127.0
313,Arrondissement d'Arcachon,59.07,82.0,0.0,6621469.0,FR,-1.0519,44.5875,0.0,1685499129.0
314,Avera,69.84,68.0,5.41,4231997.0,US,-82.5271,33.194,88.0,1685499131.0
315,Bonthe,79.97,85.0,5.53,2409914.0,SL,-12.505,7.5264,100.0,1685499134.0
316,Songjianghe,68.68,28.0,5.66,2034691.0,CN,127.479,42.1859,100.0,1685499136.0
317,Salisbury,52.9,76.0,12.66,2638664.0,GB,-1.7957,51.0693,100.0,1685499138.0
318,Xi'an,71.15,76.0,4.0,1790630.0,CN,108.9286,34.2583,100.0,1685499004.0
319,Touros,75.38,88.0,10.87,3386213.0,BR,-35.4608,-5.1989,3.0,1685499021.0
320,Boda,71.11,81.0,1.39,2388614.0,CF,17.4695,4.3189,92.0,1685499144.0
321,Mayumba,75.04,93.0,5.39,2399001.0,GA,10.6554,-3.432,94.0,1685499147.0
322,Chul'man,56.55,48.0,9.35,2025261.0,RU,124.9104,56.8479,72.0,1685499149.0
323,Tambacounda,87.04,61.0,10.87,2244991.0,SN,-13.7586,13.7539,100.0,1685499151.0
324,Bushehr,87.04,60.0,17.47,139817.0,IR,50.8385,28.9684,100.0,1685499153.0
325,Port Hardy,51.98,76.0,10.36,6111862.0,CA,-127.4199,50.6996,75.0,1685499155.0
326,Shashi,79.45,62.0,9.37,1795816.0,CN,112.2447,30.3072,42.0,1685499157.0
327,Grand-Lahou,79.59,87.0,5.7,2288105.0,CI,-5.0242,5.1367,92.0,1685499160.0
328,State College,60.24,73.0,2.55,5213681.0,US,-77.86,40.7934,5.0,1685499126.0
329,Teguise,64.62,73.0,6.91,2510573.0,ES,-13.564,29.0605,0.0,1685499164.0
330,Magdagachi,59.0,48.0,6.11,2020591.0,RU,125.8,53.45,46.0,1685499166.0
331,Gaozhou,90.09,64.0,4.97,1810295.0,CN,110.8461,21.9392,11.0,1685499168.0
332,Meulaboh,80.15,81.0,2.55,1214488.0,ID,96.1285,4.1363,100.0,1685499170.0
333,Río Gallegos,48.25,71.0,10.36,3838859.0,AR,-69.2181,-51.6226,20.0,1685499162.0
334,Chaihe,67.5,35.0,10.69,2038198.0,CN,129.7,44.7667,100.0,1685499179.0
335,Nikel,44.78,81.0,14.81,522260.0,RU,30.222,69.4128,100.0,1685499182.0
336,Beringovskiy,50.52,48.0,9.08,2126710.0,RU,179.3167,63.05,7.0,1685499184.0
337,Coyhaique,51.75,82.0,5.75,3894426.0,CL,-72.0662,-45.5752,75.0,1685499186.0
338,Vardø,46.38,71.0,10.36,777019.0,NO,31.1107,70.3705,75.0,1685499188.0
339,Talnakh,48.02,66.0,13.62,1490256.0,RU,88.3972,69.4865,56.0,1685499191.0
340,Faya,59.52,59.0,0.87,110690.0,SA,42.4509,18.3851,98.0,1685499193.0
341,Znamenskoye,62.02,80.0,2.24,1485020.0,RU,73.8282,57.1281,65.0,1685499195.0
342,Manavgat,64.13,83.0,3.29,304854.0,TR,31.4431,36.7867,21.0,1685499197.0
343,Cairns,81.27,65.0,13.8,2172797.0,AU,145.7667,-16.9167,40.0,1685498920.0
344,Klaksvík,47.32,78.0,16.22,2618795.0,FO,-6.589,62.2266,98.0,1685499201.0
345,Fonte Boa,74.91,94.0,3.02,6319315.0,BR,-66.2662,-2.4959,100.0,1685499203.0
346,Piaçabuçu,76.53,81.0,8.63,3454005.0,BR,-36.4344,-10.4056,59.0,1685499206.0
347,Havøysund,39.43,97.0,6.31,779622.0,NO,24.6622,70.9963,100.0,1685499208.0
348,Boden,50.63,65.0,14.67,606531.0,SE,21.6886,65.8252,100.0,1685499210.0
349,Nhulunbuy,81.21,65.0,17.27,2064735.0,AU,136.7667,-12.2333,100.0,1685499212.0
350,Kamenka,54.61,96.0,9.01,553766.0,RU,42.7678,51.3223,100.0,1685499214.0
351,Kazachinskoye,64.54,54.0,3.02,1504075.0,RU,93.2761,57.6953,98.0,1685499216.0
352,Geraldton,66.61,94.0,2.3,2070998.0,AU,114.6,-28.7667,100.0,1685499218.0
353,Maxixe,66.61,83.0,4.12,1039536.0,MZ,35.3472,-23.8597,46.0,1685499221.0
354,Leon Valley,78.33,59.0,6.91,4705923.0,US,-98.6186,29.4952,0.0,1685499223.0
355,Nome,39.27,70.0,12.66,5870133.0,US,-165.4064,64.5011,0.0,1685499224.0
356,Manokwari,84.22,71.0,3.87,1636308.0,ID,134.0833,-0.8667,11.0,1685499227.0
357,Grand-Santi,73.96,98.0,2.44,3381538.0,GF,-54.3833,4.25,100.0,1685499229.0
358,Faanui,78.84,80.0,18.25,4034551.0,PF,-151.75,-16.4833,39.0,1685499231.0
359,Clyde River,25.03,86.0,16.11,5924351.0,CA,-68.5914,70.4692,100.0,1685499233.0
360,Kosa,57.7,84.0,5.75,544318.0,RU,54.9977,59.9445,100.0,1685499235.0
361,Blackwater,71.76,32.0,7.58,2175403.0,AU,148.8833,-23.5833,0.0,1685499237.0
362,Assiniboia,67.82,60.0,4.61,5887798.0,CA,-105.9845,49.6334,54.0,1685499141.0
363,Bambous Virieux,71.85,78.0,3.44,1106677.0,MU,57.7575,-20.3428,40.0,1685499242.0
364,Arona,58.57,83.0,6.91,2521582.0,ES,-16.681,28.0996,20.0,1685499244.0
365,Belyy Yar,51.69,87.0,4.47,1510377.0,RU,91.3903,53.6039,75.0,1685499246.0
366,San Miguel,77.77,84.0,2.77,3583446.0,SV,-88.1833,13.4833,39.0,1685499248.0
367,Maniitsoq,39.88,81.0,17.81,3421982.0,GL,-52.9,65.4167,100.0,1685499250.0
368,Freeport,55.49,77.0,9.22,5117949.0,US,-73.5832,40.6576,0.0,1685499032.0
369,Constitución,54.45,65.0,2.21,3893726.0,CL,-72.4167,-35.3333,86.0,1685499255.0
370,Tarakan,85.5,74.0,3.44,1624725.0,ID,117.6333,3.3,20.0,1685499257.0
371,Nirmal,92.86,27.0,9.51,1261288.0,IN,78.35,19.1,80.0,1685499259.0
372,Zmeinogorsk,57.92,61.0,3.62,1485042.0,RU,82.195,51.1567,6.0,1685499146.0
373,Valparaíso,59.0,64.0,6.91,3868626.0,CL,-71.6273,-33.0393,0.0,1685499263.0
374,Caravelas,74.25,77.0,8.39,3466980.0,BR,-39.2481,-17.7125,19.0,1685499266.0
375,Torbay,41.85,79.0,18.41,6167817.0,CA,-52.7314,47.6666,75.0,1685499268.0
376,Le Port,66.33,85.0,4.38,935616.0,RE,55.2919,-20.9373,0.0,1685499270.0
377,Kumul,69.55,22.0,4.61,1529484.0,CN,93.45,42.8,12.0,1685498976.0
378,Inverell,65.1,58.0,5.99,2162662.0,AU,151.1167,-29.7833,83.0,1685499274.0
379,Tortolì,64.22,82.0,11.5,2522890.0,IT,9.6572,39.9256,40.0,1685499276.0
380,Beipiao,78.15,26.0,18.5,2038342.0,CN,120.7792,41.7919,99.0,1685499278.0
381,Novo Aripuanã,76.77,91.0,2.33,3663142.0,BR,-60.3797,-5.1206,100.0,1685499281.0
382,Akdepe,69.89,13.0,11.56,601551.0,TM,59.3788,42.0551,0.0,1685499283.0
383,Pangnirtung,35.02,99.0,3.91,6096551.0,CA,-65.7125,66.1451,100.0,1685499285.0
384,Komatipoort,62.06,90.0,2.3,988290.0,ZA,31.9548,-25.4332,33.0,1685499287.0
385,Kailua,80.49,70.0,11.5,5847486.0,US,-157.7394,21.4022,100.0,1685499289.0
386,Massakory,91.56,37.0,5.84,2428228.0,TD,15.7293,12.996,74.0,1685499291.0
387,Byron Bay,72.72,48.0,10.67,2172880.0,AU,153.6167,-28.65,3.0,1685499095.0
388,Dawson Creek,62.24,27.0,8.05,5935804.0,CA,-120.2362,55.7666,0.0,1685499296.0
389,Port-Gentil,78.57,84.0,12.19,2396518.0,GA,8.7815,-0.7193,11.0,1685499298.0
390,Augusto Corrêa,74.71,98.0,2.73,3406961.0,BR,-46.635,-1.0217,100.0,1685499298.0
391,Araouane,86.58,26.0,11.36,2460954.0,ML,-3.5265,18.9048,100.0,1685499302.0
392,Coahuayana Viejo,79.34,78.0,3.06,4013679.0,MX,-103.6833,18.7333,1.0,1685499304.0
393,Mount Gambier,64.36,64.0,13.67,2156643.0,AU,140.7667,-37.8333,100.0,1685499306.0
394,Swan River,71.49,60.0,5.75,6160362.0,CA,-101.2676,52.1058,66.0,1685499309.0
395,Bima,84.33,67.0,5.7,1648759.0,ID,118.7167,-8.4667,52.0,1685499311.0
396,Cherskiy,43.57,57.0,12.84,2126199.0,RU,161.3,68.75,94.0,1685499313.0
397,Adrar,79.27,26.0,10.18,2381972.0,MR,-10.0711,20.5022,32.0,1685499315.0
398,Egvekinot,46.04,54.0,9.78,4031742.0,RU,-179.1667,66.3167,70.0,1685499317.0
399,Comodoro Rivadavia,60.66,48.0,11.5,3860443.0,AR,-67.5,-45.8667,0.0,1685499220.0
400,Volchikha,66.88,36.0,5.59,1486983.0,RU,80.3833,52.0333,0.0,1685499322.0
401,Paita,74.34,80.0,15.68,3694112.0,PE,-81.1144,-5.0892,0.0,1685499324.0
402,Calama,45.09,21.0,14.97,3897347.0,CL,-68.9333,-22.4667,0.0,1685499326.0
403,Abalak,64.9,48.0,5.01,1512223.0,RU,68.5944,58.1286,12.0,1685499151.0
404,Atar,85.33,27.0,8.43,2381334.0,MR,-13.0499,20.5169,77.0,1685499330.0
405,Venado Tuerto,52.77,83.0,8.1,3833062.0,AR,-61.9688,-33.7456,70.0,1685499332.0
406,Ostrovnoy,45.45,69.0,11.92,556268.0,RU,39.5131,68.0531,24.0,1685499335.0
407,Praia,81.14,34.0,18.41,3374333.0,CV,-23.5087,14.9215,0.0,1685499327.0
408,Campoverde,76.69,100.0,2.46,3733380.0,PE,-74.8058,-8.4753,31.0,1685499339.0
409,Peebles,47.32,95.0,1.99,2640526.0,GB,-3.1888,55.6519,36.0,1685499341.0
410,Ngunguru,62.08,72.0,8.7,2186111.0,NZ,174.5,-35.6167,56.0,1685499343.0
411,Haines Junction,53.55,22.0,5.75,5969025.0,CA,-137.5108,60.7522,51.0,1685499345.0
412,Chernyshevsk,60.46,34.0,11.41,2025458.0,RU,117.0174,52.5243,67.0,1685499347.0
413,Makiyivka,58.75,96.0,6.08,702320.0,UA,37.9258,48.0478,100.0,1685499349.0
414,Petropavlovsk-Kamchatskiy,45.19,76.0,22.37,2122104.0,RU,158.6483,53.0452,75.0,1685499352.0
415,Los Llanos de Aridane,61.12,74.0,5.75,2514651.0,ES,-17.9182,28.6585,0.0,1685499354.0
416,Nuevo Progreso,79.9,67.0,1.01,3522526.0,MX,-97.95,23.1667,21.0,1685499356.0
417,Norsup,80.49,68.0,18.48,2135517.0,VU,167.3833,-16.0667,100.0,1685499358.0
418,Yulara,66.63,30.0,4.41,6355222.0,AU,130.9889,-25.2406,0.0,1685499360.0
419,Hohhot,62.89,72.0,6.71,2036892.0,CN,111.6522,40.8106,100.0,1685499362.0
420,Bowen,70.25,77.0,16.33,2174444.0,AU,148.2333,-20.0167,61.0,1685499365.0
421,Smoky Lake,53.4,93.0,16.11,6150293.0,CA,-112.4686,54.1169,8.0,1685499367.0
422,Angoram,89.01,61.0,3.06,2100765.0,PG,144.0661,-4.0625,64.0,1685499369.0
423,Itarema,76.75,88.0,10.38,3393692.0,BR,-39.9167,-2.9248,11.0,1685499217.0
424,La Asuncion,80.02,87.0,11.23,3480908.0,VE,-63.8628,11.0333,100.0,1685499373.0
425,Berlevåg,42.6,75.0,0.0,780687.0,NO,29.0864,70.8578,100.0,1685499375.0
426,Ambilobe,68.74,91.0,3.2,1082243.0,MG,49.05,-13.2,0.0,1685499378.0
427,Teya,66.74,41.0,2.73,1489656.0,RU,92.6267,60.3778,4.0,1685499380.0
428,Máncora,78.01,74.0,6.96,3695000.0,PE,-81.0475,-4.1078,8.0,1685499382.0
429,Crotone,64.18,78.0,3.69,2524881.0,IT,17.1178,39.0851,82.0,1685499384.0
430,Sechura,75.96,73.0,15.28,3691954.0,PE,-80.8222,-5.5569,0.0,1685499386.0
431,Tarko-Sale,60.8,72.0,16.55,1490085.0,RU,77.785,64.9225,0.0,1685499388.0
432,Yerofey Pavlovich,60.82,38.0,5.73,2012938.0,RU,121.9667,53.9667,5.0,1685499391.0
433,Doha,93.18,36.0,14.97,290030.0,QA,51.5333,25.2867,0.0,1685499220.0
434,Palmer,56.77,61.0,10.36,4946620.0,US,-72.3287,42.1584,20.0,1685499098.0
435,Darhan,57.54,63.0,18.79,2031964.0,MN,105.9228,49.4867,100.0,1685499397.0
436,Rantauprapat,83.12,70.0,0.47,1214073.0,ID,99.8333,2.1,100.0,1685499399.0
437,Arroyo de la Encomienda,56.26,88.0,5.75,3129371.0,ES,-4.7969,41.6096,0.0,1685499401.0
438,Keetmanshoop,45.82,90.0,5.03,3356264.0,NA,18.1333,-26.5833,44.0,1685499403.0
439,Staryy Nadym,48.61,82.0,18.21,1490918.0,RU,72.6842,65.6118,100.0,1685499406.0
440,Beloha,65.34,88.0,10.25,1067565.0,MG,45.05,-25.1667,69.0,1685499408.0
441,Kelvington,68.81,62.0,7.16,5990669.0,CA,-103.5343,52.1667,2.0,1685499410.0
442,Munger,98.51,24.0,2.71,1262482.0,IN,86.4667,25.3833,87.0,1685499412.0
443,Grindavik,43.27,100.0,10.36,3416888.0,IS,-22.4338,63.8424,100.0,1685499414.0
444,Kangaatsiaq,33.17,94.0,8.28,3422683.0,GL,-53.4641,68.3065,100.0,1685499416.0
445,Omsukchan,58.53,35.0,6.31,2122493.0,RU,155.8,62.5333,26.0,1685499418.0
446,Quzhou,79.95,86.0,7.2,1797264.0,CN,118.8686,28.9594,92.0,1685499420.0
447,Neijiang,84.97,70.0,0.74,1799491.0,CN,105.0622,29.5835,74.0,1685499423.0
448,Bonavista,40.37,86.0,14.12,5905393.0,CA,-53.1147,48.6499,100.0,1685499425.0
449,Pauini,73.15,92.0,2.3,3662927.0,BR,-66.9764,-7.7136,77.0,1685499427.0
450,Poso,86.83,61.0,1.88,1630723.0,ID,120.7524,-1.3959,52.0,1685499429.0
451,Hervey Bay,66.56,60.0,0.89,2146219.0,AU,152.8535,-25.2986,0.0,1685499431.0
452,Gambēla,70.32,85.0,3.4,337405.0,ET,34.5833,8.25,16.0,1685499434.0
453,Hede,74.86,74.0,9.95,1808744.0,CN,120.2517,33.7681,56.0,1685499436.0
454,Alice Springs,69.35,26.0,4.88,2077895.0,AU,133.8833,-23.7,0.0,1685499438.0
455,Tazmalt,59.14,91.0,3.74,2477537.0,DZ,4.3989,36.3868,90.0,1685499440.0
456,Mangaratiba,67.06,84.0,2.84,3457991.0,BR,-44.0406,-22.9597,95.0,1685499442.0
457,Porto-Novo,79.14,84.0,5.57,2392087.0,BJ,2.6036,6.4965,75.0,1685499445.0
458,Sabha,75.9,31.0,14.07,2212775.0,LY,14.4283,27.0377,0.0,1685499447.0
459,Salinópolis,78.48,88.0,10.2,3389822.0,BR,-47.3561,-0.6136,100.0,1685499449.0
460,Riyadh,78.94,57.0,10.65,108410.0,SA,46.7219,24.6877,100.0,1685499280.0
461,Jönköping,51.51,76.0,8.05,2702979.0,SE,14.1562,57.7814,59.0,1685499453.0
462,Yatou,74.16,48.0,5.77,1786855.0,CN,122.3833,37.15,88.0,1685499455.0
463,Jaru,72.3,95.0,3.13,3925040.0,BR,-62.4664,-10.4389,79.0,1685499458.0
464,Yashan,89.71,64.0,2.98,1786867.0,CN,109.9419,22.1975,8.0,1685499460.0
465,Bamiantong,70.39,31.0,11.21,2038482.0,CN,130.5333,44.9333,63.0,1685499462.0
466,Boa Vista,80.58,78.0,4.61,3664980.0,BR,-60.6733,2.8197,20.0,1685499405.0
467,Barra do Bugres,67.91,97.0,3.69,3470718.0,BR,-57.1811,-15.0725,89.0,1685499466.0
468,Butembo,55.18,94.0,3.29,217562.0,CD,29.2833,0.15,4.0,1685499468.0
469,Talaya,58.62,40.0,5.95,2120769.0,RU,152.75,61.3833,100.0,1685499470.0
470,Vengurla,81.91,81.0,2.24,1253257.0,IN,73.6333,15.8667,46.0,1685499473.0
471,Maracaçumé,73.2,99.0,2.57,3395497.0,BR,-45.9592,-2.0428,94.0,1685499475.0
472,Nouadhibou,67.98,77.0,16.11,2377457.0,MR,-17.0347,20.931,79.0,1685499477.0
473,La Celia,63.99,97.0,2.82,3679542.0,CO,-76.0167,5.0433,100.0,1685499479.0
474,Lüderitz,55.17,84.0,11.7,3355672.0,NA,15.1594,-26.6481,0.0,1685499481.0
475,Carutapera,76.21,95.0,5.41,3402648.0,BR,-46.02,-1.195,98.0,1685499483.0
476,Yauya,49.03,86.0,5.91,3690733.0,PE,-77.3,-8.9833,35.0,1685499486.0
477,Port Said,71.58,78.0,3.44,358619.0,EG,32.2841,31.2565,0.0,1685499488.0
478,Sambava,72.28,88.0,10.22,1056899.0,MG,50.1667,-14.2667,27.0,1685499490.0
479,Kafanchan,70.99,91.0,3.06,2335713.0,NG,8.3,9.5833,66.0,1685499492.0
480,Neftçala,73.27,70.0,9.57,147425.0,AZ,49.2472,39.3742,100.0,1685499494.0
481,Yhú,58.62,99.0,3.83,3436595.0,PY,-55.9167,-25.05,33.0,1685499496.0
482,Necochea,53.37,70.0,12.21,3430443.0,AR,-58.7368,-38.5473,100.0,1685499437.0
483,Muros,58.48,94.0,1.95,3115824.0,ES,-9.0603,42.7762,93.0,1685499501.0
484,Linxia Chengguanzhen,52.14,82.0,3.06,1803331.0,CN,103.2064,35.6003,100.0,1685499503.0
485,Tripoli,67.21,84.0,9.42,2210247.0,LY,13.1875,32.8752,11.0,1685499505.0
486,Ixtapa,81.63,78.0,8.05,4004293.0,MX,-105.2,20.7,40.0,1685499507.0
487,Santiago del Estero,60.13,75.0,6.02,3835869.0,AR,-64.2615,-27.7951,95.0,1685499509.0
488,Uribia,82.87,75.0,10.69,3666409.0,CO,-72.266,11.7139,99.0,1685499511.0
489,Rome,69.42,55.0,8.05,5134295.0,US,-75.4557,43.2128,0.0,1685499513.0
490,Xuanzhou,70.75,95.0,5.91,1788081.0,CN,118.7553,30.9525,100.0,1685499516.0
491,Arrondissement de Muret,57.7,89.0,3.38,2991152.0,FR,1.25,43.3333,100.0,1685499518.0
492,Orlik,44.04,73.0,5.03,1496073.0,RU,99.825,52.5178,100.0,1685499520.0
493,Toyoake,75.0,56.0,4.65,1856057.0,JP,137.0137,35.0594,100.0,1685499522.0
494,Ibrā’,82.62,56.0,3.18,287832.0,OM,58.5334,22.6906,3.0,1685499524.0
495,Ayagoz,56.37,52.0,14.45,1525988.0,KZ,80.4392,47.9714,3.0,1685499526.0
496,Deputatsky,32.34,73.0,6.06,2028164.0,RU,139.9,69.3,100.0,1685499528.0
497,Moyale,64.78,87.0,4.92,186180.0,KE,39.0584,3.5167,32.0,1685499530.0
498,Gresik,78.98,61.0,6.35,1643776.0,ID,112.6561,-7.1539,31.0,1685499533.0
499,Tsushima,74.84,61.0,4.59,1849539.0,JP,136.7167,35.1667,100.0,1685499535.0
500,Boralday,67.86,45.0,2.24,1526384.0,KZ,76.8594,43.3578,40.0,1685499537.0
501,Mahina,76.77,88.0,26.46,4034307.0,PF,-149.489,-17.5065,75.0,1685499539.0
502,Ust-Maya,65.62,45.0,2.84,2013918.0,RU,134.5333,60.4167,100.0,1685499541.0
503,General Pico,52.54,76.0,9.64,3855075.0,AR,-63.7568,-35.6566,24.0,1685499543.0
504,Labuan,88.16,62.0,4.61,1733782.0,MY,115.2417,5.2767,20.0,1685499545.0
505,Saint Anthony,75.65,55.0,11.5,5044290.0,US,-93.218,45.0205,0.0,1685499548.0
506,Iqaluit,32.7,86.0,18.01,5983720.0,CA,-68.5145,63.7506,75.0,1685499550.0
507,Haapiti,76.71,80.0,17.92,4034438.0,PF,-149.8667,-17.5667,69.0,1685499552.0
508,Sarankhola,90.63,56.0,6.22,1185239.0,BD,89.7897,22.3082,51.0,1685499554.0
509,Odienné,74.46,89.0,4.27,2283016.0,CI,-7.5692,9.51,10.0,1685499556.0
510,Miles City,74.37,53.0,9.22,5666176.0,US,-105.8406,46.4083,20.0,1685499559.0
511,Daru,80.06,85.0,16.67,2098329.0,PG,143.2092,-9.0763,57.0,1685499561.0
512,Umm Kaddadah,84.58,46.0,10.2,364933.0,SD,26.6876,13.6017,33.0,1685499563.0
513,Skegness,51.49,87.0,16.33,2637762.0,GB,0.3363,53.1436,59.0,1685499565.0
514,Saint-François,51.67,92.0,2.68,2980080.0,FR,3.9054,46.4154,10.0,1685499568.0
515,Semey,62.82,45.0,4.47,1519422.0,KZ,80.2275,50.4111,0.0,1685499570.0
516,Esperance,65.71,80.0,10.8,2071860.0,AU,121.9,-33.8667,26.0,1685499572.0
517,Selkirk,69.31,72.0,3.0,6144054.0,CA,-96.8845,50.1436,100.0,1685499574.0
518,Mahajanga,74.71,68.0,8.32,1062663.0,MG,46.3167,-15.7167,31.0,1685499576.0
519,Ruwi,90.75,53.0,3.76,287286.0,OM,58.5507,23.5996,5.0,1685499578.0
520,Pucallpa,77.04,94.0,2.3,3693345.0,PE,-74.5539,-8.3791,40.0,1685499580.0
521,Ginda,64.72,63.0,1.59,1253628.0,IN,78.4932,30.6945,92.0,1685499583.0
522,Hare Bay,42.4,71.0,4.38,5970873.0,CA,-54.0148,48.8499,100.0,1685499585.0
523,Kabalo,68.86,66.0,3.02,215668.0,CD,26.9167,-6.05,6.0,1685499587.0
524,Cockburn Town,81.3,84.0,16.93,3576994.0,TC,-71.1419,21.4612,100.0,1685499589.0
525,Kolomyia,51.26,93.0,5.41,705392.0,UA,25.0403,48.5306,39.0,1685499591.0
526,Odawara,64.24,84.0,8.03,1854747.0,JP,139.1597,35.2556,100.0,1685499552.0
527,Santa Cruz de la Sierra,60.26,94.0,4.61,3904906.0,BO,-63.1667,-17.8,75.0,1685499595.0
528,Derzhavīnsk,75.83,36.0,2.06,1524606.0,KZ,66.3167,51.1,100.0,1685499598.0
529,Raduzhny,65.12,60.0,9.19,1540356.0,RU,77.475,62.0961,0.0,1685499600.0
530,Gulariyā,90.73,35.0,4.0,1283368.0,NP,81.3333,28.2333,3.0,1685499602.0
531,Oudtshoorn,52.16,66.0,2.24,967106.0,ZA,22.2014,-33.5907,97.0,1685499604.0
532,Ruteng,71.37,70.0,3.83,1629380.0,ID,120.4721,-8.6136,96.0,1685499607.0
533,Sokolac,52.57,99.0,2.46,3190385.0,BA,18.8017,43.9397,98.0,1685499609.0
534,Jieshi,84.04,71.0,4.88,1805857.0,CN,115.8257,22.8134,12.0,1685499611.0
535,Porto Velho,77.05,94.0,0.0,3662762.0,BR,-63.9039,-8.7619,20.0,1685499613.0
536,Olinda,76.73,83.0,6.91,3393536.0,BR,-34.8553,-8.0089,75.0,1685499616.0
537,Vallenar,64.38,43.0,2.19,3868633.0,CL,-70.7581,-28.5708,76.0,1685499420.0
538,Bud,71.94,78.0,4.61,4255151.0,US,-86.1758,39.447,100.0,1685499620.0
539,Dhārchula,72.39,62.0,4.79,1272864.0,IN,80.5333,29.85,69.0,1685499623.0
540,Mabaruma,74.7,98.0,3.38,3377301.0,GY,-59.7833,8.2,99.0,1685499625.0
541,Nemuro,51.35,74.0,14.5,2128975.0,JP,145.575,43.3236,1.0,1685499627.0
542,Caucayá,73.81,98.0,2.37,3671437.0,CO,-74.7819,-0.1934,21.0,1685499629.0
543,Vanderhoof,60.58,26.0,10.25,6173361.0,CA,-124.0198,54.0166,94.0,1685499636.0
544,Maravilha,59.61,94.0,2.57,3457809.0,BR,-53.1725,-26.7608,100.0,1685499638.0
545,Nanlong,83.12,70.0,9.84,1799908.0,CN,106.0631,31.3533,20.0,1685499640.0
546,Seryshevo,48.74,92.0,6.49,2016942.0,RU,128.3786,51.0933,100.0,1685499643.0
547,Les Cayes,79.0,82.0,4.52,3728097.0,HT,-73.75,18.2,100.0,1685499645.0
548,Lagoa,63.14,82.0,10.58,3372964.0,PT,-27.9833,39.05,1.0,1685499407.0
549,Pacifica,57.34,81.0,19.57,5380420.0,US,-122.4869,37.6138,20.0,1685499649.0
550,Northam,53.06,81.0,10.63,2641434.0,GB,-4.2167,51.0333,0.0,1685499651.0
551,Rio Grande,61.05,89.0,1.74,3451138.0,BR,-52.0986,-32.035,32.0,1685499653.0
552,Gejiu,72.88,60.0,4.23,1810240.0,CN,103.1635,23.306,22.0,1685499655.0
553,Opuwo,54.73,33.0,2.84,3354077.0,NA,13.84,-18.0607,7.0,1685499658.0
554,La Ronge,71.85,37.0,2.3,6050066.0,CA,-105.2842,55.1001,75.0,1685499660.0
555,Yazykovo,67.21,68.0,5.35,468483.0,RU,56.1353,55.2199,100.0,1685499662.0
556,Batticaloa,82.45,76.0,1.12,1250161.0,LK,81.6924,7.7102,82.0,1685499664.0
557,Khasan,64.89,53.0,7.05,2039557.0,RU,130.6434,42.4308,100.0,1685499666.0
558,Kattivākkam,83.07,80.0,11.48,1267433.0,IN,80.3167,13.2167,96.0,1685499668.0
559,Arrondissement de Saint-Denis,54.93,86.0,14.97,2980915.0,FR,2.3333,48.9167,0.0,1685499671.0
560,Ende,80.76,76.0,7.02,1644932.0,ID,121.6623,-8.8432,80.0,1685499673.0
561,Harlingen,77.52,93.0,9.22,4696233.0,US,-97.6961,26.1906,0.0,1685499628.0
562,Zhicheng,80.02,65.0,6.17,1784554.0,CN,111.5047,30.2956,64.0,1685499677.0
563,Havelock,67.35,92.0,9.22,4470244.0,US,-76.9013,34.8791,40.0,1685499679.0
564,Madimba,71.47,94.0,8.59,878141.0,TZ,40.3333,-10.4,77.0,1685499681.0
565,Pacific Grove,58.08,80.0,9.22,5380437.0,US,-121.9166,36.6177,75.0,1685499646.0
566,Esim,79.02,86.0,4.99,2303611.0,GH,-2.2405,4.8699,85.0,1685499686.0
567,Gorontalo,87.87,62.0,6.04,1643837.0,ID,123.0595,0.5412,95.0,1685499688.0
568,Vaitape,78.84,80.0,18.45,4033077.0,PF,-151.75,-16.5167,43.0,1685499690.0
569,Ottawa,65.19,59.0,3.78,6094817.0,CA,-75.6981,45.4112,0.0,1685499455.0
570,Petropavl,67.98,60.0,8.95,1520172.0,KZ,69.1628,54.8753,0.0,1685499694.0
571,Bossangoa,71.2,76.0,3.2,2388036.0,CF,17.4552,6.4926,11.0,1685499697.0
572,Lavrentiya,37.8,70.0,8.48,4031637.0,RU,-171.0,65.5833,87.0,1685499699.0
573,Muskegon,74.01,47.0,0.0,5003136.0,US,-86.1334,43.3,40.0,1685499594.0
574,Lālmohan,87.33,67.0,4.83,1185251.0,BD,90.7419,22.3384,92.0,1685499703.0
575,Gainesville,74.59,72.0,8.05,4156404.0,US,-82.3248,29.6516,100.0,1685499558.0
