,City,Temp_max,Humidity,wind_speed,city_id,country_code,long,lat,Cloudiness,datetime
0,Flin Flon,75.04,69.0,4.61,5954718.0,CA,-101.865,54.7682,75.0,1685829602.0
1,Severo-Kuril'sk,38.75,97.0,24.47,2121385.0,RU,156.125,50.6789,100.0,1685829604.0
2,Codrington,49.53,92.0,8.84,2171099.0,AU,141.9667,-38.2667,100.0,1685829607.0
3,Bredasdorp,54.36,69.0,9.53,1015776.0,ZA,20.0403,-34.5322,100.0,1685829614.0
4,Kindersley,68.02,83.0,8.05,5992154.0,CA,-109.1682,51.4668,100.0,1685829617.0
5,Kavieng,82.36,75.0,5.03,2094342.0,PG,150.7967,-2.5744,100.0,1685829620.0
6,Brae,48.74,93.0,5.95,2654970.0,GB,-1.353,60.3964,16.0,1685829623.0
7,Hithadhoo,82.81,74.0,8.63,1282256.0,MV,73.0833,-0.6,96.0,1685829625.0
8,Ponta Delgada,66.92,88.0,2.3,3372783.0,PT,-25.6667,37.7333,40.0,1685829626.0
9,Kaitangata,43.43,97.0,2.71,2208248.0,NZ,169.8464,-46.2817,100.0,1685829630.0
10,Neiafu,75.88,73.0,4.61,4032420.0,TO,-173.9833,-18.65,75.0,1685829632.0
11,Busselton,63.93,60.0,23.53,2075265.0,AU,115.3333,-33.65,94.0,1685829634.0
12,Kudahuvadhoo,79.88,81.0,7.83,1337607.0,MV,72.8944,2.6708,100.0,1685829636.0
13,Port Macquarie,59.9,86.0,3.27,2152659.0,AU,152.9167,-31.4333,90.0,1685829639.0
14,Jamestown,74.46,38.0,19.57,5122534.0,US,-79.2353,42.097,0.0,1685829573.0
15,Nantucket,50.07,87.0,27.63,4944903.0,US,-70.0995,41.2835,100.0,1685829511.0
16,São João da Barra,69.89,82.0,3.36,3448903.0,BR,-41.0511,-21.6403,0.0,1685829645.0
17,Castlebar,58.24,93.0,3.22,2965654.0,IE,-9.3,53.85,0.0,1685829647.0
18,Katobu,74.26,97.0,3.74,1640972.0,ID,122.5276,-4.9408,95.0,1685829649.0
19,Port Lincoln,61.18,73.0,8.61,2063036.0,AU,135.8667,-34.7333,100.0,1685829520.0
20,Padampur,86.47,35.0,5.39,1260938.0,IN,73.6167,29.6833,72.0,1685829654.0
21,Cayenne,80.64,83.0,1.14,3382160.0,GF,-52.3333,4.9333,75.0,1685829596.0
22,Norman Wells,69.84,32.0,5.75,6089245.0,CA,-126.8329,65.282,40.0,1685829658.0
23,Upernavik,29.64,80.0,7.38,3418910.0,GL,-56.1549,72.7868,74.0,1685829385.0
24,Ushuaia,38.86,75.0,2.3,3833367.0,AR,-68.3,-54.8,0.0,1685829662.0
25,Tasiilaq,30.36,91.0,1.1,3424607.0,GL,-37.6368,65.6145,71.0,1685829664.0
26,Thunder Bay,80.51,47.0,10.36,6166142.0,CA,-89.3168,48.4001,75.0,1685829666.0
27,Provideniya,39.13,79.0,5.99,4031574.0,RU,-173.3,64.3833,98.0,1685829669.0
28,Cap Malheureux,75.47,70.0,1.99,934649.0,MU,57.6142,-19.9842,27.0,1685829671.0
29,West Wendover,70.81,28.0,4.61,5710035.0,US,-114.0733,40.7391,40.0,1685829587.0
30,Tautira,77.36,72.0,6.91,4033557.0,PF,-149.15,-17.7333,14.0,1685829675.0
31,Avarua,75.25,64.0,5.75,4035715.0,CK,-159.775,-21.2078,20.0,1685829677.0
32,Punta Arenas,39.31,87.0,11.5,3874787.0,CL,-70.9167,-53.15,100.0,1685829617.0
33,Ozernovskiy,39.49,93.0,19.3,2122293.0,RU,156.5167,51.5,100.0,1685829682.0
34,Aksu,69.06,32.0,8.68,1529660.0,CN,80.2644,41.1231,100.0,1685829684.0
35,Arrondissement d'Ajaccio,62.58,73.0,4.61,3038333.0,FR,8.9167,42.0,0.0,1685829686.0
36,Cabedelo,79.47,78.0,13.56,3404558.0,BR,-34.8339,-6.9811,26.0,1685829689.0
37,Dikson,30.88,89.0,4.38,1507390.0,RU,80.5464,73.5069,100.0,1685829691.0
38,Hobart,35.73,92.0,12.66,2163355.0,AU,147.3294,-42.8794,0.0,1685829693.0
39,Vestmannaeyjar,47.91,78.0,11.12,3412093.0,IS,-20.2734,63.4427,100.0,1685829695.0
40,Alofi,75.09,88.0,9.22,4036284.0,NU,-169.9187,-19.0595,100.0,1685829697.0
41,Carnarvon,60.3,44.0,9.15,2074865.0,AU,113.6333,-24.8667,0.0,1685829701.0
42,Saint-Philippe,69.39,74.0,12.03,935215.0,RE,55.7679,-21.3585,29.0,1685829703.0
43,Cabra,68.68,57.0,5.26,2520645.0,ES,-4.4421,37.4725,97.0,1685829483.0
44,Feldbach,54.46,95.0,1.68,2779685.0,AT,15.8883,46.9531,20.0,1685829707.0
45,Tual,81.18,81.0,18.25,1623197.0,ID,132.75,-5.6667,28.0,1685829710.0
46,Longyearbyen,35.44,69.0,2.3,2729907.0,SJ,15.6401,78.2186,0.0,1685829702.0
47,Dukat,56.71,50.0,1.9,2125906.0,RU,155.55,62.55,94.0,1685829714.0
48,Jalu,82.27,27.0,11.18,86049.0,LY,21.5482,29.0331,47.0,1685829716.0
49,Vaini,75.36,69.0,8.05,4032243.0,TO,-175.2,-21.2,20.0,1685829718.0
50,Albany,61.02,79.0,1.99,5106841.0,US,-73.9662,42.6001,86.0,1685829643.0
51,Karaton,74.1,95.0,1.36,1630058.0,ID,106.1045,-6.3424,54.0,1685829723.0
52,Saldanha,51.85,72.0,3.85,3361934.0,ZA,17.9442,-33.0117,11.0,1685829725.0
53,Castro,55.42,84.0,4.34,3466704.0,BR,-50.0119,-24.7911,0.0,1685829641.0
54,Inhambane,74.03,79.0,13.62,1045114.0,MZ,35.3833,-23.865,43.0,1685829729.0
55,Mataura,42.62,98.0,2.95,6201424.0,NZ,168.8643,-46.1927,100.0,1685829731.0
56,Puerto Ayora,79.56,91.0,5.99,3652764.0,EC,-90.3518,-0.7393,65.0,1685829526.0
57,Arraial do Cabo,69.66,83.0,5.75,3471451.0,BR,-42.0278,-22.9661,0.0,1685829736.0
58,Obihiro,51.8,85.0,4.94,2128815.0,JP,143.2044,42.9172,21.0,1685829738.0
59,Penzance,56.08,83.0,8.75,2640377.0,GB,-5.5371,50.1186,20.0,1685829740.0
60,Butaritari,83.5,77.0,11.99,2110227.0,KI,172.7902,3.0707,99.0,1685829742.0
61,Rikitea,75.16,65.0,12.03,4030556.0,PF,-134.9692,-23.1203,100.0,1685829744.0
62,Namatanai,81.23,78.0,5.77,2090021.0,PG,152.4333,-3.6667,79.0,1685829746.0
63,Isangel,75.31,83.0,2.3,2136825.0,VU,169.2667,-19.55,20.0,1685829749.0
64,Saint George,92.23,12.0,10.36,5546220.0,US,-113.5841,37.1041,0.0,1685829614.0
65,Kruisfontein,56.88,83.0,16.69,986717.0,ZA,24.7314,-34.0033,97.0,1685829753.0
66,Mwinilunga,57.18,52.0,3.31,902620.0,ZM,24.4293,-11.7358,23.0,1685829755.0
67,Port Alfred,57.18,82.0,4.0,964432.0,ZA,26.891,-33.5906,48.0,1685829757.0
68,Marzuq,79.3,56.0,5.73,72181.0,YE,46.4667,14.4,24.0,1685829759.0
69,Puerto Escondido,94.01,46.0,7.78,3520994.0,MX,-97.0667,15.85,2.0,1685829613.0
70,Sivaki,56.53,72.0,7.94,2016477.0,RU,126.75,52.6333,54.0,1685829764.0
71,Yellowknife,70.32,40.0,18.99,6185377.0,CA,-114.3525,62.456,100.0,1685829658.0
72,Canchungo,82.53,61.0,8.08,2373951.0,GW,-16.0333,12.0672,96.0,1685829768.0
73,Östersund,41.45,38.0,18.41,2685750.0,SE,14.6357,63.1792,100.0,1685829770.0
74,Fort Nelson,75.94,41.0,6.91,5955902.0,CA,-122.7002,58.8053,20.0,1685829772.0
75,Castelo Branco,64.04,70.0,4.05,2269514.0,PT,-7.4909,39.8222,8.0,1685829774.0
76,Black River,83.93,73.0,4.94,3491355.0,JM,-77.8487,18.0264,8.0,1685829777.0
77,Atuona,80.55,78.0,10.42,4020109.0,PF,-139.0333,-9.8,21.0,1685829677.0
78,Birao,83.35,57.0,6.91,240210.0,CF,22.7882,10.2849,69.0,1685829781.0
79,Ekhabi,37.45,94.0,3.6,2122614.0,RU,142.9671,53.5102,100.0,1685829783.0
80,Barrow,35.62,80.0,17.27,5880054.0,US,-156.7887,71.2906,0.0,1685829785.0
81,Hilo,79.34,80.0,4.0,5855927.0,US,-155.09,19.7297,66.0,1685829609.0
82,Mehamn,44.55,87.0,2.3,778707.0,NO,27.8492,71.0357,100.0,1685829789.0
83,Shingū,66.11,48.0,3.87,1847947.0,JP,135.9833,33.7333,3.0,1685829792.0
84,George Town,78.24,92.0,5.01,1735106.0,MY,100.3354,5.4112,40.0,1685829757.0
85,Russell,86.99,37.0,9.22,4047434.0,US,-85.1999,32.3502,0.0,1685829796.0
86,Sidhi,88.21,28.0,2.53,1256369.0,IN,81.8833,24.4167,3.0,1685829798.0
87,Laramie,57.07,62.0,10.36,5830062.0,US,-105.5911,41.3114,100.0,1685829540.0
88,Bluff,47.95,71.0,15.52,2206939.0,NZ,168.3333,-46.6,100.0,1685829802.0
89,Bayir,57.72,86.0,2.13,304183.0,TR,28.2167,37.2687,88.0,1685829804.0
90,Vila Velha,71.55,78.0,9.22,3445026.0,BR,-40.2925,-20.3297,40.0,1685829807.0
91,Kapaa,80.28,67.0,9.22,5848280.0,US,-159.319,22.0752,0.0,1685829809.0
92,Margate,53.96,81.0,8.01,2643044.0,GB,1.3862,51.3813,4.0,1685829811.0
93,Kamaishi,61.29,70.0,8.59,2112444.0,JP,141.8833,39.2667,9.0,1685829813.0
94,Stăncuţa,58.53,60.0,9.6,666309.0,RO,27.8333,44.9,24.0,1685829816.0
95,Ankang,61.41,99.0,2.21,1789065.0,CN,109.0172,32.68,100.0,1685829818.0
96,Port Elizabeth,58.32,75.0,11.01,964420.0,ZA,25.5701,-33.918,97.0,1685829820.0
97,Morant Bay,85.62,72.0,9.31,3489440.0,JM,-76.4093,17.8815,7.0,1685829822.0
98,São Miguel,78.24,77.0,15.03,3388304.0,BR,-35.3667,-5.4667,32.0,1685829824.0
99,Guerrero Negro,67.78,59.0,20.54,4021858.0,MX,-114.0611,27.9769,0.0,1685829826.0
100,Husavik,51.91,65.0,1.03,2629833.0,IS,-17.3389,66.0449,52.0,1685829828.0
101,Ahipara,57.81,76.0,4.43,2194098.0,NZ,173.1667,-35.1667,100.0,1685829830.0
102,Saint Paul Harbor,47.71,71.0,13.8,5866583.0,US,-152.4072,57.79,100.0,1685829833.0
103,Mahébourg,75.49,64.0,10.36,934322.0,MU,57.7,-20.4081,40.0,1685829668.0
104,Mount Isa,49.77,81.0,0.0,2065594.0,AU,139.5,-20.7333,1.0,1685829661.0
105,Te Anau,38.89,98.0,1.77,2181625.0,NZ,167.7167,-45.4167,100.0,1685829840.0
106,Alenquer,81.0,77.0,2.95,3407980.0,BR,-54.7383,-1.9417,47.0,1685829843.0
107,São Miguel do Araguaia,80.82,42.0,1.41,3448455.0,BR,-50.1628,-13.275,22.0,1685829637.0
108,Kriel,52.81,39.0,6.82,987202.0,ZA,29.2253,-26.2739,1.0,1685829847.0
109,Marsh Harbour,81.77,63.0,4.0,3571913.0,BS,-77.0636,26.5412,31.0,1685829849.0
110,Souillac,75.58,64.0,10.36,933995.0,MU,57.5167,-20.5167,40.0,1685829851.0
111,Tigil',51.85,56.0,12.71,2120612.0,RU,158.6667,57.8,6.0,1685829853.0
112,Kaeo,57.78,69.0,2.93,2189343.0,NZ,173.7833,-35.1,91.0,1685829855.0
113,Cape Town,52.83,86.0,8.05,3369157.0,ZA,18.4232,-33.9258,75.0,1685829858.0
114,Cidreira,66.54,72.0,4.92,3466165.0,BR,-50.2056,-30.1811,1.0,1685829860.0
115,Khatanga,34.77,96.0,20.04,2022572.0,RU,102.5,71.9667,100.0,1685829862.0
116,Karlshamn,50.49,74.0,6.55,2701727.0,SE,14.8619,56.1706,13.0,1685829864.0
117,Pevek,32.83,76.0,1.32,2122090.0,RU,170.3133,69.7008,23.0,1685829866.0
118,Mar del Plata,57.04,83.0,3.44,3430863.0,AR,-57.5575,-38.0023,0.0,1685829630.0
119,Gobabis,56.57,31.0,9.55,3357247.0,NA,18.9667,-22.45,0.0,1685829870.0
120,Gaoyou,69.13,52.0,7.25,1810309.0,CN,119.4278,32.7858,100.0,1685829872.0
121,Bethel,59.95,72.0,12.66,5282297.0,US,-73.414,41.3712,100.0,1685829874.0
122,Santa Maria da Vitória,76.03,41.0,4.18,3450063.0,BR,-44.1886,-13.3947,0.0,1685829782.0
123,Banda Aceh,80.44,77.0,12.77,1215502.0,ID,95.3222,5.5577,100.0,1685829879.0
124,Georgiyevka,66.24,48.0,6.71,1524243.0,KZ,74.7114,43.0369,40.0,1685829881.0
125,Zonguldak,57.94,98.0,0.83,737021.0,TR,31.8333,41.25,100.0,1685829726.0
126,Booué,73.44,97.0,1.41,2401495.0,GA,11.9385,-0.0921,100.0,1685829885.0
127,Siyabuswa,62.4,34.0,2.71,955313.0,ZA,29.0445,-25.1132,15.0,1685829887.0
128,Dunedin,42.62,97.0,5.7,2191562.0,NZ,170.5036,-45.8742,100.0,1685829636.0
129,Roald,45.72,81.0,3.44,3141667.0,NO,6.1333,62.5833,100.0,1685829891.0
130,Tweed,68.86,38.0,11.72,6170799.0,CA,-77.3162,44.4751,34.0,1685829894.0
131,Nanortalik,34.38,90.0,14.05,3421765.0,GL,-45.2371,60.1432,100.0,1685829896.0
132,Port Blair,82.44,83.0,5.75,1259385.0,IN,92.75,11.6667,75.0,1685829898.0
133,Lubango,61.18,50.0,3.8,3347762.0,AO,13.4925,-14.9172,1.0,1685829900.0
134,Shumskiy,57.15,84.0,3.24,1491977.0,RU,99.1328,54.8318,100.0,1685829902.0
135,San Cristobal,84.38,69.0,6.31,3628473.0,VE,-72.225,7.7669,50.0,1685829904.0
136,Nioro,84.15,47.0,10.0,2412408.0,GM,-15.75,13.35,95.0,1685829906.0
137,Thompson,77.16,69.0,3.44,6165406.0,CA,-97.8558,55.7435,100.0,1685829909.0
138,Manaus,82.89,78.0,5.75,3663517.0,BR,-60.025,-3.1019,75.0,1685829744.0
139,Laguna,91.09,33.0,6.91,5364271.0,US,-121.4238,38.421,0.0,1685829913.0
140,Hermanus,50.81,67.0,13.89,3366880.0,ZA,19.2345,-34.4187,99.0,1685829915.0
141,Westport,60.82,72.0,14.97,4845585.0,US,-73.3579,41.1415,100.0,1685829874.0
142,Dicabisagan,78.85,88.0,2.19,1715015.0,PH,122.4157,17.0818,100.0,1685829919.0
143,Newport,58.51,95.0,6.98,2641598.0,GB,-2.9984,51.5877,0.0,1685829641.0
144,Tateyama,69.55,69.0,11.92,1850523.0,JP,139.8667,34.9833,84.0,1685829924.0
145,Kuznechikha,42.89,94.0,9.93,537760.0,RU,42.3348,57.2161,100.0,1685829926.0
146,Poum,73.71,68.0,7.74,2138555.0,NC,164.0167,-20.2333,15.0,1685829928.0
147,Chokurdakh,49.93,53.0,2.86,2126123.0,RU,147.9167,70.6333,92.0,1685829930.0
148,Coquimbo,58.73,94.0,12.66,3893629.0,CL,-71.3436,-29.9533,0.0,1685829932.0
149,Ust-Nera,58.91,49.0,5.06,2120048.0,RU,143.2,64.5667,52.0,1685829934.0
150,Kavaratti,83.21,78.0,11.68,1267390.0,IN,72.642,10.5669,82.0,1685829936.0
151,Eruwa,75.22,90.0,6.96,2338669.0,NG,3.4167,7.5333,100.0,1685829938.0
152,Polyarny,42.85,62.0,12.8,506763.0,RU,33.4478,69.1989,78.0,1685829940.0
153,Ribeira Grande,65.77,87.0,1.01,3372707.0,PT,-28.7,38.5167,12.0,1685829943.0
154,Kalemie,70.83,71.0,2.57,214974.0,CD,29.1947,-5.9475,10.0,1685829945.0
155,Tuktoyaktuk,57.2,41.0,8.05,6170031.0,CA,-133.0374,69.4541,75.0,1685829947.0
156,Tomatlán,89.82,43.0,11.12,3981391.0,MX,-105.25,19.9333,0.0,1685829949.0
157,Bratca,55.31,92.0,4.63,683837.0,RO,22.6167,46.9333,2.0,1685829951.0
158,Chiang Khong,72.01,98.0,0.76,1611197.0,TH,100.4046,20.2613,92.0,1685829953.0
159,Gijang,58.73,62.0,5.68,1842966.0,KR,129.2139,35.2442,100.0,1685829955.0
160,Vao,71.56,65.0,17.45,2137773.0,NC,167.4833,-22.6667,97.0,1685829957.0
161,Marawi,71.08,88.0,1.36,1701054.0,PH,124.2928,7.9986,93.0,1685829960.0
162,Kununurra,58.98,100.0,0.0,2068110.0,AU,128.7333,-15.7667,23.0,1685829962.0
163,Ponta do Sol,68.43,80.0,1.45,2264557.0,PT,-17.1,32.6667,99.0,1685829964.0
164,Vanimo,78.4,87.0,4.56,2084442.0,PG,141.3028,-2.6741,97.0,1685829966.0
165,Kenai,51.53,62.0,3.44,5866063.0,US,-151.2583,60.5544,100.0,1685829955.0
166,Tarnogskiy Gorodok,43.54,91.0,9.53,484314.0,RU,43.5761,60.4997,100.0,1685829970.0
167,Tottori-shi,60.87,63.0,11.5,1849892.0,JP,134.2333,35.5,0.0,1685829972.0
168,Baracoa,84.24,69.0,4.76,3567834.0,CU,-74.4958,20.3467,47.0,1685829974.0
169,Krasnyy Kholm,36.54,87.0,7.58,541704.0,RU,37.1203,58.0607,15.0,1685829976.0
170,Nabire,76.28,93.0,2.62,1634614.0,ID,135.4833,-3.3667,82.0,1685829979.0
171,Zaysan,62.08,29.0,6.51,1517060.0,KZ,84.8667,47.4667,0.0,1685829981.0
172,New Norfolk,34.36,88.0,2.44,2155415.0,AU,147.0587,-42.7826,1.0,1685829983.0
173,Muhos,44.06,87.0,5.3,645765.0,FI,25.9931,64.808,100.0,1685829985.0
174,Sabzawār,73.27,46.0,5.41,118063.0,IR,57.6819,36.2126,13.0,1685829987.0
175,Catuday,79.18,84.0,6.53,1717787.0,PH,119.8062,16.2923,99.0,1685829989.0
176,Enshi,68.47,97.0,0.25,1811720.0,CN,109.4833,30.3,100.0,1685829991.0
177,Timiryazevskiy,66.07,77.0,1.23,1489597.0,RU,84.8769,56.49,98.0,1685829993.0
178,Aklavik,62.6,29.0,6.91,5882953.0,CA,-135.0107,68.2191,75.0,1685829996.0
179,Pochutla,91.81,52.0,8.55,3517970.0,MX,-96.4661,15.7432,53.0,1685829998.0
180,Bathsheba,83.01,83.0,6.91,3374083.0,BB,-59.5167,13.2167,40.0,1685830000.0
181,Salalah,82.83,81.0,7.96,286621.0,OM,54.0924,17.0151,5.0,1685830002.0
182,Airai,56.93,93.0,2.48,1651810.0,TL,125.4092,-8.9266,75.0,1685830004.0
183,Fuyang,65.89,80.0,12.1,1810845.0,CN,115.8167,32.9,100.0,1685829954.0
184,Makakilo City,79.77,58.0,10.36,5850554.0,US,-158.0858,21.3469,75.0,1685830008.0
185,Impfondo,73.89,88.0,2.17,2259655.0,CG,18.0667,1.6381,79.0,1685830010.0
186,Anloga,79.95,81.0,10.58,2304548.0,GH,0.8973,5.7947,98.0,1685830012.0
187,Chui,62.67,96.0,5.28,3443061.0,UY,-53.4616,-33.6971,100.0,1685830015.0
188,Nishihara,74.48,88.0,9.22,1855342.0,JP,127.7558,26.1842,20.0,1685830017.0
189,Bariloche,35.35,87.0,17.27,7647007.0,AR,-71.3082,-41.1456,75.0,1685829933.0
190,Kristianstad,51.94,62.0,6.91,2699310.0,SE,14.1524,56.0313,13.0,1685830021.0
191,Cabo San Lucas,82.72,54.0,6.91,3985710.0,MX,-109.9124,22.8909,0.0,1685829909.0
192,Hunchun,57.42,77.0,3.53,2036653.0,CN,130.3581,42.8675,85.0,1685830026.0
193,Aykhal,37.78,96.0,18.39,2027296.0,RU,111.5,66.0,83.0,1685830028.0
194,Nchelenge,69.37,62.0,3.8,175499.0,ZM,28.734,-9.3451,15.0,1685830030.0
195,Hobyo,82.11,83.0,23.71,57000.0,SO,48.5268,5.3505,94.0,1685829977.0
196,Pechenga,45.27,59.0,4.05,511865.0,RU,31.1703,69.5259,93.0,1685830035.0
197,Hambantota,80.94,100.0,10.36,1244926.0,LK,81.1185,6.1241,75.0,1685830037.0
198,Lompoc,65.98,76.0,9.22,5367788.0,US,-120.4579,34.6391,40.0,1685830012.0
199,Hasaki,66.4,57.0,4.97,2112802.0,JP,140.8333,35.7333,74.0,1685830041.0
200,Departamento de Maldonado,58.64,96.0,3.42,3441890.0,UY,-54.9167,-34.6667,100.0,1685829866.0
201,Naze,69.46,77.0,5.1,1855540.0,JP,129.4833,28.3667,97.0,1685830046.0
202,Nikolskoye,48.09,86.0,5.35,546105.0,RU,30.7861,59.7035,60.0,1685830048.0
203,Dul'durga,47.79,83.0,3.98,2024812.0,RU,113.5931,50.6761,89.0,1685830051.0
204,Leh,41.85,56.0,5.57,1264976.0,IN,77.5833,34.1667,42.0,1685830053.0
205,Lata,63.81,96.0,2.13,2738381.0,PT,-8.3327,40.1629,22.0,1685830055.0
206,Tiksi,37.35,87.0,3.49,2015306.0,RU,128.8694,71.6872,100.0,1685830057.0
207,Qaanaaq,25.72,84.0,2.95,3831208.0,GL,-69.3632,77.484,14.0,1685830059.0
208,Ilulissat,32.02,93.0,13.8,3423146.0,GL,-51.1,69.2167,100.0,1685830061.0
209,Saint-Augustin,41.54,60.0,14.52,6137462.0,CA,-58.6502,51.226,100.0,1685830064.0
210,Saskylakh,48.81,94.0,12.86,2017155.0,RU,114.0833,71.9167,100.0,1685830066.0
211,Tessalit,90.84,14.0,8.77,2449893.0,ML,1.0114,20.1986,1.0,1685830068.0
212,Rayong,83.77,79.0,3.4,1607016.0,TH,101.4333,12.8333,90.0,1685830070.0
213,Sur,89.29,51.0,12.44,286245.0,OM,59.5289,22.5667,0.0,1685830072.0
214,Bereket,83.71,35.0,5.44,161974.0,TM,55.5154,39.2446,11.0,1685830074.0
215,Staraya Kulatka,65.16,60.0,4.05,489164.0,RU,47.6167,52.7167,72.0,1685830076.0
216,Roswell,86.14,37.0,8.05,4219934.0,US,-84.3616,34.0232,0.0,1685829799.0
217,Santa Luzia,61.3,69.0,5.64,3450144.0,BR,-43.8514,-19.7697,0.0,1685830080.0
218,São Filipe,74.53,78.0,4.9,3374210.0,CV,-24.4956,14.8961,30.0,1685830083.0
219,San Luis,62.02,67.0,0.6,3837056.0,AR,-66.3356,-33.295,76.0,1685830085.0
220,Fairbanks,59.45,46.0,11.5,5861897.0,US,-147.7164,64.8378,100.0,1685829998.0
221,Sibolga,76.39,87.0,2.64,1213855.0,ID,98.7792,1.7427,100.0,1685830037.0
222,Pahrump,92.64,12.0,5.99,5509851.0,US,-115.9839,36.2083,3.0,1685830091.0
223,Narsaq,43.02,90.0,5.53,3421719.0,GL,-46.05,60.9167,92.0,1685830093.0
224,Hamilton,85.66,46.0,6.91,4513583.0,US,-84.5333,39.1834,75.0,1685830076.0
225,Fortuna,60.71,77.0,14.97,5563839.0,US,-124.1573,40.5982,20.0,1685830097.0
226,Ayan,42.55,86.0,2.82,2027316.0,RU,138.1667,56.45,56.0,1685830099.0
227,El Dorado,79.7,42.0,1.99,5345659.0,US,-120.5177,38.7666,7.0,1685830102.0
228,Leonidovo,40.44,95.0,3.04,2123805.0,RU,142.8667,49.2833,100.0,1685830104.0
229,Chicama,73.94,71.0,10.13,3698359.0,PE,-79.1469,-7.8447,19.0,1685830106.0
230,Umluj,91.31,39.0,8.23,100926.0,SA,37.2685,25.0213,10.0,1685830108.0
231,Acapulco de Juárez,87.62,62.0,13.8,3533462.0,MX,-99.8901,16.8634,20.0,1685829932.0
232,Santa Maria,65.5,82.0,4.45,3450083.0,BR,-53.8069,-29.6842,1.0,1685830073.0
233,Ubinskoye,67.41,68.0,1.7,1488708.0,RU,79.6802,55.3068,13.0,1685830114.0
234,Flinders,58.86,85.0,4.0,6255012.0,AU,150.8552,-34.5833,100.0,1685830116.0
235,Broome,73.56,46.0,11.5,5110365.0,US,-75.833,42.2506,75.0,1685830118.0
236,Mossamedes,66.6,72.0,9.35,3347019.0,AO,12.1522,-15.1961,3.0,1685830121.0
237,Orange Cove,90.3,25.0,6.91,5379533.0,US,-119.3137,36.6244,0.0,1685830123.0
238,Barra Patuca,87.78,64.0,9.98,3614835.0,HN,-84.2833,15.8,0.0,1685830125.0
239,Arlit,90.84,9.0,10.25,2447513.0,NE,7.3853,18.7369,7.0,1685830127.0
240,Chilia Veche,58.17,54.0,13.27,682117.0,RO,29.2833,45.4167,8.0,1685830129.0
241,Conde,74.97,81.0,9.75,3385077.0,BR,-34.9075,-7.2597,45.0,1685830131.0
242,Bulungu,75.24,74.0,0.47,2316259.0,CD,18.6,-4.55,90.0,1685830133.0
243,Baker City,76.84,34.0,5.75,5712169.0,US,-117.8344,44.7749,0.0,1685830135.0
244,Rājākhera,89.42,25.0,3.58,1258930.0,IN,78.1714,26.8961,43.0,1685830137.0
245,Portland,77.68,34.0,11.5,5746545.0,US,-122.6762,45.5234,20.0,1685830080.0
246,Birkeland,50.67,76.0,6.91,3161532.0,NO,8.2323,58.3309,9.0,1685830142.0
247,Dvinskoy Bereznik,43.57,94.0,7.11,577240.0,RU,42.7072,62.8551,100.0,1685830144.0
248,Jalingo,73.54,96.0,6.22,2336589.0,NG,11.3667,8.8833,100.0,1685830146.0
249,Yar-Sale,56.64,63.0,9.82,1486321.0,RU,70.8333,66.8333,99.0,1685830148.0
250,Tafresh,68.7,37.0,1.03,113636.0,IR,50.013,34.692,95.0,1685830150.0
251,Homer,53.6,58.0,18.01,5864145.0,US,-151.5483,59.6425,100.0,1685830152.0
252,Mandalgovi,50.72,52.0,9.26,2030065.0,MN,106.2708,45.7625,4.0,1685830154.0
253,Kibala,79.23,69.0,3.53,2425791.0,TD,18.3463,9.1104,65.0,1685830156.0
254,Ulladulla,54.77,85.0,6.82,2145554.0,AU,150.4667,-35.35,100.0,1685830159.0
255,Sitka,53.49,76.0,9.22,5557293.0,US,-135.33,57.0531,75.0,1685830161.0
256,Leningradskiy,28.08,84.0,3.18,2123814.0,RU,178.4167,69.3833,41.0,1685830163.0
257,Takāb,60.21,39.0,2.71,113508.0,IR,47.1133,36.4009,8.0,1685830165.0
258,Tarancón,60.39,63.0,7.07,3108317.0,ES,-3.0073,40.0085,26.0,1685830167.0
259,Goderich,76.91,60.0,15.39,5962442.0,CA,-81.7165,43.7501,7.0,1685830169.0
260,Rosa Zarate,82.36,84.0,6.11,3652257.0,EC,-79.4667,0.3333,57.0,1685830171.0
261,Luganville,79.27,85.0,15.26,2136150.0,VU,167.1667,-15.5333,100.0,1685830174.0
262,Druzhba,41.02,80.0,7.02,709584.0,UA,33.9453,52.0428,1.0,1685830176.0
263,Valea lui Mihai,62.31,71.0,7.25,663692.0,RO,22.15,47.5167,25.0,1685830178.0
264,Ancud,47.41,76.0,13.91,3899695.0,CL,-73.8203,-41.8697,50.0,1685830180.0
265,Matagami,75.0,18.0,5.61,6067747.0,CA,-77.6328,49.7502,7.0,1685830182.0
266,Peniche,63.48,88.0,13.0,2264923.0,PT,-9.3811,39.3558,2.0,1685830184.0
267,Miraflores,83.05,24.0,5.64,3761194.0,MX,-98.8083,19.2167,20.0,1685830186.0
268,Lebu,51.85,81.0,6.69,3883457.0,CL,-73.65,-37.6167,12.0,1685830189.0
269,Crawley,54.88,59.0,10.36,2652053.0,GB,-0.1831,51.113,0.0,1685830191.0
270,Khonsa,70.95,61.0,3.83,1266668.0,IN,95.5667,27.0167,41.0,1685830193.0
271,Yumen,58.24,57.0,10.0,1528998.0,CN,97.2,40.2833,100.0,1685830195.0
272,Bubaque,80.71,75.0,14.14,2374583.0,GW,-15.8333,11.2833,100.0,1685830197.0
273,Ribas do Rio Pardo,66.96,68.0,5.19,3451399.0,BR,-53.7592,-20.4431,0.0,1685830199.0
274,Malbork,44.62,68.0,6.08,3092472.0,PL,19.0266,54.0359,52.0,1685830201.0
275,Saint-Leu,68.22,85.0,0.83,6690297.0,RE,55.2833,-21.15,10.0,1685830203.0
276,Arkhara,48.72,79.0,3.44,2027487.0,RU,130.0842,49.4212,82.0,1685830205.0
277,Tura,76.35,69.0,5.7,1254046.0,IN,90.2201,25.5198,1.0,1685830208.0
278,Ingham,84.45,40.0,18.41,4997130.0,US,-84.3833,42.6,40.0,1685830210.0
279,Sarandi,60.58,87.0,5.19,3447998.0,BR,-51.8739,-23.4436,0.0,1685830060.0
280,Biak,76.28,87.0,5.97,1637001.0,ID,122.8766,-0.9131,50.0,1685830214.0
281,Nieuw Amsterdam,84.22,74.0,4.61,3383434.0,SR,-55.0833,5.8833,20.0,1685830216.0
282,Boundiali,79.14,72.0,5.55,2290836.0,CI,-6.4869,9.5217,100.0,1685830218.0
283,Aitape,79.5,83.0,3.98,2101169.0,PG,142.3475,-3.1374,99.0,1685830220.0
284,Manadhoo,82.98,78.0,21.27,1337618.0,MV,73.3833,5.7667,100.0,1685830223.0
285,Ca Mau,81.25,79.0,7.38,1586443.0,VN,105.15,9.1769,76.0,1685830225.0
286,San Patricio,88.52,51.0,11.43,4726521.0,US,-97.5169,28.017,6.0,1685830227.0
287,Portree,46.53,92.0,6.87,2640006.0,GB,-6.1942,57.4129,58.0,1685830229.0
288,Srednekolymsk,57.9,43.0,11.16,2121025.0,RU,153.6833,67.45,100.0,1685830231.0
289,Zhangaözen,77.79,42.0,4.52,607610.0,KZ,52.8,43.3,12.0,1685830233.0
290,Mayo,73.04,73.0,19.57,4362001.0,US,-76.5119,38.8876,20.0,1685830236.0
291,Hualmay,71.6,73.0,12.75,3939761.0,PE,-77.6139,-11.0964,32.0,1685830238.0
292,Púchov,52.21,81.0,3.29,3057963.0,SK,18.326,49.1249,34.0,1685830240.0
293,Hong Kong,84.87,84.0,4.0,1819729.0,HK,114.1577,22.2855,7.0,1685830215.0
294,Dzilam González,86.13,52.0,8.88,3529654.0,MX,-88.9333,21.2833,14.0,1685830244.0
295,Sistranda,42.76,80.0,13.82,3139597.0,NO,8.834,63.7256,100.0,1685830246.0
296,Ondjiva,64.45,35.0,3.94,3346821.0,AO,15.7333,-17.0667,0.0,1685830248.0
297,Taguatinga,80.22,41.0,4.52,6319623.0,BR,-46.5711,-12.3857,4.0,1685830250.0
298,Evensk,56.62,51.0,2.06,2125693.0,RU,159.2333,61.95,34.0,1685830252.0
299,Katsuura,69.31,72.0,10.78,2112309.0,JP,140.3,35.1333,58.0,1685830255.0
300,Ambovombe,68.86,71.0,5.7,1079048.0,MG,46.0833,-25.1667,1.0,1685830257.0
301,Pisco,73.45,68.0,17.27,3932145.0,PE,-76.2167,-13.7,0.0,1685830259.0
302,Lala,76.87,92.0,0.34,1707944.0,PH,123.7458,7.9745,99.0,1685830261.0
303,East London,63.01,68.0,18.72,1006984.0,ZA,27.9116,-33.0153,79.0,1685830263.0
304,Nyurba,54.1,91.0,7.09,2018735.0,RU,118.3319,63.2842,100.0,1685830265.0
305,Baykit,52.5,71.0,3.2,1510689.0,RU,96.37,61.67,2.0,1685830267.0
306,Muyezerskiy,33.98,85.0,1.97,524100.0,RU,31.65,63.9333,55.0,1685830270.0
307,Umarkot,85.57,68.0,17.72,1162959.0,PK,69.7362,25.3616,21.0,1685830272.0
308,Paamiut,33.75,88.0,8.12,3421193.0,GL,-49.6678,61.994,100.0,1685830274.0
309,Gberia Fotombu,73.78,95.0,5.35,2409019.0,SL,-11.1667,9.8833,78.0,1685830276.0
310,Auki,82.33,75.0,2.68,2109701.0,SB,160.7034,-8.7676,83.0,1685830278.0
311,Timmins,77.94,27.0,6.71,6166739.0,CA,-81.3331,48.4669,4.0,1685830162.0
312,Pachino,68.23,72.0,5.12,6539213.0,IT,15.0907,36.7186,54.0,1685830282.0
313,Arrondissement d'Arcachon,62.65,88.0,8.05,6621469.0,FR,-1.0519,44.5875,100.0,1685830285.0
314,Avera,86.86,37.0,9.51,4231997.0,US,-82.5271,33.194,81.0,1685830287.0
315,Bonthe,79.05,86.0,5.44,2409914.0,SL,-12.505,7.5264,100.0,1685830289.0
316,Songjianghe,49.59,91.0,5.1,2034691.0,CN,127.479,42.1859,40.0,1685830291.0
317,Salisbury,59.63,72.0,11.5,2638664.0,GB,-1.7957,51.0693,5.0,1685830293.0
318,Xi'an,58.39,96.0,2.55,1790630.0,CN,108.9286,34.2583,100.0,1685830295.0
319,Touros,79.0,76.0,15.1,3386213.0,BR,-35.4608,-5.1989,38.0,1685830297.0
320,Boda,73.11,87.0,3.15,2388614.0,CF,17.4695,4.3189,58.0,1685830300.0
321,Mayumba,73.69,90.0,6.26,2399001.0,GA,10.6554,-3.432,84.0,1685830302.0
322,Chul'man,56.28,60.0,3.65,2025261.0,RU,124.9104,56.8479,87.0,1685830304.0
323,Tambacounda,94.55,23.0,6.33,2244991.0,SN,-13.7586,13.7539,91.0,1685830306.0
324,Bushehr,80.69,74.0,4.61,139817.0,IR,50.8385,28.9684,0.0,1685830308.0
325,Port Hardy,60.98,48.0,10.36,6111862.0,CA,-127.4199,50.6996,75.0,1685830310.0
326,Shashi,68.2,67.0,9.19,1795816.0,CN,112.2447,30.3072,100.0,1685830312.0
327,Grand-Lahou,77.74,89.0,7.76,2288105.0,CI,-5.0242,5.1367,100.0,1685830314.0
328,State College,79.52,57.0,13.8,5213681.0,US,-77.86,40.7934,75.0,1685830024.0
329,Teguise,68.22,68.0,11.5,2510573.0,ES,-13.564,29.0605,20.0,1685830319.0
330,Magdagachi,59.04,57.0,5.28,2020591.0,RU,125.8,53.45,43.0,1685830321.0
331,Gaozhou,78.31,92.0,3.98,1810295.0,CN,110.8461,21.9392,3.0,1685830323.0
332,Meulaboh,76.75,88.0,3.51,1214488.0,ID,96.1285,4.1363,100.0,1685830325.0
333,Río Gallegos,40.69,83.0,8.39,3838859.0,AR,-69.2181,-51.6226,100.0,1685830094.0
334,Chaihe,52.79,79.0,4.56,2038198.0,CN,129.7,44.7667,87.0,1685830329.0
335,Nikel,44.78,54.0,1.45,522260.0,RU,30.222,69.4128,97.0,1685830331.0
336,Beringovskiy,43.75,77.0,4.09,2126710.0,RU,179.3167,63.05,42.0,1685830333.0
337,Coyhaique,35.55,100.0,6.91,3894426.0,CL,-72.0662,-45.5752,75.0,1685830336.0
338,Vardø,42.78,81.0,9.22,777019.0,NO,31.1107,70.3705,100.0,1685830338.0
339,Talnakh,42.21,77.0,2.24,1490256.0,RU,88.3972,69.4865,15.0,1685830340.0
340,Faya,64.92,55.0,5.5,110690.0,SA,42.4509,18.3851,96.0,1685830342.0
341,Znamenskoye,65.14,56.0,5.55,1485020.0,RU,73.8282,57.1281,1.0,1685830344.0
342,Manavgat,68.05,85.0,8.25,304854.0,TR,31.4431,36.7867,14.0,1685830346.0
343,Cairns,72.72,94.0,8.05,2172797.0,AU,145.7667,-16.9167,75.0,1685830348.0
344,Klaksvík,47.32,84.0,3.47,2618795.0,FO,-6.589,62.2266,11.0,1685830351.0
345,Fonte Boa,79.05,86.0,2.86,6319315.0,BR,-66.2662,-2.4959,40.0,1685830353.0
346,Piaçabuçu,75.2,90.0,8.3,3454005.0,BR,-36.4344,-10.4056,8.0,1685830355.0
347,Havøysund,44.83,90.0,13.76,779622.0,NO,24.6622,70.9963,97.0,1685830357.0
348,Boden,42.8,93.0,3.33,606531.0,SE,21.6886,65.8252,95.0,1685830359.0
349,Nhulunbuy,74.01,94.0,6.91,2064735.0,AU,136.7667,-12.2333,40.0,1685830361.0
350,Kamenka,52.7,96.0,11.18,553766.0,RU,42.7678,51.3223,47.0,1685830363.0
351,Kazachinskoye,58.35,66.0,3.42,1504075.0,RU,93.2761,57.6953,100.0,1685830337.0
352,Geraldton,50.41,71.0,14.97,2070998.0,AU,114.6,-28.7667,100.0,1685830233.0
353,Maxixe,73.2,79.0,12.44,1039536.0,MZ,35.3472,-23.8597,43.0,1685830370.0
354,Leon Valley,88.12,53.0,8.05,4705923.0,US,-98.6186,29.4952,0.0,1685830372.0
355,Nome,35.67,80.0,12.66,5870133.0,US,-165.4064,64.5011,100.0,1685830374.0
356,Manokwari,78.17,82.0,4.05,1636308.0,ID,134.0833,-0.8667,100.0,1685830376.0
357,Grand-Santi,75.43,95.0,2.98,3381538.0,GF,-54.3833,4.25,99.0,1685830378.0
358,Faanui,78.91,62.0,5.73,4034551.0,PF,-151.75,-16.4833,55.0,1685830380.0
359,Clyde River,25.03,93.0,14.97,5924351.0,CA,-68.5914,70.4692,20.0,1685830382.0
360,Kosa,53.74,97.0,5.01,544318.0,RU,54.9977,59.9445,13.0,1685830384.0
361,Blackwater,64.06,82.0,11.5,2175403.0,AU,148.8833,-23.5833,8.0,1685830294.0
362,Assiniboia,71.42,64.0,12.66,5887798.0,CA,-105.9845,49.6334,100.0,1685830263.0
363,Bambous Virieux,75.45,64.0,10.36,1106677.0,MU,57.7575,-20.3428,40.0,1685830391.0
364,Arona,64.51,73.0,4.61,2521582.0,ES,-16.681,28.0996,20.0,1685830164.0
365,Belyy Yar,62.49,63.0,4.47,1510377.0,RU,91.3903,53.6039,0.0,1685830395.0
366,San Miguel,87.4,79.0,4.61,3583446.0,SV,-88.1833,13.4833,40.0,1685830397.0
367,Maniitsoq,34.09,93.0,12.46,3421982.0,GL,-52.9,65.4167,99.0,1685830400.0
368,Freeport,62.8,68.0,13.8,5117949.0,US,-73.5832,40.6576,100.0,1685830358.0
369,Constitución,55.69,89.0,2.95,3893726.0,CL,-72.4167,-35.3333,100.0,1685830404.0
370,Tarakan,76.5,88.0,3.44,1624725.0,ID,117.6333,3.3,20.0,1685830406.0
371,Nirmal,90.95,33.0,7.74,1261288.0,IN,78.35,19.1,80.0,1685830408.0
372,Zmeinogorsk,58.08,79.0,3.47,1485042.0,RU,82.195,51.1567,59.0,1685830410.0
373,Valparaíso,61.03,78.0,13.8,3868626.0,CL,-71.6273,-33.0393,0.0,1685830412.0
374,Caravelas,72.7,68.0,8.79,3466980.0,BR,-39.2481,-17.7125,11.0,1685830414.0
375,Torbay,40.12,97.0,14.0,6167817.0,CA,-52.7314,47.6666,100.0,1685830417.0
376,Le Port,69.64,85.0,8.28,935616.0,RE,55.2919,-20.9373,15.0,1685830419.0
377,Kumul,71.6,22.0,5.68,1529484.0,CN,93.45,42.8,83.0,1685830284.0
378,Inverell,56.41,67.0,4.41,2162662.0,AU,151.1167,-29.7833,98.0,1685830291.0
379,Tortolì,66.02,94.0,4.61,2522890.0,IT,9.6572,39.9256,40.0,1685830425.0
380,Beipiao,67.05,30.0,3.49,2038342.0,CN,120.7792,41.7919,65.0,1685830427.0
381,Novo Aripuanã,80.35,82.0,2.24,3663142.0,BR,-60.3797,-5.1206,82.0,1685830429.0
382,Akdepe,73.49,18.0,8.5,601551.0,TM,59.3788,42.0551,0.0,1685830431.0
383,Pangnirtung,34.16,98.0,3.2,6096551.0,CA,-65.7125,66.1451,100.0,1685830433.0
384,Komatipoort,68.72,31.0,4.14,988290.0,ZA,31.9548,-25.4332,100.0,1685830436.0
385,Kailua,80.42,65.0,10.36,5847486.0,US,-157.7394,21.4022,0.0,1685830438.0
386,Massakory,87.91,49.0,9.73,2428228.0,TD,15.7293,12.996,100.0,1685830440.0
387,Byron Bay,58.71,89.0,8.05,2172880.0,AU,153.6167,-28.65,74.0,1685830298.0
388,Dawson Creek,76.64,29.0,6.91,5935804.0,CA,-120.2362,55.7666,20.0,1685830445.0
389,Port-Gentil,76.98,86.0,10.0,2396518.0,GA,8.7815,-0.7193,100.0,1685830373.0
390,Augusto Corrêa,76.28,94.0,4.7,3406961.0,BR,-46.635,-1.0217,100.0,1685830449.0
391,Araouane,91.2,17.0,10.4,2460954.0,ML,-3.5265,18.9048,0.0,1685830451.0
392,Coahuayana Viejo,89.2,48.0,8.08,4013679.0,MX,-103.6833,18.7333,0.0,1685830454.0
393,Mount Gambier,49.37,92.0,6.58,2156643.0,AU,140.7667,-37.8333,99.0,1685830242.0
394,Swan River,71.49,83.0,6.91,6160362.0,CA,-101.2676,52.1058,99.0,1685830458.0
395,Bima,71.35,95.0,4.23,1648759.0,ID,118.7167,-8.4667,34.0,1685830460.0
396,Cherskiy,46.18,53.0,7.34,2126199.0,RU,161.3,68.75,100.0,1685830462.0
397,Adrar,83.71,23.0,10.92,2381972.0,MR,-10.0711,20.5022,0.0,1685830464.0
398,Egvekinot,30.74,67.0,4.43,4031742.0,RU,-179.1667,66.3167,86.0,1685830466.0
399,Comodoro Rivadavia,53.46,32.0,9.22,3860443.0,AR,-67.5,-45.8667,0.0,1685830469.0
400,Volchikha,63.18,63.0,7.23,1486983.0,RU,80.3833,52.0333,15.0,1685830471.0
401,Paita,77.07,75.0,19.39,3694112.0,PE,-81.1144,-5.0892,10.0,1685830473.0
402,Calama,64.89,11.0,14.97,3897347.0,CL,-68.9333,-22.4667,0.0,1685830386.0
403,Abalak,68.14,76.0,7.85,1512223.0,RU,68.5944,58.1286,78.0,1685830477.0
404,Atar,87.82,22.0,7.34,2381334.0,MR,-13.0499,20.5169,0.0,1685830479.0
405,Venado Tuerto,67.77,81.0,6.49,3833062.0,AR,-61.9688,-33.7456,70.0,1685830481.0
406,Ostrovnoy,36.81,85.0,10.07,556268.0,RU,39.5131,68.0531,57.0,1685830483.0
407,Praia,73.94,73.0,12.66,3374333.0,CV,-23.5087,14.9215,75.0,1685830486.0
408,Campoverde,87.49,59.0,1.3,3733380.0,PE,-74.8058,-8.4753,67.0,1685830488.0
409,Peebles,51.91,56.0,1.01,2640526.0,GB,-3.1888,55.6519,75.0,1685830490.0
410,Ngunguru,56.44,69.0,6.26,2186111.0,NZ,174.5,-35.6167,64.0,1685830492.0
411,Haines Junction,64.35,27.0,8.05,5969025.0,CA,-137.5108,60.7522,7.0,1685830494.0
412,Chernyshevsk,54.88,45.0,2.01,2025458.0,RU,117.0174,52.5243,50.0,1685830496.0
413,Makiyivka,54.32,78.0,14.5,702320.0,UA,37.9258,48.0478,66.0,1685830250.0
414,Petropavlovsk-Kamchatskiy,41.59,87.0,6.71,2122104.0,RU,158.6483,53.0452,75.0,1685830500.0
415,Los Llanos de Aridane,65.12,91.0,2.3,2514651.0,ES,-17.9182,28.6585,100.0,1685830503.0
416,Nuevo Progreso,84.88,59.0,8.01,3522526.0,MX,-97.95,23.1667,80.0,1685830505.0
417,Norsup,80.17,80.0,17.11,2135517.0,VU,167.3833,-16.0667,97.0,1685830507.0
418,Yulara,52.0,72.0,9.06,6355222.0,AU,130.9889,-25.2406,75.0,1685830509.0
419,Hohhot,62.91,44.0,6.06,2036892.0,CN,111.6522,40.8106,97.0,1685830397.0
420,Bowen,70.77,82.0,9.82,2174444.0,AU,148.2333,-20.0167,58.0,1685830514.0
421,Smoky Lake,72.16,60.0,6.91,6150293.0,CA,-112.4686,54.1169,100.0,1685830516.0
422,Angoram,75.58,97.0,2.39,2100765.0,PG,144.0661,-4.0625,98.0,1685830518.0
423,Itarema,80.02,79.0,14.41,3393692.0,BR,-39.9167,-2.9248,77.0,1685830520.0
424,La Asuncion,89.33,62.0,14.97,3480908.0,VE,-63.8628,11.0333,92.0,1685830522.0
425,Berlevåg,44.55,81.0,5.75,780687.0,NO,29.0864,70.8578,75.0,1685830524.0
426,Ambilobe,70.18,79.0,5.14,1082243.0,MG,49.05,-13.2,0.0,1685830526.0
427,Teya,55.15,65.0,2.13,1489656.0,RU,92.6267,60.3778,32.0,1685830529.0
428,Máncora,84.18,61.0,16.08,3695000.0,PE,-81.0475,-4.1078,10.0,1685830531.0
429,Crotone,68.2,80.0,3.62,2524881.0,IT,17.1178,39.0851,30.0,1685830533.0
430,Sechura,80.1,65.0,18.81,3691954.0,PE,-80.8222,-5.5569,13.0,1685830535.0
431,Tarko-Sale,61.3,55.0,10.89,1490085.0,RU,77.785,64.9225,99.0,1685830537.0
432,Yerofey Pavlovich,59.54,50.0,3.44,2012938.0,RU,121.9667,53.9667,15.0,1685830539.0
433,Doha,87.78,45.0,3.44,290030.0,QA,51.5333,25.2867,0.0,1685830358.0
434,Palmer,52.41,71.0,14.97,4946620.0,US,-72.3287,42.1584,100.0,1685830354.0
435,Darhan,53.92,89.0,0.78,2031964.0,MN,105.9228,49.4867,100.0,1685830545.0
436,Rantauprapat,73.36,93.0,2.21,1214073.0,ID,99.8333,2.1,100.0,1685830548.0
437,Arroyo de la Encomienda,64.26,77.0,3.44,3129371.0,ES,-4.7969,41.6096,0.0,1685830550.0
438,Keetmanshoop,50.29,62.0,5.1,3356264.0,NA,18.1333,-26.5833,0.0,1685830552.0
439,Staryy Nadym,62.46,60.0,9.24,1490918.0,RU,72.6842,65.6118,94.0,1685830554.0
440,Beloha,67.77,59.0,5.21,1067565.0,MG,45.05,-25.1667,45.0,1685830556.0
441,Kelvington,79.75,56.0,10.47,5990669.0,CA,-103.5343,52.1667,99.0,1685830558.0
442,Munger,85.3,24.0,5.3,1262482.0,IN,86.4667,25.3833,0.0,1685830560.0
443,Grindavik,48.67,87.0,16.11,3416888.0,IS,-22.4338,63.8424,100.0,1685830562.0
444,Kangaatsiaq,31.64,95.0,14.43,3422683.0,GL,-53.4641,68.3065,100.0,1685830565.0
445,Omsukchan,58.68,49.0,1.72,2122493.0,RU,155.8,62.5333,74.0,1685830567.0
446,Quzhou,71.58,88.0,3.29,1797264.0,CN,118.8686,28.9594,53.0,1685830569.0
447,Neijiang,64.83,95.0,3.69,1799491.0,CN,105.0622,29.5835,100.0,1685830571.0
448,Bonavista,38.32,98.0,16.26,5905393.0,CA,-53.1147,48.6499,100.0,1685830573.0
449,Pauini,76.86,95.0,1.23,3662927.0,BR,-66.9764,-7.7136,46.0,1685830575.0
450,Poso,76.71,86.0,5.12,1630723.0,ID,120.7524,-1.3959,71.0,1685830577.0
451,Hervey Bay,69.04,81.0,8.48,2146219.0,AU,152.8535,-25.2986,5.0,1685830579.0
452,Gambēla,74.61,80.0,6.2,337405.0,ET,34.5833,8.25,97.0,1685830582.0
453,Hede,68.27,50.0,5.55,1808744.0,CN,120.2517,33.7681,100.0,1685830584.0
454,Alice Springs,62.15,48.0,16.11,2077895.0,AU,133.8833,-23.7,40.0,1685830586.0
455,Tazmalt,64.13,88.0,4.85,2477537.0,DZ,4.3989,36.3868,100.0,1685830588.0
456,Mangaratiba,68.09,84.0,3.29,3457991.0,BR,-44.0406,-22.9597,0.0,1685830590.0
457,Porto-Novo,80.42,80.0,7.83,2392087.0,BJ,2.6036,6.4965,91.0,1685830438.0
458,Sabha,89.2,20.0,19.86,2212775.0,LY,14.4283,27.0377,11.0,1685830595.0
459,Salinópolis,79.56,85.0,12.26,3389822.0,BR,-47.3561,-0.6136,97.0,1685830554.0
460,Riyadh,86.14,17.0,7.45,108410.0,SA,46.7219,24.6877,39.0,1685830572.0
461,Jönköping,51.51,66.0,5.75,2702979.0,SE,14.1562,57.7814,46.0,1685830601.0
462,Yatou,67.48,58.0,5.64,1786855.0,CN,122.3833,37.15,73.0,1685830603.0
463,Jaru,76.26,88.0,2.42,3925040.0,BR,-62.4664,-10.4389,25.0,1685830553.0
464,Yashan,77.23,98.0,2.15,1786867.0,CN,109.9419,22.1975,26.0,1685830607.0
465,Bamiantong,52.43,85.0,4.74,2038482.0,CN,130.5333,44.9333,98.0,1685830609.0
466,Boa Vista,83.73,68.0,3.98,3664980.0,BR,-60.6733,2.8197,78.0,1685830611.0
467,Barra do Bugres,81.21,54.0,3.4,3470718.0,BR,-57.1811,-15.0725,22.0,1685830552.0
468,Butembo,57.87,97.0,3.4,217562.0,CD,29.2833,0.15,70.0,1685830616.0
469,Talaya,61.61,42.0,4.59,2120769.0,RU,152.75,61.3833,24.0,1685830618.0
470,Vengurla,83.62,77.0,8.08,1253257.0,IN,73.6333,15.8667,63.0,1685830620.0
471,Maracaçumé,75.33,96.0,2.77,3395497.0,BR,-45.9592,-2.0428,100.0,1685830622.0
472,Nouadhibou,69.78,88.0,14.97,2377457.0,MR,-17.0347,20.931,1.0,1685830624.0
473,La Celia,72.99,90.0,2.55,3679542.0,CO,-76.0167,5.0433,43.0,1685830626.0
474,Lüderitz,54.18,87.0,1.07,3355672.0,NA,15.1594,-26.6481,1.0,1685830628.0
475,Carutapera,77.52,89.0,7.72,3402648.0,BR,-46.02,-1.195,100.0,1685830631.0
476,Yauya,60.8,34.0,1.79,3690733.0,PE,-77.3,-8.9833,30.0,1685830633.0
477,Port Said,70.36,81.0,8.59,358619.0,EG,32.2841,31.2565,4.0,1685830635.0
478,Sambava,73.49,77.0,10.45,1056899.0,MG,50.1667,-14.2667,39.0,1685830637.0
479,Kafanchan,72.1,88.0,1.12,2335713.0,NG,8.3,9.5833,53.0,1685830639.0
480,Neftçala,72.32,78.0,6.04,147425.0,AZ,49.2472,39.3742,3.0,1685830641.0
481,Yhú,64.29,80.0,5.26,3436595.0,PY,-55.9167,-25.05,6.0,1685830643.0
482,Necochea,54.16,70.0,6.76,3430443.0,AR,-58.7368,-38.5473,73.0,1685830646.0
483,Muros,62.44,92.0,2.68,3115824.0,ES,-9.0603,42.7762,82.0,1685830648.0
484,Linxia Chengguanzhen,50.11,79.0,3.89,1803331.0,CN,103.2064,35.6003,100.0,1685830650.0
485,Tripoli,72.86,67.0,20.07,2210247.0,LY,13.1875,32.8752,58.0,1685830652.0
486,Ixtapa,83.43,65.0,16.11,4004293.0,MX,-105.2,20.7,0.0,1685830654.0
487,Santiago del Estero,72.91,66.0,3.96,3835869.0,AR,-64.2615,-27.7951,71.0,1685830485.0
488,Uribia,86.11,68.0,15.19,3666409.0,CO,-72.266,11.7139,29.0,1685830658.0
489,Rome,72.95,41.0,13.8,5134295.0,US,-75.4557,43.2128,0.0,1685830660.0
490,Xuanzhou,68.27,72.0,5.79,1788081.0,CN,118.7553,30.9525,87.0,1685830662.0
491,Arrondissement de Muret,59.63,94.0,3.6,2991152.0,FR,1.25,43.3333,18.0,1685830665.0
492,Orlik,48.85,82.0,4.14,1496073.0,RU,99.825,52.5178,100.0,1685830667.0
493,Toyoake,64.24,56.0,6.6,1856057.0,JP,137.0137,35.0594,50.0,1685830669.0
494,Ibrā’,81.84,52.0,3.18,287832.0,OM,58.5334,22.6906,0.0,1685830671.0
495,Ayagoz,58.55,48.0,9.51,1525988.0,KZ,80.4392,47.9714,0.0,1685830673.0
496,Deputatsky,52.27,42.0,1.68,2028164.0,RU,139.9,69.3,18.0,1685830675.0
497,Moyale,68.22,79.0,4.94,186180.0,KE,39.0584,3.5167,82.0,1685830677.0
498,Gresik,76.91,86.0,0.81,1643776.0,ID,112.6561,-7.1539,10.0,1685830679.0
499,Tsushima,64.4,67.0,4.16,1849539.0,JP,136.7167,35.1667,70.0,1685830682.0
500,Boralday,58.86,63.0,6.71,1526384.0,KZ,76.8594,43.3578,75.0,1685830684.0
501,Mahina,82.17,57.0,5.75,4034307.0,PF,-149.489,-17.5065,20.0,1685830686.0
502,Ust-Maya,60.66,48.0,4.5,2013918.0,RU,134.5333,60.4167,20.0,1685830688.0
503,General Pico,60.06,70.0,3.27,3855075.0,AR,-63.7568,-35.6566,99.0,1685830690.0
504,Labuan,77.36,94.0,2.3,1733782.0,MY,115.2417,5.2767,40.0,1685830692.0
505,Saint Anthony,87.15,39.0,10.36,5044290.0,US,-93.218,45.0205,0.0,1685830694.0
506,Iqaluit,34.7,87.0,4.0,5983720.0,CA,-68.5145,63.7506,100.0,1685830697.0
507,Haapiti,81.72,70.0,6.53,4034438.0,PF,-149.8667,-17.5667,43.0,1685830699.0
508,Sarankhola,81.0,93.0,3.83,1185239.0,BD,89.7897,22.3082,4.0,1685830701.0
509,Odienné,74.07,92.0,7.81,2283016.0,CI,-7.5692,9.51,100.0,1685830703.0
510,Miles City,79.77,50.0,4.61,5666176.0,US,-105.8406,46.4083,0.0,1685830705.0
511,Daru,77.85,90.0,14.25,2098329.0,PG,143.2092,-9.0763,100.0,1685830707.0
512,Umm Kaddadah,87.33,41.0,10.02,364933.0,SD,26.6876,13.6017,82.0,1685830709.0
513,Skegness,51.03,86.0,11.23,2637762.0,GB,0.3363,53.1436,54.0,1685830712.0
514,Saint-François,62.04,88.0,3.44,2980080.0,FR,3.9054,46.4154,94.0,1685830714.0
515,Semey,65.12,63.0,5.88,1519422.0,KZ,80.2275,50.4111,7.0,1685830716.0
516,Esperance,55.8,73.0,6.89,2071860.0,AU,121.9,-33.8667,94.0,1685830718.0
517,Selkirk,88.27,51.0,1.99,6144054.0,CA,-96.8845,50.1436,71.0,1685830648.0
518,Mahajanga,75.2,63.0,11.92,1062663.0,MG,46.3167,-15.7167,35.0,1685830722.0
519,Ruwi,89.29,43.0,6.53,287286.0,OM,58.5507,23.5996,11.0,1685830724.0
520,Pucallpa,87.84,55.0,3.44,3693345.0,PE,-74.5539,-8.3791,20.0,1685830726.0
521,Ginda,57.67,45.0,8.21,1253628.0,IN,78.4932,30.6945,0.0,1685830729.0
522,Hare Bay,37.0,94.0,9.75,5970873.0,CA,-54.0148,48.8499,100.0,1685830731.0
523,Kabalo,75.69,52.0,4.45,215668.0,CD,26.9167,-6.05,54.0,1685830572.0
524,Cockburn Town,78.42,82.0,3.56,3576994.0,TC,-71.1419,21.4612,100.0,1685830735.0
525,Kolomyia,45.18,84.0,2.86,705392.0,UA,25.0403,48.5306,5.0,1685830737.0
526,Odawara,72.99,79.0,4.5,1854747.0,JP,139.1597,35.2556,63.0,1685830739.0
527,Santa Cruz de la Sierra,78.85,69.0,16.11,3904906.0,BO,-63.1667,-17.8,20.0,1685830741.0
528,Derzhavīnsk,72.23,31.0,8.97,1524606.0,KZ,66.3167,51.1,1.0,1685830743.0
529,Raduzhny,63.03,72.0,9.57,1540356.0,RU,77.475,62.0961,67.0,1685830745.0
530,Gulariyā,79.59,34.0,4.0,1283368.0,NP,81.3333,28.2333,1.0,1685830748.0
531,Oudtshoorn,50.36,82.0,1.03,967106.0,ZA,22.2014,-33.5907,100.0,1685830750.0
532,Ruteng,60.31,88.0,1.36,1629380.0,ID,120.4721,-8.6136,20.0,1685830752.0
533,Sokolac,54.57,98.0,1.07,3190385.0,BA,18.8017,43.9397,71.0,1685830754.0
534,Jieshi,80.28,86.0,7.94,1805857.0,CN,115.8257,22.8134,11.0,1685830756.0
535,Porto Velho,81.37,68.0,1.9,3662762.0,BR,-63.9039,-8.7619,84.0,1685830666.0
536,Olinda,78.78,76.0,11.23,3393536.0,BR,-34.8553,-8.0089,45.0,1685830760.0
537,Vallenar,67.41,39.0,2.71,3868633.0,CL,-70.7581,-28.5708,46.0,1685830763.0
538,Bud,88.7,39.0,9.24,4255151.0,US,-86.1758,39.447,88.0,1685830765.0
539,Dhārchula,64.62,44.0,7.96,1272864.0,IN,80.5333,29.85,1.0,1685830636.0
540,Mabaruma,78.39,90.0,4.45,3377301.0,GY,-59.7833,8.2,90.0,1685830769.0
541,Nemuro,46.04,87.0,3.15,2128975.0,JP,145.575,43.3236,5.0,1685830539.0
542,Caucayá,79.27,88.0,2.68,3671437.0,CO,-74.7819,-0.1934,83.0,1685830773.0
543,Vanderhoof,74.16,25.0,0.45,6173361.0,CA,-124.0198,54.0166,98.0,1685830775.0
544,Maravilha,63.61,83.0,3.22,3457809.0,BR,-53.1725,-26.7608,2.0,1685830777.0
545,Nanlong,62.91,97.0,4.29,1799908.0,CN,106.0631,31.3533,100.0,1685830779.0
546,Seryshevo,54.23,55.0,3.8,2016942.0,RU,128.3786,51.0933,39.0,1685830782.0
547,Les Cayes,80.42,85.0,8.39,3728097.0,HT,-73.75,18.2,98.0,1685830784.0
548,Lagoa,65.26,81.0,7.27,3372964.0,PT,-27.9833,39.05,18.0,1685830786.0
549,Pacifica,65.68,71.0,20.71,5380420.0,US,-122.4869,37.6138,40.0,1685830788.0
550,Northam,55.96,90.0,6.82,2641434.0,GB,-4.2167,51.0333,8.0,1685830790.0
551,Rio Grande,67.33,84.0,5.68,3451138.0,BR,-52.0986,-32.035,13.0,1685830792.0
552,Gejiu,59.09,94.0,4.14,1810240.0,CN,103.1635,23.306,86.0,1685830795.0
553,Opuwo,62.83,39.0,7.47,3354077.0,NA,13.84,-18.0607,0.0,1685830797.0
554,La Ronge,68.25,77.0,11.5,6050066.0,CA,-105.2842,55.1001,100.0,1685830799.0
555,Yazykovo,62.55,88.0,4.65,468483.0,RU,56.1353,55.2199,100.0,1685830801.0
556,Batticaloa,81.25,80.0,5.19,1250161.0,LK,81.6924,7.7102,88.0,1685830803.0
557,Khasan,58.84,70.0,8.03,2039557.0,RU,130.6434,42.4308,90.0,1685830805.0
558,Kattivākkam,87.08,84.0,16.42,1267433.0,IN,80.3167,13.2167,55.0,1685830807.0
559,Arrondissement de Saint-Denis,65.35,51.0,10.36,2980915.0,FR,2.3333,48.9167,0.0,1685830810.0
560,Ende,74.53,87.0,2.04,1644932.0,ID,121.6623,-8.8432,24.0,1685830812.0
561,Harlingen,88.75,75.0,17.27,4696233.0,US,-97.6961,26.1906,75.0,1685830814.0
562,Zhicheng,69.1,72.0,3.0,1784554.0,CN,111.5047,30.2956,100.0,1685830816.0
563,Havelock,75.29,82.0,14.97,4470244.0,US,-76.9013,34.8791,0.0,1685830818.0
564,Madimba,72.46,85.0,5.64,878141.0,TZ,40.3333,-10.4,1.0,1685830820.0
565,Pacific Grove,59.34,76.0,10.36,5380437.0,US,-121.9166,36.6177,0.0,1685830823.0
566,Esim,77.92,86.0,6.69,2303611.0,GH,-2.2405,4.8699,100.0,1685830825.0
567,Gorontalo,74.91,94.0,2.17,1643837.0,ID,123.0595,0.5412,45.0,1685830827.0
568,Vaitape,78.94,62.0,5.79,4033077.0,PF,-151.75,-16.5167,57.0,1685830829.0
569,Ottawa,68.34,30.0,11.5,6094817.0,CA,-75.6981,45.4112,40.0,1685830598.0
570,Petropavl,68.7,43.0,5.77,1520172.0,KZ,69.1628,54.8753,0.0,1685830833.0
571,Bossangoa,71.98,97.0,4.05,2388036.0,CF,17.4552,6.4926,98.0,1685830835.0
572,Lavrentiya,32.59,87.0,3.76,4031637.0,RU,-171.0,65.5833,51.0,1685830838.0
573,Muskegon,79.86,59.0,8.05,5003136.0,US,-86.1334,43.3,100.0,1685830840.0
574,Lālmohan,84.22,84.0,9.46,1185251.0,BD,90.7419,22.3384,15.0,1685830842.0
575,Gainesville,82.67,63.0,9.22,4156404.0,US,-82.3248,29.6516,40.0,1685830798.0
