,City,Temp_max,Humidity,wind_speed,city_id,country_code,long,lat,Cloudiness,datetime
0,Flin Flon,58.84,82.0,4.61,5954718.0,CA,-101.865,54.7682,0.0,1685541604.0
1,Severo-Kuril'sk,40.26,93.0,5.28,2121385.0,RU,156.125,50.6789,100.0,1685541607.0
2,Codrington,57.09,88.0,16.69,2171099.0,AU,141.9667,-38.2667,99.0,1685541611.0
3,Bredasdorp,60.64,88.0,10.36,1015776.0,ZA,20.0403,-34.5322,100.0,1685541504.0
4,Kindersley,60.82,63.0,8.05,5992154.0,CA,-109.1682,51.4668,0.0,1685541620.0
5,Kavieng,83.26,79.0,11.72,2094342.0,PG,150.7967,-2.5744,23.0,1685541631.0
6,Brae,48.92,84.0,13.38,2654970.0,GB,-1.353,60.3964,99.0,1685541634.0
7,Hithadhoo,83.71,76.0,12.5,1282256.0,MV,73.0833,-0.6,100.0,1685541636.0
8,Ponta Delgada,65.12,88.0,14.97,3372783.0,PT,-25.6667,37.7333,40.0,1685541638.0
9,Kaitangata,45.23,90.0,4.25,2208248.0,NZ,169.8464,-46.2817,89.0,1685541640.0
10,Neiafu,77.68,83.0,6.91,4032420.0,TO,-173.9833,-18.65,20.0,1685541642.0
11,Busselton,59.61,88.0,16.93,2075265.0,AU,115.3333,-33.65,90.0,1685541644.0
12,Kudahuvadhoo,83.3,76.0,15.99,1337607.0,MV,72.8944,2.6708,100.0,1685541647.0
13,Port Macquarie,49.89,65.0,2.44,2152659.0,AU,152.9167,-31.4333,100.0,1685541649.0
14,Jamestown,65.93,63.0,0.0,5122534.0,US,-79.2353,42.097,20.0,1685541603.0
15,Nantucket,56.84,88.0,9.22,4944903.0,US,-70.0995,41.2835,0.0,1685541472.0
16,São João da Barra,71.69,74.0,6.91,3448903.0,BR,-41.0511,-21.6403,100.0,1685541655.0
17,Castlebar,68.77,46.0,7.34,2965654.0,IE,-9.3,53.85,6.0,1685541657.0
18,Katobu,73.9,96.0,4.12,1640972.0,ID,122.5276,-4.9408,38.0,1685541660.0
19,Port Lincoln,59.65,92.0,8.12,2063036.0,AU,135.8667,-34.7333,0.0,1685541529.0
20,Padampur,84.0,51.0,10.67,1260938.0,IN,73.6167,29.6833,57.0,1685541664.0
21,Cayenne,86.04,70.0,6.91,3382160.0,GF,-52.3333,4.9333,75.0,1685541667.0
22,Norman Wells,48.24,93.0,5.75,6089245.0,CA,-126.8329,65.282,75.0,1685541392.0
23,Upernavik,32.97,99.0,5.14,3418910.0,GL,-56.1549,72.7868,100.0,1685541671.0
24,Ushuaia,44.26,65.0,4.61,3833367.0,AR,-68.3,-54.8,20.0,1685541422.0
25,Tasiilaq,39.36,98.0,2.42,3424607.0,GL,-37.6368,65.6145,100.0,1685541675.0
26,Thunder Bay,57.11,77.0,4.61,6166142.0,CA,-89.3168,48.4001,75.0,1685541487.0
27,Provideniya,37.71,78.0,4.7,4031574.0,RU,-173.3,64.3833,90.0,1685541680.0
28,Cap Malheureux,74.46,68.0,13.71,934649.0,MU,57.6142,-19.9842,0.0,1685541682.0
29,West Wendover,56.41,58.0,3.44,5710035.0,US,-114.0733,40.7391,0.0,1685541684.0
30,Tautira,75.67,75.0,19.89,4033557.0,PF,-149.15,-17.7333,99.0,1685541686.0
31,Avarua,66.25,68.0,2.3,4035715.0,CK,-159.775,-21.2078,8.0,1685541688.0
32,Punta Arenas,41.11,81.0,4.61,3874787.0,CL,-70.9167,-53.15,0.0,1685541524.0
33,Ozernovskiy,39.22,97.0,2.46,2122293.0,RU,156.5167,51.5,100.0,1685541693.0
34,Aksu,79.48,16.0,4.61,1529660.0,CN,80.2644,41.1231,37.0,1685541697.0
35,Arrondissement d'Ajaccio,64.38,78.0,5.75,3038333.0,FR,8.9167,42.0,100.0,1685541699.0
36,Cabedelo,83.07,73.0,12.12,3404558.0,BR,-34.8339,-6.9811,39.0,1685541698.0
37,Dikson,32.5,96.0,4.99,1507390.0,RU,80.5464,73.5069,82.0,1685541703.0
38,Hobart,52.83,70.0,14.97,2163355.0,AU,147.3294,-42.8794,20.0,1685541618.0
39,Vestmannaeyjar,47.39,87.0,17.27,3412093.0,IS,-20.2734,63.4427,75.0,1685541708.0
40,Alofi,64.29,94.0,1.14,4036284.0,NU,-169.9187,-19.0595,95.0,1685541710.0
41,Carnarvon,71.55,71.0,9.98,2074865.0,AU,113.6333,-24.8667,0.0,1685541712.0
42,Saint-Philippe,74.79,79.0,8.46,935215.0,RE,55.7679,-21.3585,53.0,1685541714.0
43,Cabra,75.96,34.0,7.52,2520645.0,ES,-4.4421,37.4725,18.0,1685541716.0
44,Feldbach,72.18,61.0,2.21,2779685.0,AT,15.8883,46.9531,90.0,1685541719.0
45,Tual,82.26,82.0,19.91,1623197.0,ID,132.75,-5.6667,74.0,1685541721.0
46,Longyearbyen,35.44,80.0,0.0,2729907.0,SJ,15.6401,78.2186,75.0,1685541681.0
47,Dukat,45.97,70.0,4.23,2125906.0,RU,155.55,62.55,100.0,1685541725.0
48,Jalu,103.03,11.0,11.41,86049.0,LY,21.5482,29.0331,41.0,1685541727.0
49,Vaini,75.36,88.0,6.91,4032243.0,TO,-175.2,-21.2,20.0,1685541730.0
50,Albany,67.84,54.0,1.01,5106841.0,US,-73.9662,42.6001,2.0,1685541552.0
51,Karaton,75.49,87.0,1.68,1630058.0,ID,106.1045,-6.3424,61.0,1685541734.0
52,Saldanha,66.25,87.0,4.65,3361934.0,ZA,17.9442,-33.0117,95.0,1685541736.0
53,Castro,59.9,86.0,1.72,3466704.0,BR,-50.0119,-24.7911,97.0,1685541674.0
54,Inhambane,80.01,61.0,14.0,1045114.0,MZ,35.3833,-23.865,40.0,1685541741.0
55,Mataura,44.65,92.0,4.56,6201424.0,NZ,168.8643,-46.1927,61.0,1685541743.0
56,Puerto Ayora,76.55,98.0,10.0,3652764.0,EC,-90.3518,-0.7393,71.0,1685541745.0
57,Arraial do Cabo,71.46,88.0,12.66,3471451.0,BR,-42.0278,-22.9661,75.0,1685541749.0
58,Obihiro,47.43,71.0,4.61,2128815.0,JP,143.2044,42.9172,1.0,1685541751.0
59,Penzance,58.23,72.0,12.66,2640377.0,GB,-5.5371,50.1186,75.0,1685541753.0
60,Butaritari,83.07,75.0,8.43,2110227.0,KI,172.7902,3.0707,97.0,1685541755.0
61,Rikitea,76.64,87.0,26.96,4030556.0,PF,-134.9692,-23.1203,100.0,1685541757.0
62,Namatanai,79.83,85.0,7.96,2090021.0,PG,152.4333,-3.6667,84.0,1685541760.0
63,Isangel,74.12,75.0,9.15,2136825.0,VU,169.2667,-19.55,100.0,1685541762.0
64,Saint George,61.39,25.0,6.91,5546220.0,US,-113.5841,37.1041,0.0,1685541492.0
65,Kruisfontein,63.88,78.0,9.62,986717.0,ZA,24.7314,-34.0033,94.0,1685541766.0
66,Mwinilunga,82.67,29.0,5.7,902620.0,ZM,24.4293,-11.7358,100.0,1685541768.0
67,Port Alfred,63.18,77.0,3.0,964432.0,ZA,26.891,-33.5906,95.0,1685541770.0
68,Marzuq,86.68,38.0,13.65,72181.0,YE,46.4667,14.4,36.0,1685541772.0
69,Puerto Escondido,84.52,69.0,5.1,3520994.0,MX,-97.0667,15.85,18.0,1685541774.0
70,Sivaki,48.81,70.0,3.78,2016477.0,RU,126.75,52.6333,55.0,1685541777.0
71,Yellowknife,54.12,62.0,6.91,6185377.0,CA,-114.3525,62.456,75.0,1685541489.0
72,Canchungo,87.93,54.0,11.5,2373951.0,GW,-16.0333,12.0672,100.0,1685541781.0
73,Östersund,46.85,36.0,19.57,2685750.0,SE,14.6357,63.1792,40.0,1685541649.0
74,Fort Nelson,47.95,65.0,3.0,5955902.0,CA,-122.7002,58.8053,75.0,1685541623.0
75,Castelo Branco,78.01,51.0,5.53,2269514.0,PT,-7.4909,39.8222,75.0,1685541788.0
76,Black River,83.41,75.0,12.75,3491355.0,JM,-77.8487,18.0264,100.0,1685541790.0
77,Atuona,80.31,77.0,13.58,4020109.0,PF,-139.0333,-9.8,7.0,1685541792.0
78,Birao,99.61,25.0,2.71,240210.0,CF,22.7882,10.2849,91.0,1685541795.0
79,Ekhabi,34.97,98.0,9.35,2122614.0,RU,142.9671,53.5102,100.0,1685541797.0
80,Barrow,30.22,93.0,8.05,5880054.0,US,-156.7887,71.2906,100.0,1685541799.0
81,Hilo,68.56,91.0,4.0,5855927.0,US,-155.09,19.7297,100.0,1685541801.0
82,Mehamn,40.95,100.0,12.66,778707.0,NO,27.8492,71.0357,100.0,1685541804.0
83,Shingū,59.76,96.0,2.62,1847947.0,JP,135.9833,33.7333,0.0,1685541612.0
84,George Town,88.84,68.0,6.91,1735106.0,MY,100.3354,5.4112,20.0,1685541516.0
85,Russell,72.28,78.0,10.36,4047434.0,US,-85.1999,32.3502,100.0,1685541614.0
86,Sidhi,97.43,15.0,8.37,1256369.0,IN,81.8833,24.4167,63.0,1685541812.0
87,Laramie,54.41,57.0,1.99,5830062.0,US,-105.5911,41.3114,0.0,1685541604.0
88,Bluff,50.83,87.0,12.15,2206939.0,NZ,168.3333,-46.6,54.0,1685541816.0
89,Bayir,72.12,61.0,5.26,304183.0,TR,28.2167,37.2687,100.0,1685541819.0
90,Vila Velha,71.94,89.0,5.75,3445026.0,BR,-40.2925,-20.3297,75.0,1685541821.0
91,Kapaa,70.11,90.0,11.1,5848280.0,US,-159.319,22.0752,8.0,1685541823.0
92,Margate,56.14,78.0,11.01,2643044.0,GB,1.3862,51.3813,0.0,1685541745.0
93,Kamaishi,54.03,86.0,7.47,2112444.0,JP,141.8833,39.2667,25.0,1685541827.0
94,Stăncuţa,79.52,33.0,11.1,666309.0,RO,27.8333,44.9,60.0,1685541829.0
95,Ankang,69.15,93.0,3.33,1789065.0,CN,109.0172,32.68,100.0,1685541831.0
96,Port Elizabeth,64.0,82.0,10.36,964420.0,ZA,25.5701,-33.918,20.0,1685541833.0
97,Morant Bay,83.82,81.0,11.21,3489440.0,JM,-76.4093,17.8815,100.0,1685541836.0
98,São Miguel,83.17,65.0,13.35,3388304.0,BR,-35.3667,-5.4667,22.0,1685541838.0
99,Guerrero Negro,59.81,71.0,18.9,4021858.0,MX,-114.0611,27.9769,93.0,1685541722.0
100,Husavik,52.79,57.0,2.53,2629833.0,IS,-17.3389,66.0449,11.0,1685541842.0
101,Ahipara,57.25,91.0,6.67,2194098.0,NZ,173.1667,-35.1667,59.0,1685541844.0
102,Saint Paul Harbor,42.31,87.0,5.75,5866583.0,US,-152.4072,57.79,100.0,1685541846.0
103,Mahébourg,73.69,73.0,3.44,934322.0,MU,57.7,-20.4081,20.0,1685541854.0
104,Mount Isa,44.37,61.0,5.75,2065594.0,AU,139.5,-20.7333,0.0,1685541662.0
105,Te Anau,52.23,94.0,5.84,2181625.0,NZ,167.7167,-45.4167,100.0,1685541858.0
106,Alenquer,84.88,65.0,6.98,3407980.0,BR,-54.7383,-1.9417,13.0,1685541860.0
107,São Miguel do Araguaia,89.44,42.0,1.59,3448455.0,BR,-50.1628,-13.275,36.0,1685541862.0
108,Kriel,64.81,64.0,11.54,987202.0,ZA,29.2253,-26.2739,57.0,1685541865.0
109,Marsh Harbour,79.48,75.0,11.3,3571913.0,BS,-77.0636,26.5412,100.0,1685541867.0
110,Souillac,73.78,73.0,3.44,933995.0,MU,57.5167,-20.5167,20.0,1685541669.0
111,Tigil',49.66,64.0,20.62,2120612.0,RU,158.6667,57.8,100.0,1685541871.0
112,Kaeo,52.72,90.0,4.16,2189343.0,NZ,173.7833,-35.1,29.0,1685541873.0
113,Cape Town,62.08,87.0,11.5,3369157.0,ZA,18.4232,-33.9258,75.0,1685541875.0
114,Cidreira,68.32,62.0,4.27,3466165.0,BR,-50.2056,-30.1811,0.0,1685541877.0
115,Khatanga,47.03,62.0,8.03,2022572.0,RU,102.5,71.9667,100.0,1685541880.0
116,Karlshamn,75.69,37.0,13.91,2701727.0,SE,14.8619,56.1706,10.0,1685541882.0
117,Pevek,26.67,91.0,9.13,2122090.0,RU,170.3133,69.7008,100.0,1685541884.0
118,Mar del Plata,58.33,87.0,8.05,3430863.0,AR,-57.5575,-38.0023,100.0,1685541609.0
119,Gobabis,75.51,10.0,9.13,3357247.0,NA,18.9667,-22.45,0.0,1685541888.0
120,Gaoyou,70.66,85.0,8.23,1810309.0,CN,119.4278,32.7858,97.0,1685541890.0
121,Bethel,64.13,57.0,1.01,5282297.0,US,-73.414,41.3712,0.0,1685541602.0
122,Santa Maria da Vitória,85.98,39.0,6.42,3450063.0,BR,-44.1886,-13.3947,0.0,1685541895.0
123,Banda Aceh,80.85,76.0,13.04,1215502.0,ID,95.3222,5.5577,100.0,1685541897.0
124,Georgiyevka,82.44,23.0,15.66,1524243.0,KZ,74.7114,43.0369,0.0,1685541899.0
125,Zonguldak,67.05,63.0,6.02,737021.0,TR,31.8333,41.25,99.0,1685541901.0
126,Booué,76.95,93.0,3.62,2401495.0,GA,11.9385,-0.0921,100.0,1685541903.0
127,Siyabuswa,73.08,47.0,12.48,955313.0,ZA,29.0445,-25.1132,87.0,1685541906.0
128,Dunedin,46.76,86.0,4.12,2191562.0,NZ,170.5036,-45.8742,17.0,1685541652.0
129,Roald,49.1,87.0,6.91,3141667.0,NO,6.1333,62.5833,75.0,1685541910.0
130,Tweed,77.81,59.0,3.22,6170799.0,CA,-77.3162,44.4751,1.0,1685541712.0
131,Nanortalik,39.04,98.0,15.05,3421765.0,GL,-45.2371,60.1432,100.0,1685541915.0
132,Port Blair,82.44,78.0,4.61,1259385.0,IN,92.75,11.6667,40.0,1685541917.0
133,Lubango,77.81,23.0,5.77,3347762.0,AO,13.4925,-14.9172,0.0,1685541619.0
134,Shumskiy,50.88,95.0,4.97,1491977.0,RU,99.1328,54.8318,98.0,1685541921.0
135,San Cristobal,75.38,77.0,4.45,3628473.0,VE,-72.225,7.7669,100.0,1685541923.0
136,Nioro,92.17,40.0,7.56,2412408.0,GM,-15.75,13.35,100.0,1685541925.0
137,Thompson,44.76,100.0,6.91,6165406.0,CA,-97.8558,55.7435,100.0,1685541927.0
138,Manaus,84.69,74.0,2.3,3663517.0,BR,-60.025,-3.1019,40.0,1685541911.0
139,Laguna,54.32,83.0,9.22,5364271.0,US,-121.4238,38.421,0.0,1685541933.0
140,Hermanus,61.81,87.0,6.11,3366880.0,ZA,19.2345,-34.4187,100.0,1685541935.0
141,Westport,62.47,70.0,4.0,4845585.0,US,-73.3579,41.1415,1.0,1685541937.0
142,Dicabisagan,81.77,73.0,6.31,1715015.0,PH,122.4157,17.0818,88.0,1685541939.0
143,Newport,63.59,72.0,15.88,2641598.0,GB,-2.9984,51.5877,100.0,1685541941.0
144,Tateyama,64.94,81.0,6.24,1850523.0,JP,139.8667,34.9833,50.0,1685541943.0
145,Kuznechikha,61.88,66.0,6.73,537760.0,RU,42.3348,57.2161,100.0,1685541946.0
146,Poum,73.56,70.0,12.66,2138555.0,NC,164.0167,-20.2333,72.0,1685541948.0
147,Chokurdakh,26.37,86.0,5.64,2126123.0,RU,147.9167,70.6333,64.0,1685541950.0
148,Coquimbo,56.93,67.0,8.05,3893629.0,CL,-71.3436,-29.9533,0.0,1685541674.0
149,Ust-Nera,50.2,71.0,7.72,2120048.0,RU,143.2,64.5667,4.0,1685541954.0
150,Kavaratti,86.32,69.0,4.54,1267390.0,IN,72.642,10.5669,100.0,1685541956.0
151,Eruwa,90.19,55.0,9.22,2338669.0,NG,3.4167,7.5333,87.0,1685541958.0
152,Polyarny,44.29,86.0,8.59,506763.0,RU,33.4478,69.1989,100.0,1685541960.0
153,Ribeira Grande,72.0,64.0,9.22,3372707.0,PT,-28.7,38.5167,20.0,1685541963.0
154,Kalemie,80.08,52.0,7.4,214974.0,CD,29.1947,-5.9475,0.0,1685541965.0
155,Tuktoyaktuk,37.4,93.0,8.05,6170031.0,CA,-133.0374,69.4541,75.0,1685541967.0
156,Tomatlán,77.45,68.0,1.66,3981391.0,MX,-105.25,19.9333,1.0,1685541969.0
157,Bratca,70.25,66.0,3.2,683837.0,RO,22.6167,46.9333,40.0,1685541971.0
158,Chiang Khong,88.25,50.0,3.89,1611197.0,TH,100.4046,20.2613,92.0,1685541973.0
159,Gijang,64.13,71.0,7.09,1842966.0,KR,129.2139,35.2442,50.0,1685541975.0
160,Vao,71.17,69.0,19.48,2137773.0,NC,167.4833,-22.6667,84.0,1685541978.0
161,Marawi,71.24,87.0,6.51,1701054.0,PH,124.2928,7.9986,100.0,1685541980.0
162,Kununurra,53.58,82.0,0.0,2068110.0,AU,128.7333,-15.7667,53.0,1685541982.0
163,Ponta do Sol,67.62,88.0,12.64,2264557.0,PT,-17.1,32.6667,88.0,1685541984.0
164,Vanimo,79.65,85.0,1.45,2084442.0,PG,141.3028,-2.6741,27.0,1685541986.0
165,Kenai,38.14,96.0,8.1,5866063.0,US,-151.2583,60.5544,72.0,1685541816.0
166,Tarnogskiy Gorodok,65.25,57.0,5.99,484314.0,RU,43.5761,60.4997,77.0,1685541990.0
167,Tottori-shi,58.28,62.0,6.04,1849892.0,JP,134.2333,35.5,50.0,1685541862.0
168,Baracoa,80.69,81.0,2.06,3567834.0,CU,-74.4958,20.3467,100.0,1685541995.0
169,Krasnyy Kholm,60.96,42.0,9.93,541704.0,RU,37.1203,58.0607,10.0,1685541997.0
170,Nabire,78.08,91.0,2.93,1634614.0,ID,135.4833,-3.3667,100.0,1685541999.0
171,Zaysan,57.56,51.0,8.77,1517060.0,KZ,84.8667,47.4667,9.0,1685541712.0
172,New Norfolk,49.55,61.0,5.99,2155415.0,AU,147.0587,-42.7826,59.0,1685542003.0
173,Muhos,55.18,39.0,10.98,645765.0,FI,25.9931,64.808,18.0,1685542005.0
174,Sabzawār,95.52,8.0,7.63,118063.0,IR,57.6819,36.2126,53.0,1685542007.0
175,Catuday,82.74,78.0,13.56,1717787.0,PH,119.8062,16.2923,100.0,1685542010.0
176,Enshi,74.8,91.0,1.41,1811720.0,CN,109.4833,30.3,100.0,1685542012.0
177,Timiryazevskiy,74.35,41.0,3.91,1489597.0,RU,84.8769,56.49,14.0,1685542014.0
178,Aklavik,44.85,76.0,7.81,5882953.0,CA,-135.0107,68.2191,46.0,1685542016.0
179,Pochutla,76.82,61.0,2.3,3517970.0,MX,-96.4661,15.7432,7.0,1685542018.0
180,Bathsheba,86.61,79.0,12.66,3374083.0,BB,-59.5167,13.2167,75.0,1685542025.0
181,Salalah,87.89,79.0,12.66,286621.0,OM,54.0924,17.0151,20.0,1685542028.0
182,Airai,56.43,90.0,2.71,1651810.0,TL,125.4092,-8.9266,93.0,1685542030.0
183,Fuyang,74.46,62.0,5.23,1810845.0,CN,115.8167,32.9,100.0,1685542032.0
184,Makakilo City,70.97,78.0,5.75,5850554.0,US,-158.0858,21.3469,0.0,1685542034.0
185,Impfondo,82.29,68.0,2.55,2259655.0,CG,18.0667,1.6381,86.0,1685542036.0
186,Anloga,85.14,71.0,13.31,2304548.0,GH,0.8973,5.7947,87.0,1685542038.0
187,Chui,63.95,74.0,3.15,3443061.0,UY,-53.4616,-33.6971,57.0,1685542046.0
188,Nishihara,79.88,89.0,29.93,1855342.0,JP,127.7558,26.1842,75.0,1685542049.0
189,Bariloche,47.95,76.0,21.85,7647007.0,AR,-71.3082,-41.1456,40.0,1685541771.0
190,Kristianstad,71.74,43.0,17.27,2699310.0,SE,14.1524,56.0313,0.0,1685542053.0
191,Cabo San Lucas,70.86,61.0,10.36,3985710.0,MX,-109.9124,22.8909,0.0,1685542060.0
192,Hunchun,53.08,80.0,2.1,2036653.0,CN,130.3581,42.8675,98.0,1685542062.0
193,Aykhal,39.76,58.0,7.25,2027296.0,RU,111.5,66.0,7.0,1685542065.0
194,Nchelenge,79.95,45.0,7.25,175499.0,ZM,28.734,-9.3451,10.0,1685542067.0
195,Hobyo,84.43,72.0,25.17,57000.0,SO,48.5268,5.3505,32.0,1685542069.0
196,Pechenga,46.38,83.0,3.76,511865.0,RU,31.1703,69.5259,100.0,1685542071.0
197,Hambantota,82.74,89.0,9.22,1244926.0,LK,81.1185,6.1241,40.0,1685542073.0
198,Lompoc,54.1,83.0,13.0,5367788.0,US,-120.4579,34.6391,100.0,1685542075.0
199,Hasaki,63.0,79.0,4.72,2112802.0,JP,140.8333,35.7333,5.0,1685542077.0
200,Departamento de Maldonado,57.09,60.0,4.25,3441890.0,UY,-54.9167,-34.6667,100.0,1685542046.0
201,Naze,74.1,92.0,13.4,1855540.0,JP,129.4833,28.3667,100.0,1685542082.0
202,Nikolskoye,58.5,47.0,11.34,546105.0,RU,30.7861,59.7035,97.0,1685542084.0
203,Dul'durga,53.08,50.0,6.17,2024812.0,RU,113.5931,50.6761,99.0,1685542086.0
204,Leh,53.56,45.0,7.07,1264976.0,IN,77.5833,34.1667,100.0,1685542088.0
205,Lata,72.91,73.0,6.89,2738381.0,PT,-8.3327,40.1629,78.0,1685542090.0
206,Tiksi,26.44,87.0,5.7,2015306.0,RU,128.8694,71.6872,99.0,1685542093.0
207,Qaanaaq,18.46,69.0,6.98,3831208.0,GL,-69.3632,77.484,3.0,1685542095.0
208,Ilulissat,39.22,87.0,4.61,3423146.0,GL,-51.1,69.2167,75.0,1685542097.0
209,Saint-Augustin,53.53,66.0,7.61,6137462.0,CA,-58.6502,51.226,99.0,1685542099.0
210,Saskylakh,36.5,85.0,7.11,2017155.0,RU,114.0833,71.9167,99.0,1685542101.0
211,Tessalit,100.02,7.0,17.81,2449893.0,ML,1.0114,20.1986,100.0,1685542103.0
212,Rayong,85.78,81.0,4.94,1607016.0,TH,101.4333,12.8333,65.0,1685541978.0
213,Sur,97.48,44.0,9.13,286245.0,OM,59.5289,22.5667,5.0,1685542108.0
214,Bereket,101.28,5.0,12.5,161974.0,TM,55.5154,39.2446,72.0,1685542110.0
215,Staraya Kulatka,72.88,63.0,13.29,489164.0,RU,47.6167,52.7167,16.0,1685542112.0
216,Roswell,67.28,86.0,11.5,4219934.0,US,-84.3616,34.0232,100.0,1685542114.0
217,Santa Luzia,72.5,51.0,3.42,3450144.0,BR,-43.8514,-19.7697,100.0,1685542116.0
218,São Filipe,76.8,68.0,11.45,3374210.0,CV,-24.4956,14.8961,73.0,1685542119.0
219,San Luis,63.1,48.0,7.87,3837056.0,AR,-66.3356,-33.295,0.0,1685541983.0
220,Fairbanks,43.79,89.0,6.91,5861897.0,US,-147.7164,64.8378,40.0,1685542123.0
221,Sibolga,78.33,86.0,2.35,1213855.0,ID,98.7792,1.7427,80.0,1685542125.0
222,Pahrump,61.27,39.0,1.99,5509851.0,US,-115.9839,36.2083,70.0,1685542127.0
223,Narsaq,43.02,99.0,1.59,3421719.0,GL,-46.05,60.9167,100.0,1685542129.0
224,Hamilton,75.81,66.0,8.05,4513583.0,US,-84.5333,39.1834,0.0,1685542131.0
225,Fortuna,50.14,92.0,5.75,5563839.0,US,-124.1573,40.5982,100.0,1685542133.0
226,Ayan,39.15,99.0,11.21,2027316.0,RU,138.1667,56.45,100.0,1685542135.0
227,El Dorado,52.43,84.0,1.01,5345659.0,US,-120.5177,38.7666,51.0,1685542138.0
228,Leonidovo,41.13,85.0,6.08,2123805.0,RU,142.8667,49.2833,100.0,1685542140.0
229,Chicama,72.14,73.0,6.13,3698359.0,PE,-79.1469,-7.8447,24.0,1685542142.0
230,Umluj,86.18,46.0,11.21,100926.0,SA,37.2685,25.0213,0.0,1685542144.0
231,Acapulco de Juárez,85.82,70.0,3.44,3533462.0,MX,-99.8901,16.8634,0.0,1685542146.0
232,Santa Maria,67.01,66.0,0.65,3450083.0,BR,-53.8069,-29.6842,29.0,1685542150.0
233,Ubinskoye,68.14,49.0,2.8,1488708.0,RU,79.6802,55.3068,11.0,1685542152.0
234,Flinders,65.71,62.0,8.99,6255012.0,AU,150.8552,-34.5833,100.0,1685542154.0
235,Broome,71.13,50.0,5.75,5110365.0,US,-75.833,42.2506,0.0,1685542156.0
236,Mossamedes,72.91,59.0,8.03,3347019.0,AO,12.1522,-15.1961,1.0,1685542159.0
237,Orange Cove,59.65,90.0,8.05,5379533.0,US,-119.3137,36.6244,100.0,1685542161.0
238,Barra Patuca,82.83,70.0,7.58,3614835.0,HN,-84.2833,15.8,90.0,1685542163.0
239,Arlit,108.25,7.0,14.27,2447513.0,NE,7.3853,18.7369,7.0,1685542165.0
240,Chilia Veche,77.76,36.0,10.29,682117.0,RO,29.2833,45.4167,74.0,1685542167.0
241,Conde,85.46,66.0,6.91,3385077.0,BR,-34.9075,-7.2597,75.0,1685542125.0
242,Bulungu,86.0,57.0,2.66,2316259.0,CD,18.6,-4.55,73.0,1685542045.0
243,Baker City,52.48,56.0,4.61,5712169.0,US,-117.8344,44.7749,75.0,1685541886.0
244,Rājākhera,94.41,27.0,6.17,1258930.0,IN,78.1714,26.8961,1.0,1685542176.0
245,Portland,48.16,80.0,5.01,5746545.0,US,-122.6762,45.5234,75.0,1685542029.0
246,Birkeland,65.75,37.0,11.5,3161532.0,NO,8.2323,58.3309,0.0,1685542180.0
247,Dvinskoy Bereznik,63.86,38.0,4.97,577240.0,RU,42.7072,62.8551,71.0,1685542182.0
248,Jalingo,101.79,31.0,4.09,2336589.0,NG,11.3667,8.8833,36.0,1685542184.0
249,Yar-Sale,60.26,65.0,13.27,1486321.0,RU,70.8333,66.8333,100.0,1685542187.0
250,Tafresh,68.02,48.0,3.44,113636.0,IR,50.013,34.692,100.0,1685542189.0
251,Homer,35.65,93.0,3.44,5864145.0,US,-151.5483,59.6425,0.0,1685542191.0
252,Mandalgovi,43.38,82.0,12.95,2030065.0,MN,106.2708,45.7625,100.0,1685542193.0
253,Kibala,97.41,33.0,6.33,2425791.0,TD,18.3463,9.1104,65.0,1685542195.0
254,Ulladulla,53.76,60.0,8.41,2145554.0,AU,150.4667,-35.35,100.0,1685542197.0
255,Sitka,44.49,81.0,6.91,5557293.0,US,-135.33,57.0531,75.0,1685542199.0
256,Leningradskiy,27.68,96.0,8.48,2123814.0,RU,178.4167,69.3833,100.0,1685542202.0
257,Takāb,69.89,38.0,18.88,113508.0,IR,47.1133,36.4009,27.0,1685542204.0
258,Tarancón,69.96,41.0,3.24,3108317.0,ES,-3.0073,40.0085,67.0,1685542206.0
259,Goderich,71.91,70.0,10.22,5962442.0,CA,-81.7165,43.7501,3.0,1685542209.0
260,Rosa Zarate,78.85,89.0,1.48,3652257.0,EC,-79.4667,0.3333,87.0,1685542211.0
261,Luganville,78.31,85.0,10.54,2136150.0,VU,167.1667,-15.5333,100.0,1685542213.0
262,Druzhba,63.37,42.0,11.27,709584.0,UA,33.9453,52.0428,3.0,1685542215.0
263,Valea lui Mihai,78.51,49.0,8.59,663692.0,RO,22.15,47.5167,29.0,1685542218.0
264,Ancud,52.25,88.0,7.18,3899695.0,CL,-73.8203,-41.8697,92.0,1685542220.0
265,Matagami,78.69,41.0,8.7,6067747.0,CA,-77.6328,49.7502,42.0,1685542222.0
266,Peniche,69.53,77.0,10.94,2264923.0,PT,-9.3811,39.3558,2.0,1685542224.0
267,Miraflores,61.83,59.0,3.13,3761194.0,MX,-98.8083,19.2167,5.0,1685542226.0
268,Lebu,55.02,92.0,8.63,3883457.0,CL,-73.65,-37.6167,99.0,1685542229.0
269,Crawley,65.5,58.0,14.97,2652053.0,GB,-0.1831,51.113,20.0,1685542231.0
270,Khonsa,73.9,71.0,3.67,1266668.0,IN,95.5667,27.0167,0.0,1685542233.0
271,Yumen,65.3,15.0,9.35,1528998.0,CN,97.2,40.2833,90.0,1685542235.0
272,Bubaque,81.99,82.0,12.26,2374583.0,GW,-15.8333,11.2833,100.0,1685542237.0
273,Ribas do Rio Pardo,72.25,77.0,2.17,3451399.0,BR,-53.7592,-20.4431,35.0,1685542240.0
274,Malbork,74.5,39.0,6.93,3092472.0,PL,19.0266,54.0359,12.0,1685542242.0
275,Saint-Leu,72.79,92.0,10.67,6690297.0,RE,55.2833,-21.15,15.0,1685542244.0
276,Arkhara,44.22,96.0,4.94,2027487.0,RU,130.0842,49.4212,0.0,1685542246.0
277,Tura,82.85,47.0,3.15,1254046.0,IN,90.2201,25.5198,6.0,1685542248.0
278,Ingham,78.24,61.0,8.05,4997130.0,US,-84.3833,42.6,0.0,1685542250.0
279,Sarandi,65.43,85.0,3.74,3447998.0,BR,-51.8739,-23.4436,83.0,1685542253.0
280,Biak,77.04,87.0,7.09,1637001.0,ID,122.8766,-0.9131,100.0,1685542255.0
281,Nieuw Amsterdam,86.49,77.0,5.75,3383434.0,SR,-55.0833,5.8833,40.0,1685542258.0
282,Boundiali,98.74,33.0,4.07,2290836.0,CI,-6.4869,9.5217,98.0,1685542260.0
283,Aitape,79.97,86.0,2.24,2101169.0,PG,142.3475,-3.1374,87.0,1685542262.0
284,Manadhoo,84.16,76.0,9.73,1337618.0,MV,73.3833,5.7667,98.0,1685542264.0
285,Ca Mau,81.16,84.0,5.01,1586443.0,VN,105.15,9.1769,100.0,1685542266.0
286,San Patricio,80.29,71.0,8.34,4726521.0,US,-97.5169,28.017,3.0,1685542268.0
287,Portree,62.53,66.0,10.45,2640006.0,GB,-6.1942,57.4129,11.0,1685542270.0
288,Srednekolymsk,39.69,75.0,12.77,2121025.0,RU,153.6833,67.45,100.0,1685542273.0
289,Zhangaözen,95.22,7.0,13.76,607610.0,KZ,52.8,43.3,71.0,1685542275.0
290,Mayo,63.81,76.0,8.05,4362001.0,US,-76.5119,38.8876,0.0,1685542277.0
291,Hualmay,69.51,77.0,6.35,3939761.0,PE,-77.6139,-11.0964,54.0,1685542279.0
292,Púchov,75.88,36.0,7.27,3057963.0,SK,18.326,49.1249,18.0,1685542282.0
293,Hong Kong,88.84,86.0,3.91,1819729.0,HK,114.1577,22.2855,74.0,1685542234.0
294,Dzilam González,82.96,59.0,3.85,3529654.0,MX,-88.9333,21.2833,0.0,1685542286.0
295,Sistranda,44.56,80.0,19.82,3139597.0,NO,8.834,63.7256,100.0,1685542289.0
296,Ondjiva,87.03,20.0,6.42,3346821.0,AO,15.7333,-17.0667,0.0,1685542291.0
297,Taguatinga,88.16,35.0,6.67,6319623.0,BR,-46.5711,-12.3857,23.0,1685542293.0
298,Evensk,47.28,84.0,7.85,2125693.0,RU,159.2333,61.95,100.0,1685542295.0
299,Katsuura,65.17,79.0,5.5,2112309.0,JP,140.3,35.1333,37.0,1685542297.0
300,Ambovombe,71.92,71.0,13.42,1079048.0,MG,46.0833,-25.1667,96.0,1685542299.0
301,Pisco,68.05,73.0,0.0,3932145.0,PE,-76.2167,-13.7,100.0,1685542301.0
302,Lala,77.27,93.0,1.54,1707944.0,PH,123.7458,7.9745,100.0,1685542303.0
303,East London,63.54,77.0,8.05,1006984.0,ZA,27.9116,-33.0153,0.0,1685542306.0
304,Nyurba,45.36,65.0,6.4,2018735.0,RU,118.3319,63.2842,100.0,1685542308.0
305,Baykit,60.19,49.0,2.13,1510689.0,RU,96.37,61.67,11.0,1685542310.0
306,Muyezerskiy,46.74,87.0,10.49,524100.0,RU,31.65,63.9333,99.0,1685542312.0
307,Umarkot,95.68,36.0,22.32,1162959.0,PK,69.7362,25.3616,9.0,1685542314.0
308,Paamiut,38.43,87.0,32.23,3421193.0,GL,-49.6678,61.994,100.0,1685542316.0
309,Gberia Fotombu,85.33,66.0,3.94,2409019.0,SL,-11.1667,9.8833,100.0,1685542318.0
310,Auki,78.78,87.0,4.18,2109701.0,SB,160.7034,-8.7676,100.0,1685542320.0
311,Timmins,75.61,47.0,6.42,6166739.0,CA,-81.3331,48.4669,77.0,1685542303.0
312,Pachino,71.15,68.0,11.43,6539213.0,IT,15.0907,36.7186,53.0,1685542325.0
313,Arrondissement d'Arcachon,75.29,53.0,11.5,6621469.0,FR,-1.0519,44.5875,0.0,1685542327.0
314,Avera,71.76,87.0,10.78,4231997.0,US,-82.5271,33.194,100.0,1685542329.0
315,Bonthe,84.94,71.0,11.23,2409914.0,SL,-12.505,7.5264,91.0,1685542331.0
316,Songjianghe,55.47,64.0,7.0,2034691.0,CN,127.479,42.1859,100.0,1685542333.0
317,Salisbury,66.49,58.0,16.11,2638664.0,GB,-1.7957,51.0693,20.0,1685542336.0
318,Xi'an,61.32,91.0,3.18,1790630.0,CN,108.9286,34.2583,63.0,1685542205.0
319,Touros,85.62,62.0,12.95,3386213.0,BR,-35.4608,-5.1989,22.0,1685542340.0
320,Boda,88.23,49.0,3.76,2388614.0,CF,17.4695,4.3189,89.0,1685542343.0
321,Mayumba,77.95,83.0,9.31,2399001.0,GA,10.6554,-3.432,49.0,1685542345.0
322,Chul'man,46.45,77.0,5.77,2025261.0,RU,124.9104,56.8479,100.0,1685542347.0
323,Tambacounda,98.65,39.0,4.61,2244991.0,SN,-13.7586,13.7539,0.0,1685542349.0
324,Bushehr,89.08,58.0,8.97,139817.0,IR,50.8385,28.9684,99.0,1685542351.0
325,Port Hardy,42.98,100.0,3.44,6111862.0,CA,-127.4199,50.6996,75.0,1685542354.0
326,Shashi,75.99,73.0,6.6,1795816.0,CN,112.2447,30.3072,83.0,1685542314.0
327,Grand-Lahou,84.79,69.0,8.08,2288105.0,CI,-5.0242,5.1367,100.0,1685542358.0
328,State College,68.74,49.0,1.99,5213681.0,US,-77.86,40.7934,0.0,1685542074.0
329,Teguise,70.02,73.0,5.75,2510573.0,ES,-13.564,29.0605,40.0,1685542362.0
330,Magdagachi,46.76,82.0,5.23,2020591.0,RU,125.8,53.45,18.0,1685542364.0
331,Gaozhou,82.89,79.0,2.15,1810295.0,CN,110.8461,21.9392,67.0,1685542366.0
332,Meulaboh,78.26,84.0,2.26,1214488.0,ID,96.1285,4.1363,100.0,1685542368.0
333,Río Gallegos,39.25,81.0,8.05,3838859.0,AR,-69.2181,-51.6226,0.0,1685542370.0
334,Chaihe,60.01,49.0,2.13,2038198.0,CN,129.7,44.7667,100.0,1685542373.0
335,Nikel,48.38,77.0,2.91,522260.0,RU,30.222,69.4128,99.0,1685542375.0
336,Beringovskiy,43.54,64.0,11.1,2126710.0,RU,179.3167,63.05,11.0,1685542377.0
337,Coyhaique,51.75,66.0,6.91,3894426.0,CL,-72.0662,-45.5752,75.0,1685542379.0
338,Vardø,44.58,93.0,5.75,777019.0,NO,31.1107,70.3705,100.0,1685542381.0
339,Talnakh,48.54,84.0,10.76,1490256.0,RU,88.3972,69.4865,99.0,1685542383.0
340,Faya,61.32,72.0,6.8,110690.0,SA,42.4509,18.3851,97.0,1685542385.0
341,Znamenskoye,72.52,52.0,1.72,1485020.0,RU,73.8282,57.1281,20.0,1685542387.0
342,Manavgat,71.35,70.0,4.03,304854.0,TR,31.4431,36.7867,100.0,1685542389.0
343,Cairns,70.32,86.0,10.36,2172797.0,AU,145.7667,-16.9167,75.0,1685542392.0
344,Klaksvík,49.12,83.0,16.53,2618795.0,FO,-6.589,62.2266,27.0,1685542394.0
345,Fonte Boa,84.83,67.0,4.29,6319315.0,BR,-66.2662,-2.4959,21.0,1685542396.0
346,Piaçabuçu,80.71,80.0,10.33,3454005.0,BR,-36.4344,-10.4056,16.0,1685542357.0
347,Havøysund,39.43,96.0,2.08,779622.0,NO,24.6622,70.9963,100.0,1685542400.0
348,Boden,57.2,33.0,17.22,606531.0,SE,21.6886,65.8252,80.0,1685542403.0
349,Nhulunbuy,75.81,78.0,6.91,2064735.0,AU,136.7667,-12.2333,40.0,1685542405.0
350,Kamenka,59.77,87.0,5.1,553766.0,RU,42.7678,51.3223,100.0,1685542407.0
351,Kazachinskoye,57.87,74.0,3.42,1504075.0,RU,93.2761,57.6953,39.0,1685542409.0
352,Geraldton,63.01,94.0,5.75,2070998.0,AU,114.6,-28.7667,40.0,1685542411.0
353,Maxixe,75.27,65.0,8.3,1039536.0,MZ,35.3472,-23.8597,36.0,1685542414.0
354,Leon Valley,73.63,87.0,11.5,4705923.0,US,-98.6186,29.4952,40.0,1685542352.0
355,Nome,30.27,80.0,10.36,5870133.0,US,-165.4064,64.5011,0.0,1685542418.0
356,Manokwari,79.63,83.0,3.18,1636308.0,ID,134.0833,-0.8667,30.0,1685542420.0
357,Grand-Santi,85.86,57.0,4.27,3381538.0,GF,-54.3833,4.25,22.0,1685542422.0
358,Faanui,77.74,74.0,21.41,4034551.0,PF,-151.75,-16.4833,100.0,1685542424.0
359,Clyde River,25.03,86.0,19.57,5924351.0,CA,-68.5914,70.4692,40.0,1685542426.0
360,Kosa,60.15,96.0,4.76,544318.0,RU,54.9977,59.9445,100.0,1685542429.0
361,Blackwater,56.71,63.0,6.93,2175403.0,AU,148.8833,-23.5833,100.0,1685542431.0
362,Assiniboia,67.82,60.0,2.3,5887798.0,CA,-105.9845,49.6334,51.0,1685542401.0
363,Bambous Virieux,73.65,73.0,3.44,1106677.0,MU,57.7575,-20.3428,20.0,1685542435.0
364,Arona,69.33,82.0,10.36,2521582.0,ES,-16.681,28.0996,20.0,1685542174.0
365,Belyy Yar,60.69,59.0,0.0,1510377.0,RU,91.3903,53.6039,0.0,1685542439.0
366,San Miguel,82.92,69.0,1.95,3583446.0,SV,-88.1833,13.4833,32.0,1685542441.0
367,Maniitsoq,36.36,97.0,31.34,3421982.0,GL,-52.9,65.4167,100.0,1685542443.0
368,Freeport,63.12,67.0,3.0,5117949.0,US,-73.5832,40.6576,0.0,1685542223.0
369,Constitución,59.16,66.0,3.47,3893726.0,CL,-72.4167,-35.3333,60.0,1685542448.0
370,Tarakan,84.2,80.0,10.63,1624725.0,ID,117.6333,3.3,97.0,1685542450.0
371,Nirmal,98.55,18.0,5.53,1261288.0,IN,78.35,19.1,91.0,1685542452.0
372,Zmeinogorsk,58.23,64.0,10.69,1485042.0,RU,82.195,51.1567,16.0,1685542454.0
373,Valparaíso,63.95,54.0,10.36,3868626.0,CL,-71.6273,-33.0393,0.0,1685542255.0
374,Caravelas,78.66,63.0,6.55,3466980.0,BR,-39.2481,-17.7125,89.0,1685542458.0
375,Torbay,46.96,75.0,10.36,6167817.0,CA,-52.7314,47.6666,100.0,1685542461.0
376,Le Port,72.27,94.0,3.49,935616.0,RE,55.2919,-20.9373,23.0,1685542452.0
377,Kumul,71.13,13.0,12.86,1529484.0,CN,93.45,42.8,0.0,1685542465.0
378,Inverell,46.72,84.0,2.86,2162662.0,AU,151.1167,-29.7833,78.0,1685542467.0
379,Tortolì,71.42,73.0,16.11,2522890.0,IT,9.6572,39.9256,20.0,1685542378.0
380,Beipiao,69.84,44.0,8.61,2038342.0,CN,120.7792,41.7919,38.0,1685542472.0
381,Novo Aripuanã,87.19,60.0,3.49,3663142.0,BR,-60.3797,-5.1206,38.0,1685542305.0
382,Akdepe,96.22,5.0,10.78,601551.0,TM,59.3788,42.0551,98.0,1685542476.0
383,Pangnirtung,30.2,93.0,9.22,6096551.0,CA,-65.7125,66.1451,100.0,1685542478.0
384,Komatipoort,76.05,41.0,8.52,988290.0,ZA,31.9548,-25.4332,68.0,1685542480.0
385,Kailua,73.35,87.0,11.36,5847486.0,US,-157.7394,21.4022,32.0,1685542482.0
386,Massakory,106.5,20.0,5.86,2428228.0,TD,15.7293,12.996,21.0,1685542484.0
387,Byron Bay,58.71,68.0,10.31,2172880.0,AU,153.6167,-28.65,100.0,1685542459.0
388,Dawson Creek,51.44,40.0,4.61,5935804.0,CA,-120.2362,55.7666,0.0,1685542488.0
389,Port-Gentil,80.56,19.0,11.5,2396518.0,GA,8.7815,-0.7193,100.0,1685542491.0
390,Augusto Corrêa,86.83,63.0,6.93,3406961.0,BR,-46.635,-1.0217,51.0,1685542493.0
391,Araouane,103.32,12.0,11.68,2460954.0,ML,-3.5265,18.9048,100.0,1685542495.0
392,Coahuayana Viejo,81.46,66.0,1.3,4013679.0,MX,-103.6833,18.7333,71.0,1685542497.0
393,Mount Gambier,55.76,90.0,13.13,2156643.0,AU,140.7667,-37.8333,88.0,1685542499.0
394,Swan River,62.49,88.0,2.3,6160362.0,CA,-101.2676,52.1058,0.0,1685542501.0
395,Bima,74.26,91.0,5.28,1648759.0,ID,118.7167,-8.4667,61.0,1685542504.0
396,Cherskiy,32.76,70.0,9.24,2126199.0,RU,161.3,68.75,100.0,1685542506.0
397,Adrar,98.29,13.0,6.22,2381972.0,MR,-10.0711,20.5022,95.0,1685542508.0
398,Egvekinot,31.86,90.0,2.62,4031742.0,RU,-179.1667,66.3167,100.0,1685542510.0
399,Comodoro Rivadavia,58.86,51.0,18.41,3860443.0,AR,-67.5,-45.8667,0.0,1685542513.0
400,Volchikha,68.4,36.0,6.62,1486983.0,RU,80.3833,52.0333,6.0,1685542515.0
401,Paita,74.97,78.0,9.15,3694112.0,PE,-81.1144,-5.0892,81.0,1685542517.0
402,Calama,59.49,11.0,26.46,3897347.0,CL,-68.9333,-22.4667,0.0,1685542519.0
403,Abalak,74.41,41.0,5.48,1512223.0,RU,68.5944,58.1286,100.0,1685542522.0
404,Atar,100.92,13.0,9.64,2381334.0,MR,-13.0499,20.5169,100.0,1685542524.0
405,Venado Tuerto,65.77,57.0,8.46,3833062.0,AR,-61.9688,-33.7456,3.0,1685542526.0
406,Ostrovnoy,50.32,62.0,18.05,556268.0,RU,39.5131,68.0531,100.0,1685542528.0
407,Praia,84.74,42.0,27.63,3374333.0,CV,-23.5087,14.9215,20.0,1685542496.0
408,Campoverde,78.49,90.0,4.85,3733380.0,PE,-74.8058,-8.4753,81.0,1685542532.0
409,Peebles,64.04,61.0,3.0,2640526.0,GB,-3.1888,55.6519,33.0,1685542535.0
410,Ngunguru,52.97,84.0,6.85,2186111.0,NZ,174.5,-35.6167,19.0,1685542537.0
411,Haines Junction,30.15,74.0,1.14,5969025.0,CA,-137.5108,60.7522,34.0,1685542539.0
412,Chernyshevsk,52.74,42.0,7.47,2025458.0,RU,117.0174,52.5243,98.0,1685542541.0
413,Makiyivka,61.63,70.0,9.98,702320.0,UA,37.9258,48.0478,92.0,1685542543.0
414,Petropavlovsk-Kamchatskiy,37.99,100.0,4.47,2122104.0,RU,158.6483,53.0452,100.0,1685542268.0
415,Los Llanos de Aridane,70.12,74.0,5.99,2514651.0,ES,-17.9182,28.6585,20.0,1685542547.0
416,Nuevo Progreso,78.89,78.0,5.17,3522526.0,MX,-97.95,23.1667,0.0,1685542549.0
417,Norsup,77.61,84.0,11.68,2135517.0,VU,167.3833,-16.0667,100.0,1685542556.0
418,Yulara,57.96,38.0,1.79,6355222.0,AU,130.9889,-25.2406,0.0,1685542559.0
419,Hohhot,59.29,38.0,4.47,2036892.0,CN,111.6522,40.8106,0.0,1685542561.0
420,Bowen,69.28,76.0,13.09,2174444.0,AU,148.2333,-20.0167,100.0,1685542563.0
421,Smoky Lake,55.44,88.0,3.44,6150293.0,CA,-112.4686,54.1169,14.0,1685542565.0
422,Angoram,76.06,95.0,1.12,2100765.0,PG,144.0661,-4.0625,78.0,1685542567.0
423,Itarema,85.69,60.0,11.99,3393692.0,BR,-39.9167,-2.9248,5.0,1685542569.0
424,La Asuncion,83.93,79.0,10.36,3480908.0,VE,-63.8628,11.0333,100.0,1685542571.0
425,Berlevåg,44.55,81.0,9.22,780687.0,NO,29.0864,70.8578,75.0,1685542574.0
426,Ambilobe,78.85,72.0,1.48,1082243.0,MG,49.05,-13.2,71.0,1685542576.0
427,Teya,62.49,41.0,2.13,1489656.0,RU,92.6267,60.3778,72.0,1685542578.0
428,Máncora,79.11,72.0,3.42,3695000.0,PE,-81.0475,-4.1078,68.0,1685542580.0
429,Crotone,75.15,64.0,9.22,2524881.0,IT,17.1178,39.0851,20.0,1685542582.0
430,Sechura,75.83,73.0,9.22,3691954.0,PE,-80.8222,-5.5569,74.0,1685542585.0
431,Tarko-Sale,62.92,38.0,8.19,1490085.0,RU,77.785,64.9225,99.0,1685542587.0
432,Yerofey Pavlovich,43.97,87.0,4.97,2012938.0,RU,121.9667,53.9667,17.0,1685542590.0
433,Doha,98.55,35.0,16.11,290030.0,QA,51.5333,25.2867,11.0,1685542504.0
434,Palmer,67.05,57.0,1.99,4946620.0,US,-72.3287,42.1584,0.0,1685542594.0
435,Darhan,55.31,64.0,19.06,2031964.0,MN,105.9228,49.4867,100.0,1685542596.0
436,Rantauprapat,77.04,90.0,3.02,1214073.0,ID,99.8333,2.1,100.0,1685542598.0
437,Arroyo de la Encomienda,76.26,43.0,8.05,3129371.0,ES,-4.7969,41.6096,20.0,1685542600.0
438,Keetmanshoop,63.52,38.0,2.64,3356264.0,NA,18.1333,-26.5833,0.0,1685542603.0
439,Staryy Nadym,66.16,48.0,12.35,1490918.0,RU,72.6842,65.6118,100.0,1685542605.0
440,Beloha,73.22,57.0,12.37,1067565.0,MG,45.05,-25.1667,90.0,1685542607.0
441,Kelvington,65.84,71.0,12.26,5990669.0,CA,-103.5343,52.1667,0.0,1685542609.0
442,Munger,103.19,17.0,10.58,1262482.0,IN,86.4667,25.3833,31.0,1685542611.0
443,Grindavik,46.87,87.0,8.05,3416888.0,IS,-22.4338,63.8424,100.0,1685542613.0
444,Kangaatsiaq,37.98,86.0,29.84,3422683.0,GL,-53.4641,68.3065,100.0,1685542615.0
445,Omsukchan,46.94,68.0,5.41,2122493.0,RU,155.8,62.5333,100.0,1685542617.0
446,Quzhou,75.76,95.0,5.91,1797264.0,CN,118.8686,28.9594,3.0,1685542620.0
447,Neijiang,74.25,80.0,16.28,1799491.0,CN,105.0622,29.5835,31.0,1685542623.0
448,Bonavista,41.5,96.0,10.31,5905393.0,CA,-53.1147,48.6499,100.0,1685542625.0
449,Pauini,82.85,68.0,4.54,3662927.0,BR,-66.9764,-7.7136,78.0,1685542627.0
450,Poso,77.9,88.0,4.32,1630723.0,ID,120.7524,-1.3959,97.0,1685542629.0
451,Hervey Bay,64.81,76.0,4.32,2146219.0,AU,152.8535,-25.2986,50.0,1685542631.0
452,Gambēla,94.59,36.0,2.71,337405.0,ET,34.5833,8.25,9.0,1685542599.0
453,Hede,66.47,91.0,6.91,1808744.0,CN,120.2517,33.7681,95.0,1685542635.0
454,Alice Springs,45.95,49.0,5.75,2077895.0,AU,133.8833,-23.7,0.0,1685542638.0
455,Tazmalt,68.0,62.0,5.64,2477537.0,DZ,4.3989,36.3868,92.0,1685542640.0
456,Mangaratiba,67.06,91.0,1.99,3457991.0,BR,-44.0406,-22.9597,100.0,1685542642.0
457,Porto-Novo,89.33,60.0,10.33,2392087.0,BJ,2.6036,6.4965,92.0,1685542649.0
458,Sabha,98.76,12.0,9.35,2212775.0,LY,14.4283,27.0377,0.0,1685542651.0
459,Salinópolis,83.88,71.0,11.5,3389822.0,BR,-47.3561,-0.6136,80.0,1685542432.0
460,Riyadh,100.54,28.0,14.67,108410.0,SA,46.7219,24.6877,93.0,1685542655.0
461,Jönköping,71.31,46.0,10.36,2702979.0,SE,14.1562,57.7814,0.0,1685542657.0
462,Yatou,65.1,80.0,11.63,1786855.0,CN,122.3833,37.15,100.0,1685542659.0
463,Jaru,79.84,75.0,4.99,3925040.0,BR,-62.4664,-10.4389,6.0,1685542511.0
464,Yashan,81.25,81.0,4.9,1786867.0,CN,109.9419,22.1975,28.0,1685542664.0
465,Bamiantong,59.34,51.0,7.54,2038482.0,CN,130.5333,44.9333,97.0,1685542666.0
466,Boa Vista,84.18,70.0,11.5,3664980.0,BR,-60.6733,2.8197,75.0,1685542668.0
467,Barra do Bugres,75.09,76.0,1.7,3470718.0,BR,-57.1811,-15.0725,88.0,1685542476.0
468,Butembo,62.94,90.0,2.04,217562.0,CD,29.2833,0.15,96.0,1685542672.0
469,Talaya,49.03,71.0,0.96,2120769.0,RU,152.75,61.3833,100.0,1685542674.0
470,Vengurla,84.7,77.0,6.33,1253257.0,IN,73.6333,15.8667,100.0,1685542677.0
471,Maracaçumé,87.96,57.0,6.42,3395497.0,BR,-45.9592,-2.0428,4.0,1685542679.0
472,Nouadhibou,76.98,61.0,14.97,2377457.0,MR,-17.0347,20.931,100.0,1685542681.0
473,La Celia,65.07,85.0,1.79,3679542.0,CO,-76.0167,5.0433,94.0,1685542683.0
474,Lüderitz,69.17,53.0,19.46,3355672.0,NA,15.1594,-26.6481,0.0,1685542685.0
475,Carutapera,85.89,66.0,9.04,3402648.0,BR,-46.02,-1.195,50.0,1685542687.0
476,Yauya,51.42,69.0,3.58,3690733.0,PE,-77.3,-8.9833,10.0,1685542689.0
477,Port Said,75.18,83.0,10.36,358619.0,EG,32.2841,31.2565,0.0,1685542599.0
478,Sambava,76.64,79.0,18.01,1056899.0,MG,50.1667,-14.2667,8.0,1685542694.0
479,Kafanchan,84.72,62.0,4.27,2335713.0,NG,8.3,9.5833,42.0,1685542696.0
480,Neftçala,74.08,72.0,13.44,147425.0,AZ,49.2472,39.3742,99.0,1685542698.0
481,Yhú,69.1,72.0,6.08,3436595.0,PY,-55.9167,-25.05,11.0,1685542700.0
482,Necochea,57.36,70.0,14.25,3430443.0,AR,-58.7368,-38.5473,100.0,1685542703.0
483,Muros,72.86,69.0,8.12,3115824.0,ES,-9.0603,42.7762,75.0,1685542705.0
484,Linxia Chengguanzhen,54.34,78.0,2.82,1803331.0,CN,103.2064,35.6003,51.0,1685542707.0
485,Tripoli,73.56,64.0,11.61,2210247.0,LY,13.1875,32.8752,6.0,1685542667.0
486,Ixtapa,79.83,57.0,4.0,4004293.0,MX,-105.2,20.7,0.0,1685542711.0
487,Santiago del Estero,66.15,72.0,10.54,3835869.0,AR,-64.2615,-27.7951,67.0,1685542714.0
488,Uribia,85.19,68.0,8.05,3666409.0,CO,-72.266,11.7139,100.0,1685542716.0
489,Rome,75.31,50.0,2.75,5134295.0,US,-75.4557,43.2128,0.0,1685542718.0
490,Xuanzhou,72.1,94.0,2.62,1788081.0,CN,118.7553,30.9525,100.0,1685542720.0
491,Arrondissement de Muret,70.9,53.0,2.46,2991152.0,FR,1.25,43.3333,22.0,1685542722.0
492,Orlik,40.06,96.0,4.94,1496073.0,RU,99.825,52.5178,100.0,1685542724.0
493,Toyoake,66.88,82.0,5.53,1856057.0,JP,137.0137,35.0594,12.0,1685542726.0
494,Ibrā’,102.27,19.0,16.55,287832.0,OM,58.5334,22.6906,15.0,1685542728.0
495,Ayagoz,60.22,44.0,11.14,1525988.0,KZ,80.4392,47.9714,0.0,1685542731.0
496,Deputatsky,27.63,90.0,2.89,2028164.0,RU,139.9,69.3,99.0,1685542733.0
497,Moyale,78.75,49.0,10.45,186180.0,KE,39.0584,3.5167,35.0,1685542735.0
498,Gresik,82.31,77.0,5.28,1643776.0,ID,112.6561,-7.1539,65.0,1685542737.0
499,Tsushima,67.15,85.0,6.82,1849539.0,JP,136.7167,35.1667,24.0,1685542739.0
500,Boralday,73.26,35.0,6.71,1526384.0,KZ,76.8594,43.3578,75.0,1685542741.0
501,Mahina,73.17,83.0,20.71,4034307.0,PF,-149.489,-17.5065,75.0,1685542743.0
502,Ust-Maya,50.81,81.0,2.75,2013918.0,RU,134.5333,60.4167,54.0,1685542745.0
503,General Pico,59.25,59.0,5.86,3855075.0,AR,-63.7568,-35.6566,21.0,1685542748.0
504,Labuan,82.76,78.0,1.14,1733782.0,MY,115.2417,5.2767,20.0,1685542750.0
505,Saint Anthony,74.86,62.0,12.66,5044290.0,US,-93.218,45.0205,0.0,1685542752.0
506,Iqaluit,34.7,80.0,21.85,5983720.0,CA,-68.5145,63.7506,75.0,1685542754.0
507,Haapiti,72.72,71.0,20.85,4034438.0,PF,-149.8667,-17.5667,94.0,1685542756.0
508,Sarankhola,86.59,66.0,9.19,1185239.0,BD,89.7897,22.3082,36.0,1685542758.0
509,Odienné,98.13,34.0,5.28,2283016.0,CI,-7.5692,9.51,100.0,1685542761.0
510,Miles City,65.37,63.0,3.44,5666176.0,US,-105.8406,46.4083,0.0,1685542714.0
511,Daru,77.83,85.0,15.17,2098329.0,PG,143.2092,-9.0763,27.0,1685542768.0
512,Umm Kaddadah,102.52,14.0,12.5,364933.0,SD,26.6876,13.6017,39.0,1685542770.0
513,Skegness,55.67,80.0,15.86,2637762.0,GB,0.3363,53.1436,100.0,1685542773.0
514,Saint-François,76.44,44.0,8.05,2980080.0,FR,3.9054,46.4154,0.0,1685542775.0
515,Semey,71.11,31.0,7.94,1519422.0,KZ,80.2275,50.4111,57.0,1685542777.0
516,Esperance,61.48,90.0,13.42,2071860.0,AU,121.9,-33.8667,100.0,1685542779.0
517,Selkirk,69.28,73.0,4.0,6144054.0,CA,-96.8845,50.1436,20.0,1685542781.0
518,Mahajanga,84.92,53.0,0.96,1062663.0,MG,46.3167,-15.7167,8.0,1685542783.0
519,Ruwi,101.89,43.0,8.57,287286.0,OM,58.5507,23.5996,73.0,1685542785.0
520,Pucallpa,78.84,83.0,12.66,3693345.0,PE,-74.5539,-8.3791,40.0,1685542788.0
521,Ginda,56.84,87.0,5.21,1253628.0,IN,78.4932,30.6945,100.0,1685542790.0
522,Hare Bay,53.2,68.0,8.16,5970873.0,CA,-54.0148,48.8499,97.0,1685542792.0
523,Kabalo,94.28,23.0,5.66,215668.0,CD,26.9167,-6.05,0.0,1685542794.0
524,Cockburn Town,81.21,83.0,17.4,3576994.0,TC,-71.1419,21.4612,100.0,1685542504.0
525,Kolomyia,67.62,65.0,5.61,705392.0,UA,25.0403,48.5306,3.0,1685542798.0
526,Odawara,61.99,84.0,3.49,1854747.0,JP,139.1597,35.2556,20.0,1685542800.0
527,Santa Cruz de la Sierra,69.85,73.0,4.61,3904906.0,BO,-63.1667,-17.8,75.0,1685542573.0
528,Derzhavīnsk,87.62,23.0,11.48,1524606.0,KZ,66.3167,51.1,76.0,1685542805.0
529,Raduzhny,68.0,39.0,6.53,1540356.0,RU,77.475,62.0961,74.0,1685542807.0
530,Gulariyā,93.72,19.0,7.63,1283368.0,NP,81.3333,28.2333,0.0,1685542809.0
531,Oudtshoorn,57.56,81.0,3.6,967106.0,ZA,22.2014,-33.5907,100.0,1685542811.0
532,Ruteng,62.85,95.0,3.36,1629380.0,ID,120.4721,-8.6136,97.0,1685542814.0
533,Sokolac,66.58,84.0,5.46,3190385.0,BA,18.8017,43.9397,100.0,1685542816.0
534,Jieshi,79.95,88.0,9.4,1805857.0,CN,115.8257,22.8134,99.0,1685542555.0
535,Porto Velho,77.05,83.0,5.75,3662762.0,BR,-63.9039,-8.7619,75.0,1685542816.0
536,Olinda,82.13,74.0,9.22,3393536.0,BR,-34.8553,-8.0089,75.0,1685542605.0
537,Vallenar,78.15,17.0,1.52,3868633.0,CL,-70.7581,-28.5708,1.0,1685542824.0
538,Bud,76.37,70.0,6.51,4255151.0,US,-86.1758,39.447,7.0,1685542826.0
539,Dhārchula,66.74,75.0,7.29,1272864.0,IN,80.5333,29.85,92.0,1685542829.0
540,Mabaruma,82.65,84.0,3.6,3377301.0,GY,-59.7833,8.2,89.0,1685542831.0
541,Nemuro,47.41,89.0,8.14,2128975.0,JP,145.575,43.3236,0.0,1685542833.0
542,Caucayá,76.64,90.0,2.42,3671437.0,CO,-74.7819,-0.1934,87.0,1685542835.0
543,Vanderhoof,42.73,52.0,5.37,6173361.0,CA,-124.0198,54.0166,27.0,1685542837.0
544,Maravilha,63.61,71.0,2.91,3457809.0,BR,-53.1725,-26.7608,0.0,1685542540.0
545,Nanlong,74.25,67.0,10.78,1799908.0,CN,106.0631,31.3533,99.0,1685542841.0
546,Seryshevo,45.46,85.0,5.86,2016942.0,RU,128.3786,51.0933,91.0,1685542843.0
547,Les Cayes,83.98,73.0,11.72,3728097.0,HT,-73.75,18.2,100.0,1685542846.0
548,Lagoa,63.77,82.0,13.69,3372964.0,PT,-27.9833,39.05,2.0,1685542848.0
549,Pacifica,52.27,91.0,12.66,5380420.0,US,-122.4869,37.6138,75.0,1685542643.0
550,Northam,64.44,74.0,14.5,2641434.0,GB,-4.2167,51.0333,91.0,1685542852.0
551,Rio Grande,59.11,81.0,6.53,3451138.0,BR,-52.0986,-32.035,6.0,1685542846.0
552,Gejiu,66.52,69.0,4.81,1810240.0,CN,103.1635,23.306,4.0,1685542861.0
553,Opuwo,84.79,14.0,11.99,3354077.0,NA,13.84,-18.0607,30.0,1685542863.0
554,La Ronge,61.05,77.0,11.5,6050066.0,CA,-105.2842,55.1001,75.0,1685542865.0
555,Yazykovo,76.08,55.0,16.11,468483.0,RU,56.1353,55.2199,100.0,1685542868.0
556,Batticaloa,84.49,74.0,11.5,1250161.0,LK,81.6924,7.7102,55.0,1685542870.0
557,Khasan,53.24,86.0,4.7,2039557.0,RU,130.6434,42.4308,100.0,1685542872.0
558,Kattivākkam,88.07,85.0,13.87,1267433.0,IN,80.3167,13.2167,92.0,1685542874.0
559,Arrondissement de Saint-Denis,77.54,43.0,16.11,2980915.0,FR,2.3333,48.9167,0.0,1685542775.0
560,Ende,76.93,89.0,4.94,1644932.0,ID,121.6623,-8.8432,99.0,1685542878.0
561,Harlingen,80.87,88.0,4.61,4696233.0,US,-97.6961,26.1906,0.0,1685542881.0
562,Zhicheng,76.44,72.0,2.71,1784554.0,CN,111.5047,30.2956,92.0,1685542883.0
563,Havelock,66.51,91.0,12.66,4470244.0,US,-76.9013,34.8791,100.0,1685542885.0
564,Madimba,85.32,61.0,16.11,878141.0,TZ,40.3333,-10.4,20.0,1685542887.0
565,Pacific Grove,52.81,88.0,5.01,5380437.0,US,-121.9166,36.6177,100.0,1685542810.0
566,Esim,85.21,69.0,9.71,2303611.0,GH,-2.2405,4.8699,96.0,1685542626.0
567,Gorontalo,76.77,94.0,2.01,1643837.0,ID,123.0595,0.5412,100.0,1685542894.0
568,Vaitape,77.67,74.0,21.39,4033077.0,PF,-151.75,-16.5167,100.0,1685542896.0
569,Ottawa,74.08,52.0,4.61,6094817.0,CA,-75.6981,45.4112,0.0,1685542694.0
570,Petropavl,76.53,48.0,5.55,1520172.0,KZ,69.1628,54.8753,29.0,1685542900.0
571,Bossangoa,91.13,44.0,3.71,2388036.0,CF,17.4552,6.4926,100.0,1685542902.0
572,Lavrentiya,30.92,89.0,2.06,4031637.0,RU,-171.0,65.5833,100.0,1685542904.0
573,Muskegon,78.93,54.0,6.91,5003136.0,US,-86.1334,43.3,20.0,1685542687.0
574,Lālmohan,86.41,73.0,13.91,1185251.0,BD,90.7419,22.3384,28.0,1685542908.0
575,Gainesville,78.75,71.0,6.91,4156404.0,US,-82.3248,29.6516,100.0,1685542879.0
