,City,Temp_max,Humidity,wind_speed,city_id,country_code,long,lat,Cloudiness,datetime
0,Flin Flon,78.64,29.0,4.61,5954718.0,CA,-101.865,54.7682,40.0,1685484002.0
1,Severo-Kuril'sk,40.28,95.0,23.89,2121385.0,RU,156.125,50.6789,100.0,1685484007.0
2,Codrington,58.55,85.0,14.9,2171099.0,AU,141.9667,-38.2667,100.0,1685484010.0
3,Bredasdorp,57.99,90.0,10.27,1015776.0,ZA,20.0403,-34.5322,89.0,1685484018.0
4,Kindersley,84.22,21.0,14.97,5992154.0,CA,-109.1682,51.4668,40.0,1685484024.0
5,Kavieng,83.48,78.0,9.44,2094342.0,PG,150.7967,-2.5744,21.0,1685484027.0
6,Brae,49.32,90.0,18.88,2654970.0,GB,-1.353,60.3964,94.0,1685484036.0
7,Hithadhoo,83.37,75.0,13.51,1282256.0,MV,73.0833,-0.6,99.0,1685484038.0
8,Ponta Delgada,63.32,82.0,11.5,3372783.0,PT,-25.6667,37.7333,40.0,1685483868.0
9,Kaitangata,44.73,71.0,4.88,2208248.0,NZ,169.8464,-46.2817,80.0,1685484042.0
10,Neiafu,81.28,83.0,13.8,4032420.0,TO,-173.9833,-18.65,40.0,1685484045.0
11,Busselton,63.43,87.0,9.91,2075265.0,AU,115.3333,-33.65,78.0,1685484047.0
12,Kudahuvadhoo,83.34,75.0,12.26,1337607.0,MV,72.8944,2.6708,46.0,1685484049.0
13,Port Macquarie,48.88,55.0,1.43,2152659.0,AU,152.9167,-31.4333,3.0,1685484051.0
14,Jamestown,80.24,36.0,3.44,5122534.0,US,-79.2353,42.097,40.0,1685484053.0
15,Nantucket,55.06,77.0,10.36,4944903.0,US,-70.0995,41.2835,20.0,1685483904.0
16,São João da Barra,69.89,90.0,4.74,3448903.0,BR,-41.0511,-21.6403,67.0,1685484058.0
17,Castlebar,56.25,81.0,4.05,2965654.0,IE,-9.3,53.85,6.0,1685484060.0
18,Katobu,72.84,98.0,4.07,1640972.0,ID,122.5276,-4.9408,100.0,1685484062.0
19,Port Lincoln,61.32,72.0,14.05,2063036.0,AU,135.8667,-34.7333,100.0,1685484064.0
20,Padampur,71.73,75.0,3.38,1260938.0,IN,73.6167,29.6833,100.0,1685484067.0
21,Cayenne,82.44,74.0,6.91,3382160.0,GF,-52.3333,4.9333,0.0,1685484069.0
22,Norman Wells,64.44,45.0,13.8,6089245.0,CA,-126.8329,65.282,75.0,1685484071.0
23,Upernavik,31.89,99.0,11.56,3418910.0,GL,-56.1549,72.7868,100.0,1685484073.0
24,Ushuaia,51.46,71.0,12.66,3833367.0,AR,-68.3,-54.8,20.0,1685483945.0
25,Tasiilaq,41.16,75.0,5.06,3424607.0,GL,-37.6368,65.6145,35.0,1685484078.0
26,Thunder Bay,62.51,55.0,11.5,6166142.0,CA,-89.3168,48.4001,75.0,1685484072.0
27,Provideniya,33.91,80.0,13.42,4031574.0,RU,-173.3,64.3833,75.0,1685484082.0
28,Cap Malheureux,71.47,76.0,1.99,934649.0,MU,57.6142,-19.9842,8.0,1685484084.0
29,West Wendover,76.21,22.0,24.16,5710035.0,US,-114.0733,40.7391,0.0,1685484086.0
30,Tautira,78.31,80.0,11.65,4033557.0,PF,-149.15,-17.7333,25.0,1685484071.0
31,Avarua,77.05,50.0,13.8,4035715.0,CK,-159.775,-21.2078,75.0,1685484091.0
32,Punta Arenas,42.91,93.0,2.3,3874787.0,CL,-70.9167,-53.15,20.0,1685484093.0
33,Ozernovskiy,42.35,90.0,16.22,2122293.0,RU,156.5167,51.5,100.0,1685484095.0
34,Aksu,65.95,30.0,0.83,1529660.0,CN,80.2644,41.1231,61.0,1685484097.0
35,Arrondissement d'Ajaccio,60.78,82.0,8.05,3038333.0,FR,8.9167,42.0,75.0,1685483942.0
36,Cabedelo,79.47,79.0,12.39,3404558.0,BR,-34.8339,-6.9811,22.0,1685484102.0
37,Dikson,38.98,88.0,24.99,1507390.0,RU,80.5464,73.5069,100.0,1685484104.0
38,Hobart,58.62,74.0,14.97,2163355.0,AU,147.3294,-42.8794,75.0,1685483825.0
39,Vestmannaeyjar,46.11,78.0,13.13,3412093.0,IS,-20.2734,63.4427,98.0,1685484108.0
40,Alofi,76.89,78.0,12.66,4036284.0,NU,-169.9187,-19.0595,40.0,1685484110.0
41,Carnarvon,70.84,72.0,6.87,2074865.0,AU,113.6333,-24.8667,0.0,1685484029.0
42,Saint-Philippe,69.39,79.0,4.72,935215.0,RE,55.7679,-21.3585,38.0,1685484114.0
43,Cabra,61.65,70.0,4.65,2520645.0,ES,-4.4421,37.4725,60.0,1685484116.0
44,Feldbach,57.83,82.0,5.57,2779685.0,AT,15.8883,46.9531,31.0,1685484129.0
45,Tual,81.55,81.0,21.9,1623197.0,ID,132.75,-5.6667,71.0,1685484131.0
46,Longyearbyen,33.64,86.0,16.11,2729907.0,SJ,15.6401,78.2186,75.0,1685484133.0
47,Dukat,50.5,35.0,4.45,2125906.0,RU,155.55,62.55,86.0,1685484135.0
48,Jalu,87.64,16.0,18.79,86049.0,LY,21.5482,29.0331,61.0,1685484137.0
49,Vaini,78.96,83.0,13.8,4032243.0,TO,-175.2,-21.2,40.0,1685484139.0
50,Albany,76.28,37.0,1.01,5106841.0,US,-73.9662,42.6001,11.0,1685484050.0
51,Karaton,73.15,93.0,2.37,1630058.0,ID,106.1045,-6.3424,23.0,1685484144.0
52,Saldanha,55.45,86.0,18.43,3361934.0,ZA,17.9442,-33.0117,100.0,1685484146.0
53,Castro,54.82,93.0,7.76,3466704.0,BR,-50.0119,-24.7911,100.0,1685484148.0
54,Inhambane,69.42,77.0,6.26,1045114.0,MZ,35.3833,-23.865,32.0,1685484150.0
55,Mataura,44.69,84.0,4.36,6201424.0,NZ,168.8643,-46.1927,100.0,1685484157.0
56,Puerto Ayora,80.55,92.0,4.0,3652764.0,EC,-90.3518,-0.7393,90.0,1685484159.0
57,Arraial do Cabo,67.86,94.0,2.3,3471451.0,BR,-42.0278,-22.9661,75.0,1685484162.0
58,Obihiro,53.46,67.0,4.0,2128815.0,JP,143.2044,42.9172,0.0,1685484164.0
59,Penzance,54.28,87.0,10.63,2640377.0,GB,-5.5371,50.1186,3.0,1685484166.0
60,Butaritari,83.01,73.0,3.22,2110227.0,KI,172.7902,3.0707,98.0,1685484168.0
61,Rikitea,76.75,73.0,21.77,4030556.0,PF,-134.9692,-23.1203,100.0,1685484170.0
62,Namatanai,82.67,77.0,4.65,2090021.0,PG,152.4333,-3.6667,72.0,1685484172.0
63,Isangel,77.11,73.0,2.3,2136825.0,VU,169.2667,-19.55,75.0,1685484174.0
64,Saint George,90.16,13.0,5.99,5546220.0,US,-113.5841,37.1041,0.0,1685484026.0
65,Kruisfontein,55.89,88.0,4.63,986717.0,ZA,24.7314,-34.0033,100.0,1685484178.0
66,Mwinilunga,64.17,55.0,2.77,902620.0,ZM,24.4293,-11.7358,72.0,1685484181.0
67,Port Alfred,56.17,93.0,1.99,964432.0,ZA,26.891,-33.5906,100.0,1685484183.0
68,Marzuq,80.62,54.0,2.75,72181.0,YE,46.4667,14.4,90.0,1685484185.0
69,Puerto Escondido,89.04,61.0,8.81,3520994.0,MX,-97.0667,15.85,6.0,1685484187.0
70,Sivaki,47.89,90.0,1.99,2016477.0,RU,126.75,52.6333,53.0,1685484189.0
71,Yellowknife,57.72,44.0,13.8,6185377.0,CA,-114.3525,62.456,20.0,1685484191.0
72,Canchungo,86.13,81.0,9.57,2373951.0,GW,-16.0333,12.0672,77.0,1685484193.0
73,Östersund,48.65,37.0,16.11,2685750.0,SE,14.6357,63.1792,100.0,1685484055.0
74,Fort Nelson,66.94,24.0,4.61,5955902.0,CA,-122.7002,58.8053,75.0,1685484198.0
75,Castelo Branco,59.22,91.0,3.78,2269514.0,PT,-7.4909,39.8222,25.0,1685484200.0
76,Black River,81.66,82.0,4.76,3491355.0,JM,-77.8487,18.0264,100.0,1685484202.0
77,Atuona,81.18,65.0,12.35,4020109.0,PF,-139.0333,-9.8,2.0,1685484204.0
78,Birao,82.76,58.0,3.87,240210.0,CF,22.7882,10.2849,73.0,1685484207.0
79,Ekhabi,34.84,97.0,9.57,2122614.0,RU,142.9671,53.5102,100.0,1685484209.0
80,Barrow,32.02,86.0,9.22,5880054.0,US,-156.7887,71.2906,100.0,1685484211.0
81,Hilo,77.36,80.0,5.75,5855927.0,US,-155.09,19.7297,100.0,1685483975.0
82,Mehamn,40.95,75.0,0.0,778707.0,NO,27.8492,71.0357,75.0,1685484215.0
83,Shingū,66.83,88.0,3.69,1847947.0,JP,135.9833,33.7333,100.0,1685484217.0
84,George Town,82.17,80.0,3.44,1735106.0,MY,100.3354,5.4112,20.0,1685484190.0
85,Russell,82.42,42.0,3.44,4047434.0,US,-85.1999,32.3502,0.0,1685484222.0
86,Sidhi,89.67,30.0,4.52,1256369.0,IN,81.8833,24.4167,34.0,1685484224.0
87,Laramie,71.42,16.0,16.82,5830062.0,US,-105.5911,41.3114,0.0,1685484204.0
88,Bluff,51.17,78.0,18.68,2206939.0,NZ,168.3333,-46.6,100.0,1685484080.0
89,Bayir,57.72,96.0,3.49,304183.0,TR,28.2167,37.2687,10.0,1685484230.0
90,Vila Velha,71.94,84.0,12.66,3445026.0,BR,-40.2925,-20.3297,75.0,1685484232.0
91,Kapaa,78.75,80.0,10.0,5848280.0,US,-159.319,22.0752,18.0,1685484234.0
92,Margate,52.09,82.0,10.0,2643044.0,GB,1.3862,51.3813,100.0,1685484236.0
93,Kamaishi,58.12,68.0,5.32,2112444.0,JP,141.8833,39.2667,55.0,1685484238.0
94,Stăncuţa,62.78,63.0,5.95,666309.0,RO,27.8333,44.9,5.0,1685484241.0
95,Ankang,70.41,91.0,2.33,1789065.0,CN,109.0172,32.68,86.0,1685484243.0
96,Port Elizabeth,60.31,87.0,1.99,964420.0,ZA,25.5701,-33.918,100.0,1685484245.0
97,Morant Bay,80.22,78.0,6.82,3489440.0,JM,-76.4093,17.8815,100.0,1685484219.0
98,São Miguel,81.37,77.0,15.95,3388304.0,BR,-35.3667,-5.4667,6.0,1685484249.0
99,Guerrero Negro,67.24,55.0,18.88,4021858.0,MX,-114.0611,27.9769,1.0,1685484251.0
100,Husavik,41.07,85.0,3.87,2629833.0,IS,-17.3389,66.0449,55.0,1685484253.0
101,Ahipara,63.82,85.0,7.63,2194098.0,NZ,173.1667,-35.1667,94.0,1685484256.0
102,Saint Paul Harbor,47.71,76.0,10.36,5866583.0,US,-152.4072,57.79,0.0,1685484258.0
103,Mahébourg,75.49,73.0,8.05,934322.0,MU,57.7,-20.4081,40.0,1685484260.0
104,Mount Isa,42.57,65.0,2.3,2065594.0,AU,139.5,-20.7333,88.0,1685484013.0
105,Te Anau,48.74,93.0,7.05,2181625.0,NZ,167.7167,-45.4167,100.0,1685484264.0
106,Alenquer,78.22,87.0,1.86,3407980.0,BR,-54.7383,-1.9417,66.0,1685484084.0
107,São Miguel do Araguaia,81.55,41.0,3.18,3448455.0,BR,-50.1628,-13.275,71.0,1685484045.0
108,Kriel,53.82,64.0,14.99,987202.0,ZA,29.2253,-26.2739,33.0,1685484271.0
109,Marsh Harbour,79.59,77.0,11.9,3571913.0,BS,-77.0636,26.5412,100.0,1685484273.0
110,Souillac,75.58,73.0,8.05,933995.0,MU,57.5167,-20.5167,40.0,1685484275.0
111,Tigil',60.55,57.0,10.94,2120612.0,RU,158.6667,57.8,100.0,1685484277.0
112,Kaeo,63.32,96.0,4.92,2189343.0,NZ,173.7833,-35.1,95.0,1685484279.0
113,Cape Town,57.11,91.0,5.01,3369157.0,ZA,18.4232,-33.9258,100.0,1685484276.0
114,Cidreira,67.17,78.0,16.4,3466165.0,BR,-50.2056,-30.1811,100.0,1685484284.0
115,Khatanga,35.8,76.0,8.3,2022572.0,RU,102.5,71.9667,68.0,1685484286.0
116,Karlshamn,48.61,85.0,5.91,2701727.0,SE,14.8619,56.1706,1.0,1685484288.0
117,Pevek,32.43,88.0,11.12,2122090.0,RU,170.3133,69.7008,100.0,1685484290.0
118,Mar del Plata,56.95,75.0,3.44,3430863.0,AR,-57.5575,-38.0023,0.0,1685484155.0
119,Gobabis,46.22,39.0,4.36,3357247.0,NA,18.9667,-22.45,0.0,1685484294.0
120,Gaoyou,68.86,86.0,5.86,1810309.0,CN,119.4278,32.7858,100.0,1685484296.0
121,Bethel,66.74,44.0,8.05,5282297.0,US,-73.414,41.3712,0.0,1685484298.0
122,Santa Maria da Vitória,78.89,42.0,7.29,3450063.0,BR,-44.1886,-13.3947,25.0,1685484301.0
123,Banda Aceh,83.43,75.0,25.08,1215502.0,ID,95.3222,5.5577,100.0,1685484051.0
124,Georgiyevka,57.24,58.0,4.47,1524243.0,KZ,74.7114,43.0369,0.0,1685484305.0
125,Zonguldak,52.45,94.0,3.65,737021.0,TR,31.8333,41.25,54.0,1685484308.0
126,Booué,76.5,84.0,2.86,2401495.0,GA,11.9385,-0.0921,54.0,1685484320.0
127,Siyabuswa,62.15,62.0,5.88,955313.0,ZA,29.0445,-25.1132,51.0,1685484227.0
128,Dunedin,53.8,60.0,5.99,2191562.0,NZ,170.5036,-45.8742,43.0,1685484324.0
129,Roald,49.42,100.0,24.16,3141667.0,NO,6.1333,62.5833,100.0,1685484326.0
130,Tweed,76.19,57.0,7.23,6170799.0,CA,-77.3162,44.4751,6.0,1685484194.0
131,Nanortalik,42.19,92.0,15.35,3421765.0,GL,-45.2371,60.1432,100.0,1685484331.0
132,Port Blair,78.84,89.0,2.3,1259385.0,IN,92.75,11.6667,40.0,1685484333.0
133,Lubango,58.6,55.0,3.0,3347762.0,AO,13.4925,-14.9172,36.0,1685484335.0
134,Shumskiy,47.25,97.0,4.41,1491977.0,RU,99.1328,54.8318,100.0,1685484337.0
135,San Cristobal,75.38,95.0,3.67,3628473.0,VE,-72.225,7.7669,89.0,1685484182.0
136,Nioro,85.44,61.0,12.93,2412408.0,GM,-15.75,13.35,52.0,1685484341.0
137,Thompson,68.16,60.0,12.66,6165406.0,CA,-97.8558,55.7435,75.0,1685484344.0
138,Manaus,88.29,66.0,5.75,3663517.0,BR,-60.025,-3.1019,40.0,1685484246.0
139,Laguna,74.68,47.0,13.8,5364271.0,US,-121.4238,38.421,0.0,1685484348.0
140,Hermanus,58.8,92.0,14.99,3366880.0,ZA,19.2345,-34.4187,97.0,1685484280.0
141,Westport,64.63,62.0,9.22,4845585.0,US,-73.3579,41.1415,0.0,1685484213.0
142,Dicabisagan,81.41,74.0,5.53,1715015.0,PH,122.4157,17.0818,100.0,1685484354.0
143,Newport,55.54,78.0,16.78,2641598.0,GB,-2.9984,51.5877,55.0,1685484165.0
144,Tateyama,61.57,89.0,17.4,1850523.0,JP,139.8667,34.9833,100.0,1685484358.0
145,Kuznechikha,55.26,90.0,4.16,537760.0,RU,42.3348,57.2161,100.0,1685484360.0
146,Poum,72.99,71.0,14.67,2138555.0,NC,164.0167,-20.2333,100.0,1685484363.0
147,Chokurdakh,34.93,76.0,10.38,2126123.0,RU,147.9167,70.6333,100.0,1685484365.0
148,Coquimbo,58.73,88.0,3.44,3893629.0,CL,-71.3436,-29.9533,75.0,1685484367.0
149,Ust-Nera,57.79,57.0,3.47,2120048.0,RU,143.2,64.5667,100.0,1685484204.0
150,Kavaratti,85.03,74.0,3.15,1267390.0,IN,72.642,10.5669,80.0,1685484372.0
151,Eruwa,78.37,83.0,4.97,2338669.0,NG,3.4167,7.5333,78.0,1685484374.0
152,Polyarny,45.86,63.0,12.75,506763.0,RU,33.4478,69.1989,100.0,1685484376.0
153,Ribeira Grande,64.78,83.0,13.0,3372707.0,PT,-28.7,38.5167,6.0,1685484378.0
154,Kalemie,70.65,76.0,1.34,214974.0,CD,29.1947,-5.9475,31.0,1685484380.0
155,Tuktoyaktuk,45.82,83.0,7.05,6170031.0,CA,-133.0374,69.4541,95.0,1685484383.0
156,Tomatlán,92.7,38.0,15.59,3981391.0,MX,-105.25,19.9333,0.0,1685484385.0
157,Bratca,56.57,89.0,4.5,683837.0,RO,22.6167,46.9333,35.0,1685484387.0
158,Chiang Khong,75.47,86.0,0.69,1611197.0,TH,100.4046,20.2613,100.0,1685484389.0
159,Gijang,62.33,79.0,9.78,1842966.0,KR,129.2139,35.2442,97.0,1685484391.0
160,Vao,71.74,66.0,19.69,2137773.0,NC,167.4833,-22.6667,100.0,1685484394.0
161,Marawi,71.38,86.0,6.58,1701054.0,PH,124.2928,7.9986,100.0,1685484396.0
162,Kununurra,49.98,76.0,4.61,2068110.0,AU,128.7333,-15.7667,7.0,1685484398.0
163,Ponta do Sol,68.43,75.0,2.8,2264557.0,PT,-17.1,32.6667,14.0,1685484400.0
164,Vanimo,79.3,89.0,2.93,2084442.0,PG,141.3028,-2.6741,74.0,1685484402.0
165,Kenai,48.83,76.0,12.66,5866063.0,US,-151.2583,60.5544,100.0,1685484140.0
166,Tarnogskiy Gorodok,50.22,93.0,3.44,484314.0,RU,43.5761,60.4997,99.0,1685484406.0
167,Tottori-shi,64.47,82.0,0.0,1849892.0,JP,134.2333,35.5,75.0,1685484409.0
168,Baracoa,82.27,79.0,4.9,3567834.0,CU,-74.4958,20.3467,98.0,1685484411.0
169,Krasnyy Kholm,48.38,97.0,9.55,541704.0,RU,37.1203,58.0607,83.0,1685484413.0
170,Nabire,78.28,87.0,2.75,1634614.0,ID,135.4833,-3.3667,91.0,1685484416.0
171,Zaysan,46.96,82.0,5.95,1517060.0,KZ,84.8667,47.4667,14.0,1685484418.0
172,New Norfolk,54.75,74.0,8.34,2155415.0,AU,147.0587,-42.7826,100.0,1685484420.0
173,Muhos,49.77,65.0,9.66,645765.0,FI,25.9931,64.808,99.0,1685484423.0
174,Sabzawār,76.51,14.0,11.41,118063.0,IR,57.6819,36.2126,93.0,1685484425.0
175,Catuday,81.7,81.0,16.11,1717787.0,PH,119.8062,16.2923,99.0,1685484427.0
176,Enshi,72.59,97.0,1.74,1811720.0,CN,109.4833,30.3,93.0,1685484429.0
177,Timiryazevskiy,50.86,73.0,1.83,1489597.0,RU,84.8769,56.49,43.0,1685484431.0
178,Aklavik,68.83,39.0,11.21,5882953.0,CA,-135.0107,68.2191,75.0,1685484433.0
179,Pochutla,89.82,49.0,9.13,3517970.0,MX,-96.4661,15.7432,20.0,1685484436.0
180,Bathsheba,81.21,89.0,10.36,3374083.0,BB,-59.5167,13.2167,40.0,1685484438.0
181,Salalah,84.29,84.0,3.44,286621.0,OM,54.0924,17.0151,20.0,1685484440.0
182,Airai,59.13,96.0,3.74,1651810.0,TL,125.4092,-8.9266,94.0,1685484442.0
183,Fuyang,67.23,94.0,5.77,1810845.0,CN,115.8167,32.9,40.0,1685484444.0
184,Makakilo City,81.18,56.0,19.57,5850554.0,US,-158.0858,21.3469,40.0,1685484446.0
185,Impfondo,72.34,89.0,1.1,2259655.0,CG,18.0667,1.6381,48.0,1685484449.0
186,Anloga,82.2,80.0,11.21,2304548.0,GH,0.8973,5.7947,26.0,1685484451.0
187,Chui,57.07,85.0,5.7,3443061.0,UY,-53.4616,-33.6971,100.0,1685484453.0
188,Nishihara,81.68,83.0,18.41,1855342.0,JP,127.7558,26.1842,75.0,1685484455.0
189,Bariloche,47.95,71.0,23.02,7647007.0,AR,-71.3082,-41.1456,75.0,1685484337.0
190,Kristianstad,53.74,62.0,4.61,2699310.0,SE,14.1524,56.0313,0.0,1685484459.0
191,Cabo San Lucas,83.17,63.0,13.82,3985710.0,MX,-109.9124,22.8909,0.0,1685484195.0
192,Hunchun,58.89,52.0,2.75,2036653.0,CN,130.3581,42.8675,86.0,1685484463.0
193,Aykhal,32.22,74.0,15.66,2027296.0,RU,111.5,66.0,55.0,1685484466.0
194,Nchelenge,73.62,60.0,5.12,175499.0,ZM,28.734,-9.3451,88.0,1685484468.0
195,Hobyo,82.51,80.0,24.76,57000.0,SO,48.5268,5.3505,82.0,1685484470.0
196,Pechenga,47.39,60.0,12.21,511865.0,RU,31.1703,69.5259,100.0,1685484472.0
197,Hambantota,79.79,86.0,11.39,1244926.0,LK,81.1185,6.1241,82.0,1685484474.0
198,Lompoc,61.21,74.0,11.01,5367788.0,US,-120.4579,34.6391,100.0,1685484320.0
199,Hasaki,64.8,75.0,17.56,2112802.0,JP,140.8333,35.7333,100.0,1685484478.0
200,Departamento de Maldonado,55.11,86.0,5.28,3441890.0,UY,-54.9167,-34.6667,66.0,1685484480.0
201,Naze,74.44,92.0,5.82,1855540.0,JP,129.4833,28.3667,94.0,1685484482.0
202,Nikolskoye,44.49,84.0,5.32,546105.0,RU,30.7861,59.7035,7.0,1685484485.0
203,Dul'durga,55.56,31.0,8.7,2024812.0,RU,113.5931,50.6761,100.0,1685484487.0
204,Leh,43.66,82.0,2.95,1264976.0,IN,77.5833,34.1667,100.0,1685484489.0
205,Lata,61.92,98.0,2.15,2738381.0,PT,-8.3327,40.1629,82.0,1685484371.0
206,Tiksi,30.13,79.0,4.47,2015306.0,RU,128.8694,71.6872,9.0,1685484494.0
207,Qaanaaq,20.14,73.0,3.2,3831208.0,GL,-69.3632,77.484,0.0,1685484496.0
208,Ilulissat,33.82,93.0,0.0,3423146.0,GL,-51.1,69.2167,100.0,1685484498.0
209,Saint-Augustin,48.74,94.0,11.77,6137462.0,CA,-58.6502,51.226,100.0,1685484500.0
210,Saskylakh,35.2,68.0,6.44,2017155.0,RU,114.0833,71.9167,77.0,1685484502.0
211,Tessalit,89.64,23.0,9.24,2449893.0,ML,1.0114,20.1986,67.0,1685484505.0
212,Rayong,80.29,83.0,4.38,1607016.0,TH,101.4333,12.8333,98.0,1685484507.0
213,Sur,89.67,52.0,14.05,286245.0,OM,59.5289,22.5667,0.0,1685484509.0
214,Bereket,84.58,10.0,13.51,161974.0,TM,55.5154,39.2446,86.0,1685484512.0
215,Staraya Kulatka,67.06,65.0,7.0,489164.0,RU,47.6167,52.7167,96.0,1685484514.0
216,Roswell,78.19,56.0,6.91,4219934.0,US,-84.3616,34.0232,100.0,1685484372.0
217,Santa Luzia,67.1,77.0,6.98,3450144.0,BR,-43.8514,-19.7697,89.0,1685484518.0
218,São Filipe,75.85,73.0,10.4,3374210.0,CV,-24.4956,14.8961,100.0,1685484520.0
219,San Luis,55.62,55.0,3.65,3837056.0,AR,-66.3356,-33.295,100.0,1685484505.0
220,Fairbanks,45.72,93.0,10.36,5861897.0,US,-147.7164,64.8378,100.0,1685484302.0
221,Sibolga,76.41,90.0,2.26,1213855.0,ID,98.7792,1.7427,100.0,1685484526.0
222,Pahrump,84.63,16.0,14.0,5509851.0,US,-115.9839,36.2083,91.0,1685484528.0
223,Narsaq,46.62,89.0,1.77,3421719.0,GL,-46.05,60.9167,100.0,1685484530.0
224,Hamilton,83.03,51.0,12.66,4513583.0,US,-84.5333,39.1834,40.0,1685484533.0
225,Fortuna,57.33,81.0,12.66,5563839.0,US,-124.1573,40.5982,100.0,1685484535.0
226,Ayan,42.24,89.0,15.35,2027316.0,RU,138.1667,56.45,100.0,1685484537.0
227,El Dorado,66.09,63.0,1.99,5345659.0,US,-120.5177,38.7666,49.0,1685484539.0
228,Leonidovo,44.6,84.0,7.07,2123805.0,RU,142.8667,49.2833,100.0,1685484541.0
229,Chicama,73.94,70.0,9.37,3698359.0,PE,-79.1469,-7.8447,11.0,1685484543.0
230,Umluj,83.1,49.0,4.74,100926.0,SA,37.2685,25.0213,0.0,1685484545.0
231,Acapulco de Juárez,91.22,66.0,5.75,3533462.0,MX,-99.8901,16.8634,40.0,1685484318.0
232,Santa Maria,57.76,92.0,3.29,3450083.0,BR,-53.8069,-29.6842,2.0,1685484550.0
233,Ubinskoye,53.55,55.0,3.8,1488708.0,RU,79.6802,55.3068,3.0,1685484552.0
234,Flinders,62.22,67.0,7.0,6255012.0,AU,150.8552,-34.5833,85.0,1685484554.0
235,Broome,80.56,36.0,6.91,5110365.0,US,-75.833,42.2506,0.0,1685484556.0
236,Mossamedes,65.91,70.0,6.35,3347019.0,AO,12.1522,-15.1961,81.0,1685484559.0
237,Orange Cove,75.74,43.0,6.91,5379533.0,US,-119.3137,36.6244,20.0,1685484561.0
238,Barra Patuca,86.32,69.0,13.11,3614835.0,HN,-84.2833,15.8,93.0,1685484563.0
239,Arlit,91.47,14.0,12.06,2447513.0,NE,7.3853,18.7369,73.0,1685484565.0
240,Chilia Veche,61.65,65.0,8.37,682117.0,RO,29.2833,45.4167,40.0,1685484567.0
241,Conde,78.26,83.0,6.91,3385077.0,BR,-34.9075,-7.2597,0.0,1685484569.0
242,Bulungu,73.29,82.0,1.83,2316259.0,CD,18.6,-4.55,42.0,1685484572.0
243,Baker City,74.91,38.0,6.91,5712169.0,US,-117.8344,44.7749,0.0,1685484574.0
244,Rājākhera,86.4,40.0,7.43,1258930.0,IN,78.1714,26.8961,13.0,1685484576.0
245,Portland,67.91,43.0,8.05,5746545.0,US,-122.6762,45.5234,20.0,1685484565.0
246,Birkeland,56.8,64.0,8.05,3161532.0,NO,8.2323,58.3309,38.0,1685484580.0
247,Dvinskoy Bereznik,47.53,70.0,4.05,577240.0,RU,42.7072,62.8551,93.0,1685484582.0
248,Jalingo,82.18,61.0,3.49,2336589.0,NG,11.3667,8.8833,37.0,1685484584.0
249,Yar-Sale,47.71,87.0,15.79,1486321.0,RU,70.8333,66.8333,100.0,1685484587.0
250,Tafresh,69.17,42.0,0.98,113636.0,IR,50.013,34.692,96.0,1685484589.0
251,Homer,48.74,66.0,8.01,5864145.0,US,-151.5483,59.6425,100.0,1685484591.0
252,Mandalgovi,44.28,65.0,16.15,2030065.0,MN,106.2708,45.7625,50.0,1685484547.0
253,Kibala,82.56,57.0,4.43,2425791.0,TD,18.3463,9.1104,76.0,1685484595.0
254,Ulladulla,55.72,77.0,5.82,2145554.0,AU,150.4667,-35.35,81.0,1685484597.0
255,Sitka,46.29,87.0,12.66,5557293.0,US,-135.33,57.0531,100.0,1685484599.0
256,Leningradskiy,33.69,92.0,25.72,2123814.0,RU,178.4167,69.3833,99.0,1685484602.0
257,Takāb,58.46,60.0,2.3,113508.0,IR,47.1133,36.4009,54.0,1685484604.0
258,Tarancón,57.85,80.0,1.01,3108317.0,ES,-3.0073,40.0085,87.0,1685484606.0
259,Goderich,71.91,71.0,5.44,5962442.0,CA,-81.7165,43.7501,12.0,1685484609.0
260,Rosa Zarate,82.02,82.0,1.57,3652257.0,EC,-79.4667,0.3333,85.0,1685484611.0
261,Luganville,79.61,69.0,10.07,2136150.0,VU,167.1667,-15.5333,100.0,1685484614.0
262,Druzhba,55.49,67.0,5.5,709584.0,UA,33.9453,52.0428,52.0,1685484616.0
263,Valea lui Mihai,65.91,90.0,7.92,663692.0,RO,22.15,47.5167,26.0,1685484618.0
264,Ancud,51.98,92.0,15.66,3899695.0,CL,-73.8203,-41.8697,100.0,1685484620.0
265,Matagami,86.74,30.0,9.6,6067747.0,CA,-77.6328,49.7502,20.0,1685484430.0
266,Peniche,61.11,91.0,5.91,2264923.0,PT,-9.3811,39.3558,11.0,1685484625.0
267,Miraflores,77.47,25.0,2.68,3761194.0,MX,-98.8083,19.2167,12.0,1685484627.0
268,Lebu,52.77,93.0,16.02,3883457.0,CL,-73.65,-37.6167,100.0,1685484629.0
269,Crawley,53.58,77.0,19.57,2652053.0,GB,-0.1831,51.113,75.0,1685484636.0
270,Khonsa,70.02,78.0,3.33,1266668.0,IN,95.5667,27.0167,75.0,1685484638.0
271,Yumen,51.94,19.0,5.26,1528998.0,CN,97.2,40.2833,48.0,1685484640.0
272,Bubaque,82.2,86.0,12.77,2374583.0,GW,-15.8333,11.2833,74.0,1685484435.0
273,Ribas do Rio Pardo,63.97,98.0,3.76,3451399.0,BR,-53.7592,-20.4431,100.0,1685484645.0
274,Malbork,45.79,94.0,5.17,3092472.0,PL,19.0266,54.0359,4.0,1685484647.0
275,Saint-Leu,65.95,89.0,6.62,6690297.0,RE,55.2833,-21.15,3.0,1685484649.0
276,Arkhara,53.69,55.0,9.22,2027487.0,RU,130.0842,49.4212,73.0,1685484651.0
277,Tura,77.58,66.0,4.14,1254046.0,IN,90.2201,25.5198,100.0,1685484653.0
278,Ingham,86.38,35.0,5.75,4997130.0,US,-84.3833,42.6,0.0,1685484655.0
279,Sarandi,59.27,95.0,5.59,3447998.0,BR,-51.8739,-23.4436,100.0,1685484657.0
280,Biak,75.79,85.0,6.51,1637001.0,ID,122.8766,-0.9131,75.0,1685484660.0
281,Nieuw Amsterdam,76.55,93.0,0.0,3383434.0,SR,-55.0833,5.8833,40.0,1685484662.0
282,Boundiali,80.91,68.0,6.71,2290836.0,CI,-6.4869,9.5217,94.0,1685484664.0
283,Aitape,79.95,86.0,3.24,2101169.0,PG,142.3475,-3.1374,64.0,1685484666.0
284,Manadhoo,83.66,77.0,8.37,1337618.0,MV,73.3833,5.7667,48.0,1685484668.0
285,Ca Mau,79.34,86.0,4.59,1586443.0,VN,105.15,9.1769,99.0,1685484670.0
286,San Patricio,85.95,58.0,12.68,4726521.0,US,-97.5169,28.017,83.0,1685484673.0
287,Portree,45.52,90.0,7.58,2640006.0,GB,-6.1942,57.4129,34.0,1685484675.0
288,Srednekolymsk,54.3,58.0,16.89,2121025.0,RU,153.6833,67.45,76.0,1685484682.0
289,Zhangaözen,82.0,12.0,21.05,607610.0,KZ,52.8,43.3,76.0,1685484684.0
290,Mayo,72.01,57.0,9.22,4362001.0,US,-76.5119,38.8876,0.0,1685484686.0
291,Hualmay,72.07,75.0,12.28,3939761.0,PE,-77.6139,-11.0964,5.0,1685484689.0
292,Púchov,54.09,82.0,5.75,3057963.0,SK,18.326,49.1249,4.0,1685484691.0
293,Hong Kong,86.02,95.0,4.74,1819729.0,HK,114.1577,22.2855,31.0,1685484549.0
294,Dzilam González,84.67,69.0,9.8,3529654.0,MX,-88.9333,21.2833,58.0,1685484695.0
295,Sistranda,48.16,94.0,37.58,3139597.0,NO,8.834,63.7256,100.0,1685484697.0
296,Ondjiva,61.93,36.0,3.22,3346821.0,AO,15.7333,-17.0667,33.0,1685484699.0
297,Taguatinga,80.6,37.0,4.5,6319623.0,BR,-46.5711,-12.3857,27.0,1685484701.0
298,Evensk,54.03,45.0,12.84,2125693.0,RU,159.2333,61.95,45.0,1685484703.0
299,Katsuura,61.68,92.0,20.67,2112309.0,JP,140.3,35.1333,100.0,1685484564.0
300,Ambovombe,67.96,83.0,11.45,1079048.0,MG,46.0833,-25.1667,0.0,1685484708.0
301,Pisco,71.65,64.0,13.8,3932145.0,PE,-76.2167,-13.7,20.0,1685484478.0
302,Lala,76.77,93.0,1.83,1707944.0,PH,123.7458,7.9745,100.0,1685484712.0
303,East London,62.94,83.0,5.7,1006984.0,ZA,27.9116,-33.0153,100.0,1685484714.0
304,Nyurba,47.93,82.0,10.47,2018735.0,RU,118.3319,63.2842,95.0,1685484716.0
305,Baykit,50.29,78.0,4.05,1510689.0,RU,96.37,61.67,24.0,1685484718.0
306,Muyezerskiy,41.34,76.0,6.67,524100.0,RU,31.65,63.9333,28.0,1685484721.0
307,Umarkot,84.42,41.0,18.66,1162959.0,PK,69.7362,25.3616,99.0,1685484723.0
308,Paamiut,38.8,94.0,17.31,3421193.0,GL,-49.6678,61.994,100.0,1685484725.0
309,Gberia Fotombu,75.6,92.0,5.26,2409019.0,SL,-11.1667,9.8833,99.0,1685484727.0
310,Auki,77.41,87.0,6.62,2109701.0,SB,160.7034,-8.7676,100.0,1685484729.0
311,Timmins,85.5,23.0,8.05,6166739.0,CA,-81.3331,48.4669,8.0,1685484440.0
312,Pachino,65.98,77.0,6.22,6539213.0,IT,15.0907,36.7186,16.0,1685484734.0
313,Arrondissement d'Arcachon,66.27,88.0,1.14,6621469.0,FR,-1.0519,44.5875,0.0,1685484736.0
314,Avera,79.81,54.0,8.12,4231997.0,US,-82.5271,33.194,54.0,1685484738.0
315,Bonthe,80.64,84.0,6.22,2409914.0,SL,-12.505,7.5264,98.0,1685484740.0
316,Songjianghe,53.1,56.0,3.91,2034691.0,CN,127.479,42.1859,100.0,1685484742.0
317,Salisbury,54.61,76.0,14.97,2638664.0,GB,-1.7957,51.0693,100.0,1685484457.0
318,Xi'an,68.45,81.0,2.08,1790630.0,CN,108.9286,34.2583,93.0,1685484747.0
319,Touros,78.91,77.0,15.61,3386213.0,BR,-35.4608,-5.1989,15.0,1685484749.0
320,Boda,72.39,82.0,4.16,2388614.0,CF,17.4695,4.3189,24.0,1685484751.0
321,Mayumba,75.34,91.0,5.91,2399001.0,GA,10.6554,-3.432,10.0,1685484754.0
322,Chul'man,47.86,68.0,4.94,2025261.0,RU,124.9104,56.8479,29.0,1685484756.0
323,Tambacounda,100.45,34.0,6.91,2244991.0,SN,-13.7586,13.7539,0.0,1685484758.0
324,Bushehr,86.95,63.0,4.92,139817.0,IR,50.8385,28.9684,97.0,1685484760.0
325,Port Hardy,55.58,58.0,11.5,6111862.0,CA,-127.4199,50.6996,75.0,1685484762.0
326,Shashi,69.08,90.0,6.38,1795816.0,CN,112.2447,30.3072,3.0,1685484764.0
327,Grand-Lahou,79.41,88.0,4.34,2288105.0,CI,-5.0242,5.1367,27.0,1685484766.0
328,State College,77.65,38.0,6.91,5213681.0,US,-77.86,40.7934,0.0,1685484773.0
329,Teguise,66.42,73.0,2.3,2510573.0,ES,-13.564,29.0605,20.0,1685484776.0
330,Magdagachi,48.24,90.0,3.65,2020591.0,RU,125.8,53.45,91.0,1685484778.0
331,Gaozhou,78.42,87.0,1.83,1810295.0,CN,110.8461,21.9392,59.0,1685484780.0
332,Meulaboh,76.32,89.0,3.38,1214488.0,ID,96.1285,4.1363,100.0,1685484782.0
333,Río Gallegos,50.2,70.0,12.84,3838859.0,AR,-69.2181,-51.6226,5.0,1685484500.0
334,Chaihe,53.26,54.0,4.72,2038198.0,CN,129.7,44.7667,6.0,1685484786.0
335,Nikel,42.98,61.0,6.73,522260.0,RU,30.222,69.4128,100.0,1685484788.0
336,Beringovskiy,46.04,52.0,8.46,2126710.0,RU,179.3167,63.05,6.0,1685484791.0
337,Coyhaique,53.55,76.0,3.44,3894426.0,CL,-72.0662,-45.5752,75.0,1685484537.0
338,Vardø,42.78,81.0,1.14,777019.0,NO,31.1107,70.3705,75.0,1685484795.0
339,Talnakh,42.21,72.0,11.68,1490256.0,RU,88.3972,69.4865,94.0,1685484797.0
340,Faya,61.32,69.0,6.31,110690.0,SA,42.4509,18.3851,96.0,1685484799.0
341,Znamenskoye,53.73,96.0,3.76,1485020.0,RU,73.8282,57.1281,79.0,1685484801.0
342,Manavgat,65.21,83.0,2.01,304854.0,TR,31.4431,36.7867,34.0,1685484803.0
343,Cairns,71.31,78.0,10.36,2172797.0,AU,145.7667,-16.9167,41.0,1685484573.0
344,Klaksvík,49.12,81.0,19.37,2618795.0,FO,-6.589,62.2266,86.0,1685484808.0
345,Fonte Boa,77.56,94.0,3.33,6319315.0,BR,-66.2662,-2.4959,97.0,1685484810.0
346,Piaçabuçu,77.14,82.0,10.36,3454005.0,BR,-36.4344,-10.4056,18.0,1685484812.0
347,Havøysund,39.43,97.0,11.01,779622.0,NO,24.6622,70.9963,100.0,1685484814.0
348,Boden,51.8,71.0,12.3,606531.0,SE,21.6886,65.8252,100.0,1685484816.0
349,Nhulunbuy,70.41,83.0,6.91,2064735.0,AU,136.7667,-12.2333,40.0,1685484819.0
350,Kamenka,57.02,98.0,8.9,553766.0,RU,42.7678,51.3223,97.0,1685484821.0
351,Kazachinskoye,51.12,86.0,3.24,1504075.0,RU,93.2761,57.6953,100.0,1685484828.0
352,Geraldton,63.01,94.0,11.5,2070998.0,AU,114.6,-28.7667,75.0,1685484830.0
353,Maxixe,68.04,80.0,5.39,1039536.0,MZ,35.3472,-23.8597,34.0,1685484832.0
354,Leon Valley,87.06,55.0,9.22,4705923.0,US,-98.6186,29.4952,40.0,1685484834.0
355,Nome,42.87,61.0,11.5,5870133.0,US,-165.4064,64.5011,40.0,1685484836.0
356,Manokwari,80.49,75.0,1.66,1636308.0,ID,134.0833,-0.8667,33.0,1685484838.0
357,Grand-Santi,75.47,97.0,3.09,3381538.0,GF,-54.3833,4.25,63.0,1685484840.0
358,Faanui,78.89,80.0,10.94,4034551.0,PF,-151.75,-16.4833,11.0,1685484843.0
359,Clyde River,28.42,85.0,14.9,5924351.0,CA,-68.5914,70.4692,100.0,1685484845.0
360,Kosa,56.71,67.0,4.56,544318.0,RU,54.9977,59.9445,94.0,1685484847.0
361,Blackwater,57.94,52.0,3.6,2175403.0,AU,148.8833,-23.5833,0.0,1685484849.0
362,Assiniboia,67.82,49.0,18.41,5887798.0,CA,-105.9845,49.6334,68.0,1685484852.0
363,Bambous Virieux,73.65,78.0,5.75,1106677.0,MU,57.7575,-20.3428,75.0,1685484855.0
364,Arona,62.53,81.0,3.44,2521582.0,ES,-16.681,28.0996,75.0,1685484571.0
365,Belyy Yar,48.09,100.0,0.0,1510377.0,RU,91.3903,53.6039,20.0,1685484859.0
366,San Miguel,91.22,45.0,3.71,3583446.0,SV,-88.1833,13.4833,89.0,1685484861.0
367,Maniitsoq,38.73,84.0,15.48,3421982.0,GL,-52.9,65.4167,100.0,1685484863.0
368,Freeport,64.38,62.0,12.66,5117949.0,US,-73.5832,40.6576,0.0,1685484624.0
369,Constitución,54.72,63.0,3.02,3893726.0,CL,-72.4167,-35.3333,96.0,1685484868.0
370,Tarakan,74.7,94.0,2.3,1624725.0,ID,117.6333,3.3,40.0,1685484870.0
371,Nirmal,89.58,38.0,7.47,1261288.0,IN,78.35,19.1,99.0,1685484872.0
372,Zmeinogorsk,45.55,79.0,2.53,1485042.0,RU,82.195,51.1567,0.0,1685484874.0
373,Valparaíso,57.61,81.0,5.75,3868626.0,CL,-71.6273,-33.0393,100.0,1685484876.0
374,Caravelas,74.64,75.0,11.32,3466980.0,BR,-39.2481,-17.7125,4.0,1685484878.0
375,Torbay,43.36,74.0,6.91,6167817.0,CA,-52.7314,47.6666,40.0,1685484880.0
376,Le Port,66.33,89.0,3.91,935616.0,RE,55.2919,-20.9373,6.0,1685484883.0
377,Kumul,61.9,32.0,15.26,1529484.0,CN,93.45,42.8,77.0,1685484885.0
378,Inverell,47.66,87.0,2.21,2162662.0,AU,151.1167,-29.7833,2.0,1685484887.0
379,Tortolì,66.02,82.0,10.36,2522890.0,IT,9.6572,39.9256,20.0,1685484889.0
380,Beipiao,66.06,40.0,4.61,2038342.0,CN,120.7792,41.7919,97.0,1685484891.0
381,Novo Aripuanã,80.13,81.0,1.72,3663142.0,BR,-60.3797,-5.1206,85.0,1685484893.0
382,Akdepe,66.29,18.0,10.92,601551.0,TM,59.3788,42.0551,8.0,1685484895.0
383,Pangnirtung,33.8,100.0,4.61,6096551.0,CA,-65.7125,66.1451,100.0,1685484897.0
384,Komatipoort,64.06,92.0,0.78,988290.0,ZA,31.9548,-25.4332,7.0,1685484899.0
385,Kailua,82.29,68.0,11.5,5847486.0,US,-157.7394,21.4022,40.0,1685484902.0
386,Massakory,95.04,32.0,4.18,2428228.0,TD,15.7293,12.996,93.0,1685484635.0
387,Byron Bay,55.71,66.0,4.12,2172880.0,AU,153.6167,-28.65,1.0,1685484907.0
388,Dawson Creek,60.44,41.0,6.91,5935804.0,CA,-120.2362,55.7666,75.0,1685484802.0
389,Port-Gentil,78.69,86.0,13.53,2396518.0,GA,8.7815,-0.7193,20.0,1685484911.0
390,Augusto Corrêa,75.42,98.0,3.33,3406961.0,BR,-46.635,-1.0217,75.0,1685484913.0
391,Araouane,92.48,24.0,10.42,2460954.0,ML,-3.5265,18.9048,49.0,1685484915.0
392,Coahuayana Viejo,91.13,49.0,9.51,4013679.0,MX,-103.6833,18.7333,0.0,1685484918.0
393,Mount Gambier,57.27,89.0,11.12,2156643.0,AU,140.7667,-37.8333,100.0,1685484920.0
394,Swan River,75.09,57.0,4.61,6160362.0,CA,-101.2676,52.1058,28.0,1685484922.0
395,Bima,73.44,95.0,4.16,1648759.0,ID,118.7167,-8.4667,66.0,1685484924.0
396,Cherskiy,37.76,85.0,10.94,2126199.0,RU,161.3,68.75,100.0,1685484926.0
397,Adrar,86.56,24.0,12.39,2381972.0,MR,-10.0711,20.5022,100.0,1685484929.0
398,Egvekinot,36.27,73.0,3.0,4031742.0,RU,-179.1667,66.3167,60.0,1685484931.0
399,Comodoro Rivadavia,62.46,45.0,12.66,3860443.0,AR,-67.5,-45.8667,0.0,1685484933.0
400,Volchikha,52.03,65.0,3.27,1486983.0,RU,80.3833,52.0333,1.0,1685484935.0
401,Paita,76.59,73.0,15.23,3694112.0,PE,-81.1144,-5.0892,0.0,1685484937.0
402,Calama,68.49,10.0,14.97,3897347.0,CL,-68.9333,-22.4667,0.0,1685484848.0
403,Abalak,55.83,61.0,4.94,1512223.0,RU,68.5944,58.1286,1.0,1685484742.0
404,Atar,91.98,22.0,10.4,2381334.0,MR,-13.0499,20.5169,65.0,1685484943.0
405,Venado Tuerto,56.77,68.0,7.65,3833062.0,AR,-61.9688,-33.7456,53.0,1685484946.0
406,Ostrovnoy,43.18,86.0,6.78,556268.0,RU,39.5131,68.0531,95.0,1685484948.0
407,Praia,77.54,61.0,19.57,3374333.0,CV,-23.5087,14.9215,0.0,1685484950.0
408,Campoverde,85.69,93.0,3.18,3733380.0,PE,-74.8058,-8.4753,44.0,1685484952.0
409,Peebles,53.2,80.0,3.0,2640526.0,GB,-3.1888,55.6519,15.0,1685484954.0
410,Ngunguru,58.91,84.0,8.46,2186111.0,NZ,174.5,-35.6167,79.0,1685484956.0
411,Haines Junction,53.55,28.0,10.36,5969025.0,CA,-137.5108,60.7522,100.0,1685484958.0
412,Chernyshevsk,48.58,50.0,7.81,2025458.0,RU,117.0174,52.5243,96.0,1685484960.0
413,Makiyivka,61.16,96.0,2.82,702320.0,UA,37.9258,48.0478,100.0,1685484963.0
414,Petropavlovsk-Kamchatskiy,45.19,81.0,15.66,2122104.0,RU,158.6483,53.0452,75.0,1685484965.0
415,Los Llanos de Aridane,64.13,68.0,6.91,2514651.0,ES,-17.9182,28.6585,75.0,1685484967.0
416,Nuevo Progreso,87.89,57.0,1.99,3522526.0,MX,-97.95,23.1667,10.0,1685484969.0
417,Norsup,79.88,65.0,16.6,2135517.0,VU,167.3833,-16.0667,99.0,1685484971.0
418,Yulara,49.55,57.0,5.48,6355222.0,AU,130.9889,-25.2406,0.0,1685484973.0
419,Hohhot,55.69,94.0,2.24,2036892.0,CN,111.6522,40.8106,100.0,1685484976.0
420,Bowen,66.87,79.0,11.92,2174444.0,AU,148.2333,-20.0167,93.0,1685484978.0
421,Smoky Lake,71.92,43.0,5.75,6150293.0,CA,-112.4686,54.1169,19.0,1685484959.0
422,Angoram,77.38,95.0,2.68,2100765.0,PG,144.0661,-4.0625,50.0,1685484982.0
423,Itarema,78.94,83.0,12.21,3393692.0,BR,-39.9167,-2.9248,40.0,1685484820.0
424,La Asuncion,87.53,66.0,11.5,3480908.0,VE,-63.8628,11.0333,100.0,1685484884.0
425,Berlevåg,41.07,75.0,3.44,780687.0,NO,29.0864,70.8578,100.0,1685484988.0
426,Ambilobe,70.34,91.0,3.44,1082243.0,MG,49.05,-13.2,0.0,1685484991.0
427,Teya,49.8,68.0,2.19,1489656.0,RU,92.6267,60.3778,32.0,1685484993.0
428,Máncora,80.87,66.0,8.5,3695000.0,PE,-81.0475,-4.1078,4.0,1685484995.0
429,Crotone,65.19,84.0,5.59,2524881.0,IT,17.1178,39.0851,42.0,1685484997.0
430,Sechura,82.13,59.0,14.76,3691954.0,PE,-80.8222,-5.5569,2.0,1685484999.0
431,Tarko-Sale,57.29,88.0,13.51,1490085.0,RU,77.785,64.9225,53.0,1685485002.0
432,Yerofey Pavlovich,44.53,80.0,4.38,2012938.0,RU,121.9667,53.9667,29.0,1685485004.0
433,Doha,92.43,38.0,16.11,290030.0,QA,51.5333,25.2867,0.0,1685484879.0
434,Palmer,72.55,34.0,5.75,4946620.0,US,-72.3287,42.1584,20.0,1685485008.0
435,Darhan,51.66,94.0,8.55,2031964.0,MN,105.9228,49.4867,100.0,1685485010.0
436,Rantauprapat,72.88,96.0,2.53,1214073.0,ID,99.8333,2.1,99.0,1685485012.0
437,Arroyo de la Encomienda,59.56,83.0,1.14,3129371.0,ES,-4.7969,41.6096,0.0,1685485014.0
438,Keetmanshoop,47.34,87.0,8.05,3356264.0,NA,18.1333,-26.5833,2.0,1685485016.0
439,Staryy Nadym,53.51,90.0,13.91,1490918.0,RU,72.6842,65.6118,100.0,1685485019.0
440,Beloha,65.32,87.0,9.51,1067565.0,MG,45.05,-25.1667,1.0,1685485021.0
441,Kelvington,77.11,35.0,4.32,5990669.0,CA,-103.5343,52.1667,1.0,1685485023.0
442,Munger,91.44,31.0,2.59,1262482.0,IN,86.4667,25.3833,10.0,1685485025.0
443,Grindavik,45.07,87.0,11.5,3416888.0,IS,-22.4338,63.8424,100.0,1685485027.0
444,Kangaatsiaq,34.18,88.0,25.46,3422683.0,GL,-53.4641,68.3065,100.0,1685485029.0
445,Omsukchan,52.05,36.0,5.55,2122493.0,RU,155.8,62.5333,55.0,1685485032.0
446,Quzhou,76.08,96.0,5.77,1797264.0,CN,118.8686,28.9594,35.0,1685485034.0
447,Neijiang,77.54,86.0,1.1,1799491.0,CN,105.0622,29.5835,2.0,1685485036.0
448,Bonavista,42.91,73.0,19.66,5905393.0,CA,-53.1147,48.6499,39.0,1685485038.0
449,Pauini,78.55,83.0,2.91,3662927.0,BR,-66.9764,-7.7136,99.0,1685485040.0
450,Poso,76.89,81.0,3.96,1630723.0,ID,120.7524,-1.3959,60.0,1685485042.0
451,Hervey Bay,59.63,76.0,7.14,2146219.0,AU,152.8535,-25.2986,1.0,1685485044.0
452,Gambēla,74.86,77.0,4.92,337405.0,ET,34.5833,8.25,100.0,1685485046.0
453,Hede,65.25,90.0,4.88,1808744.0,CN,120.2517,33.7681,32.0,1685485007.0
454,Alice Springs,38.75,87.0,3.67,2077895.0,AU,133.8833,-23.7,1.0,1685484912.0
455,Tazmalt,62.24,83.0,3.6,2477537.0,DZ,4.3989,36.3868,100.0,1685485053.0
456,Mangaratiba,68.86,81.0,4.12,3457991.0,BR,-44.0406,-22.9597,87.0,1685484874.0
457,Porto-Novo,82.22,81.0,8.3,2392087.0,BJ,2.6036,6.4965,66.0,1685485057.0
458,Sabha,83.89,15.0,7.45,2212775.0,LY,14.4283,27.0377,3.0,1685485059.0
459,Salinópolis,79.02,87.0,10.54,3389822.0,BR,-47.3561,-0.6136,92.0,1685485061.0
460,Riyadh,86.14,61.0,26.69,108410.0,SA,46.7219,24.6877,96.0,1685484912.0
461,Jönköping,53.31,66.0,5.75,2702979.0,SE,14.1562,57.7814,0.0,1685485065.0
462,Yatou,64.17,60.0,3.49,1786855.0,CN,122.3833,37.15,42.0,1685485069.0
463,Jaru,76.01,91.0,3.18,3925040.0,BR,-62.4664,-10.4389,90.0,1685485071.0
464,Yashan,77.61,87.0,2.82,1786867.0,CN,109.9419,22.1975,81.0,1685485073.0
465,Bamiantong,55.4,55.0,5.23,2038482.0,CN,130.5333,44.9333,0.0,1685485075.0
466,Boa Vista,85.98,62.0,4.61,3664980.0,BR,-60.6733,2.8197,40.0,1685485077.0
467,Barra do Bugres,69.31,91.0,4.36,3470718.0,BR,-57.1811,-15.0725,90.0,1685485079.0
468,Butembo,56.44,96.0,3.53,217562.0,CD,29.2833,0.15,7.0,1685485081.0
469,Talaya,51.94,54.0,2.68,2120769.0,RU,152.75,61.3833,65.0,1685485083.0
470,Vengurla,81.37,85.0,2.98,1253257.0,IN,73.6333,15.8667,47.0,1685485086.0
471,Maracaçumé,75.18,98.0,3.58,3395497.0,BR,-45.9592,-2.0428,65.0,1685485088.0
472,Nouadhibou,69.78,68.0,14.97,2377457.0,MR,-17.0347,20.931,37.0,1685485090.0
473,La Celia,72.99,96.0,3.09,3679542.0,CO,-76.0167,5.0433,97.0,1685485092.0
474,Lüderitz,55.74,88.0,10.33,3355672.0,NA,15.1594,-26.6481,0.0,1685485094.0
475,Carutapera,76.55,95.0,6.26,3402648.0,BR,-46.02,-1.195,69.0,1685485096.0
476,Yauya,59.32,58.0,5.03,3690733.0,PE,-77.3,-8.9833,59.0,1685485098.0
477,Port Said,71.98,71.0,9.82,358619.0,EG,32.2841,31.2565,30.0,1685485100.0
478,Sambava,72.99,88.0,10.92,1056899.0,MG,50.1667,-14.2667,10.0,1685485103.0
479,Kafanchan,75.31,79.0,4.21,2335713.0,NG,8.3,9.5833,41.0,1685485105.0
480,Neftçala,77.11,59.0,4.21,147425.0,AZ,49.2472,39.3742,96.0,1685485107.0
481,Yhú,60.93,96.0,5.26,3436595.0,PY,-55.9167,-25.05,64.0,1685485109.0
482,Necochea,53.8,68.0,10.58,3430443.0,AR,-58.7368,-38.5473,26.0,1685485111.0
483,Muros,59.97,92.0,3.38,3115824.0,ES,-9.0603,42.7762,97.0,1685485113.0
484,Linxia Chengguanzhen,51.3,87.0,6.46,1803331.0,CN,103.2064,35.6003,100.0,1685485115.0
485,Tripoli,68.58,77.0,7.49,2210247.0,LY,13.1875,32.8752,19.0,1685485118.0
486,Ixtapa,83.43,70.0,17.27,4004293.0,MX,-105.2,20.7,20.0,1685485120.0
487,Santiago del Estero,62.38,70.0,4.72,3835869.0,AR,-64.2615,-27.7951,19.0,1685485122.0
488,Uribia,86.83,62.0,8.39,3666409.0,CO,-72.266,11.7139,100.0,1685485124.0
489,Rome,84.2,32.0,3.44,5134295.0,US,-75.4557,43.2128,0.0,1685484866.0
490,Xuanzhou,71.55,97.0,3.8,1788081.0,CN,118.7553,30.9525,100.0,1685485128.0
491,Arrondissement de Muret,62.71,83.0,1.97,2991152.0,FR,1.25,43.3333,100.0,1685485130.0
492,Orlik,41.31,84.0,3.74,1496073.0,RU,99.825,52.5178,100.0,1685485132.0
493,Toyoake,69.55,73.0,3.98,1856057.0,JP,137.0137,35.0594,100.0,1685485134.0
494,Ibrā’,84.25,53.0,2.62,287832.0,OM,58.5334,22.6906,11.0,1685485137.0
495,Ayagoz,45.86,76.0,5.53,1525988.0,KZ,80.4392,47.9714,7.0,1685485139.0
496,Deputatsky,30.42,86.0,6.62,2028164.0,RU,139.9,69.3,100.0,1685485141.0
497,Moyale,66.49,77.0,2.21,186180.0,KE,39.0584,3.5167,41.0,1685485143.0
498,Gresik,75.11,87.0,4.05,1643776.0,ID,112.6561,-7.1539,68.0,1685485145.0
499,Tsushima,69.15,76.0,3.44,1849539.0,JP,136.7167,35.1667,97.0,1685485147.0
500,Boralday,51.66,66.0,0.0,1526384.0,KZ,76.8594,43.3578,0.0,1685485150.0
501,Mahina,80.37,83.0,4.61,4034307.0,PF,-149.489,-17.5065,75.0,1685485152.0
502,Ust-Maya,56.57,62.0,3.67,2013918.0,RU,134.5333,60.4167,100.0,1685485154.0
503,General Pico,57.49,59.0,8.28,3855075.0,AR,-63.7568,-35.6566,83.0,1685485156.0
504,Labuan,79.16,83.0,0.0,1733782.0,MY,115.2417,5.2767,20.0,1685485158.0
505,Saint Anthony,86.0,42.0,16.11,5044290.0,US,-93.218,45.0205,0.0,1685485160.0
506,Iqaluit,36.7,86.0,8.05,5983720.0,CA,-68.5145,63.7506,75.0,1685485162.0
507,Haapiti,81.72,80.0,13.53,4034438.0,PF,-149.8667,-17.5667,6.0,1685485165.0
508,Sarankhola,82.72,83.0,5.39,1185239.0,BD,89.7897,22.3082,10.0,1685485167.0
509,Odienné,82.76,63.0,8.34,2283016.0,CI,-7.5692,9.51,95.0,1685485169.0
510,Miles City,79.77,38.0,5.75,5666176.0,US,-105.8406,46.4083,40.0,1685485172.0
511,Daru,78.6,86.0,15.5,2098329.0,PG,143.2092,-9.0763,62.0,1685485174.0
512,Umm Kaddadah,89.89,32.0,4.54,364933.0,SD,26.6876,13.6017,37.0,1685485176.0
513,Skegness,52.34,76.0,18.23,2637762.0,GB,0.3363,53.1436,100.0,1685485178.0
514,Saint-François,58.44,72.0,4.61,2980080.0,FR,3.9054,46.4154,0.0,1685485180.0
515,Semey,53.58,60.0,4.23,1519422.0,KZ,80.2275,50.4111,0.0,1685485182.0
516,Esperance,60.49,87.0,9.82,2071860.0,AU,121.9,-33.8667,33.0,1685485184.0
517,Selkirk,66.69,81.0,5.01,6144054.0,CA,-96.8845,50.1436,77.0,1685485112.0
518,Mahajanga,77.7,65.0,9.86,1062663.0,MG,46.3167,-15.7167,49.0,1685485188.0
519,Ruwi,100.09,50.0,7.87,287286.0,OM,58.5507,23.5996,1.0,1685485191.0
520,Pucallpa,86.04,70.0,6.91,3693345.0,PE,-74.5539,-8.3791,40.0,1685485193.0
521,Ginda,56.7,80.0,5.97,1253628.0,IN,78.4932,30.6945,92.0,1685485195.0
522,Hare Bay,51.4,56.0,0.89,5970873.0,CA,-54.0148,48.8499,80.0,1685484917.0
523,Kabalo,73.74,56.0,2.95,215668.0,CD,26.9167,-6.05,21.0,1685485199.0
524,Cockburn Town,81.54,81.0,13.15,3576994.0,TC,-71.1419,21.4612,99.0,1685485201.0
525,Kolomyia,55.65,90.0,5.48,705392.0,UA,25.0403,48.5306,81.0,1685485204.0
526,Odawara,61.93,94.0,11.59,1854747.0,JP,139.1597,35.2556,100.0,1685485206.0
527,Santa Cruz de la Sierra,66.25,82.0,9.22,3904906.0,BO,-63.1667,-17.8,75.0,1685484973.0
528,Derzhavīnsk,70.77,46.0,5.32,1524606.0,KZ,66.3167,51.1,37.0,1685485211.0
529,Raduzhny,59.59,76.0,8.23,1540356.0,RU,77.475,62.0961,95.0,1685485213.0
530,Gulariyā,87.19,39.0,5.01,1283368.0,NP,81.3333,28.2333,2.0,1685485215.0
531,Oudtshoorn,54.28,65.0,1.77,967106.0,ZA,22.2014,-33.5907,56.0,1685485218.0
532,Ruteng,60.91,93.0,4.5,1629380.0,ID,120.4721,-8.6136,60.0,1685485220.0
533,Sokolac,52.57,97.0,2.17,3190385.0,BA,18.8017,43.9397,100.0,1685485222.0
534,Jieshi,81.39,78.0,4.5,1805857.0,CN,115.8257,22.8134,2.0,1685485224.0
535,Porto Velho,82.45,78.0,3.44,3662762.0,BR,-63.9039,-8.7619,40.0,1685485226.0
536,Olinda,80.33,74.0,14.97,3393536.0,BR,-34.8553,-8.0089,40.0,1685485229.0
537,Vallenar,69.21,37.0,2.93,3868633.0,CL,-70.7581,-28.5708,100.0,1685485025.0
538,Bud,82.38,55.0,6.24,4255151.0,US,-86.1758,39.447,58.0,1685485233.0
539,Dhārchula,63.73,70.0,6.96,1272864.0,IN,80.5333,29.85,9.0,1685485235.0
540,Mabaruma,79.52,88.0,4.05,3377301.0,GY,-59.7833,8.2,94.0,1685485237.0
541,Nemuro,48.09,83.0,9.71,2128975.0,JP,145.575,43.3236,1.0,1685485239.0
542,Caucayá,79.18,93.0,1.12,3671437.0,CO,-74.7819,-0.1934,81.0,1685485241.0
543,Vanderhoof,63.66,21.0,7.67,6173361.0,CA,-124.0198,54.0166,71.0,1685485244.0
544,Maravilha,61.61,92.0,3.18,3457809.0,BR,-53.1725,-26.7608,100.0,1685485246.0
545,Nanlong,74.03,93.0,5.7,1799908.0,CN,106.0631,31.3533,21.0,1685485248.0
546,Seryshevo,49.01,86.0,0.45,2016942.0,RU,128.3786,51.0933,100.0,1685485250.0
547,Les Cayes,82.98,73.0,7.63,3728097.0,HT,-73.75,18.2,100.0,1685485252.0
548,Lagoa,63.23,84.0,13.2,3372964.0,PT,-27.9833,39.05,0.0,1685485254.0
549,Pacifica,62.62,72.0,16.11,5380420.0,US,-122.4869,37.6138,20.0,1685485061.0
550,Northam,54.82,80.0,14.23,2641434.0,GB,-4.2167,51.0333,0.0,1685485258.0
551,Rio Grande,60.91,87.0,7.45,3451138.0,BR,-52.0986,-32.035,17.0,1685485260.0
552,Gejiu,59.61,92.0,1.39,1810240.0,CN,103.1635,23.306,99.0,1685485262.0
553,Opuwo,57.72,24.0,4.12,3354077.0,NA,13.84,-18.0607,9.0,1685485265.0
554,La Ronge,79.05,18.0,5.75,6050066.0,CA,-105.2842,55.1001,75.0,1685485267.0
555,Yazykovo,64.9,68.0,5.1,468483.0,RU,56.1353,55.2199,100.0,1685485269.0
556,Batticaloa,80.87,79.0,3.91,1250161.0,LK,81.6924,7.7102,100.0,1685485271.0
557,Khasan,56.62,65.0,4.18,2039557.0,RU,130.6434,42.4308,58.0,1685485273.0
558,Kattivākkam,84.07,81.0,9.31,1267433.0,IN,80.3167,13.2167,91.0,1685485275.0
559,Arrondissement de Saint-Denis,61.92,68.0,13.8,2980915.0,FR,2.3333,48.9167,0.0,1685485278.0
560,Ende,76.06,90.0,6.91,1644932.0,ID,121.6623,-8.8432,99.0,1685485280.0
561,Harlingen,84.04,81.0,11.5,4696233.0,US,-97.6961,26.1906,20.0,1685485191.0
562,Zhicheng,70.48,93.0,2.39,1784554.0,CN,111.5047,30.2956,5.0,1685485284.0
563,Havelock,75.79,76.0,11.5,4470244.0,US,-76.9013,34.8791,0.0,1685485286.0
564,Madimba,73.65,90.0,8.1,878141.0,TZ,40.3333,-10.4,83.0,1685485288.0
565,Pacific Grove,62.82,72.0,14.97,5380437.0,US,-121.9166,36.6177,0.0,1685485290.0
566,Esim,79.47,85.0,6.96,2303611.0,GH,-2.2405,4.8699,44.0,1685484998.0
567,Gorontalo,75.24,92.0,2.33,1643837.0,ID,123.0595,0.5412,36.0,1685485295.0
568,Vaitape,78.78,80.0,11.21,4033077.0,PF,-151.75,-16.5167,11.0,1685485297.0
569,Ottawa,80.33,34.0,4.61,6094817.0,CA,-75.6981,45.4112,20.0,1685485152.0
570,Petropavl,60.76,67.0,6.91,1520172.0,KZ,69.1628,54.8753,3.0,1685485301.0
571,Bossangoa,73.89,69.0,3.18,2388036.0,CF,17.4552,6.4926,35.0,1685485303.0
572,Lavrentiya,34.23,70.0,7.94,4031637.0,RU,-171.0,65.5833,78.0,1685485305.0
573,Muskegon,85.3,28.0,6.91,5003136.0,US,-86.1334,43.3,40.0,1685485307.0
574,Lālmohan,83.86,81.0,8.97,1185251.0,BD,90.7419,22.3384,27.0,1685485309.0
575,Gainesville,81.55,61.0,11.5,4156404.0,US,-82.3248,29.6516,100.0,1685485118.0
