,City,Temp_max,Humidity,wind_speed,city_id,country_code,long,lat,Cloudiness,datetime
0,Flin Flon,67.84,88.0,2.3,5954718.0,CA,-101.865,54.7682,100.0,1685815202.0
1,Severo-Kuril'sk,39.52,94.0,37.6,2121385.0,RU,156.125,50.6789,100.0,1685815205.0
2,Codrington,50.04,93.0,10.11,2171099.0,AU,141.9667,-38.2667,73.0,1685815207.0
3,Bredasdorp,53.62,79.0,9.6,1015776.0,ZA,20.0403,-34.5322,56.0,1685815209.0
4,Kindersley,62.62,94.0,6.91,5992154.0,CA,-109.1682,51.4668,100.0,1685815211.0
5,Kavieng,82.17,73.0,4.54,2094342.0,PG,150.7967,-2.5744,100.0,1685815214.0
6,Brae,51.42,85.0,9.64,2654970.0,GB,-1.353,60.3964,55.0,1685815216.0
7,Hithadhoo,82.62,74.0,5.73,1282256.0,MV,73.0833,-0.6,100.0,1685815218.0
8,Ponta Delgada,68.72,83.0,5.75,3372783.0,PT,-25.6667,37.7333,20.0,1685815220.0
9,Kaitangata,40.71,84.0,4.23,2208248.0,NZ,169.8464,-46.2817,100.0,1685815222.0
10,Neiafu,74.08,78.0,0.0,4032420.0,TO,-173.9833,-18.65,75.0,1685815225.0
11,Busselton,62.65,64.0,18.61,2075265.0,AU,115.3333,-33.65,100.0,1685815228.0
12,Kudahuvadhoo,82.56,79.0,15.12,1337607.0,MV,72.8944,2.6708,100.0,1685815230.0
13,Port Macquarie,55.89,94.0,3.38,2152659.0,AU,152.9167,-31.4333,49.0,1685815233.0
14,Jamestown,78.42,57.0,14.97,5122534.0,US,-79.2353,42.097,0.0,1685815208.0
15,Nantucket,51.93,87.0,26.46,4944903.0,US,-70.0995,41.2835,100.0,1685814970.0
16,São João da Barra,80.69,48.0,10.11,3448903.0,BR,-41.0511,-21.6403,3.0,1685815239.0
17,Castlebar,67.24,67.0,5.88,2965654.0,IE,-9.3,53.85,30.0,1685815241.0
18,Katobu,74.79,97.0,4.5,1640972.0,ID,122.5276,-4.9408,95.0,1685815244.0
19,Port Lincoln,60.28,51.0,5.53,2063036.0,AU,135.8667,-34.7333,86.0,1685815246.0
20,Padampur,90.77,31.0,5.01,1260938.0,IN,73.6167,29.6833,17.0,1685815248.0
21,Cayenne,82.44,74.0,3.44,3382160.0,GF,-52.3333,4.9333,75.0,1685815204.0
22,Norman Wells,60.84,48.0,11.5,6089245.0,CA,-126.8329,65.282,20.0,1685815252.0
23,Upernavik,30.38,74.0,12.77,3418910.0,GL,-56.1549,72.7868,81.0,1685815049.0
24,Ushuaia,40.66,81.0,3.44,3833367.0,AR,-68.3,-54.8,0.0,1685815252.0
25,Tasiilaq,33.96,98.0,4.12,3424607.0,GL,-37.6368,65.6145,27.0,1685815259.0
26,Thunder Bay,76.91,57.0,9.22,6166142.0,CA,-89.3168,48.4001,40.0,1685815261.0
27,Provideniya,36.77,82.0,2.08,4031574.0,RU,-173.3,64.3833,64.0,1685815263.0
28,Cap Malheureux,74.46,68.0,1.01,934649.0,MU,57.6142,-19.9842,9.0,1685815265.0
29,West Wendover,67.21,32.0,9.22,5710035.0,US,-114.0733,40.7391,40.0,1685815267.0
30,Tautira,77.18,73.0,6.49,4033557.0,PF,-149.15,-17.7333,60.0,1685815269.0
31,Avarua,64.45,88.0,2.3,4035715.0,CK,-159.775,-21.2078,46.0,1685815272.0
32,Punta Arenas,41.11,87.0,12.66,3874787.0,CL,-70.9167,-53.15,75.0,1685815089.0
33,Ozernovskiy,41.41,86.0,20.58,2122293.0,RU,156.5167,51.5,100.0,1685815276.0
34,Aksu,72.18,30.0,9.46,1529660.0,CN,80.2644,41.1231,100.0,1685815225.0
35,Arrondissement d'Ajaccio,69.78,57.0,6.91,3038333.0,FR,8.9167,42.0,86.0,1685815280.0
36,Cabedelo,86.67,70.0,15.39,3404558.0,BR,-34.8339,-6.9811,7.0,1685815282.0
37,Dikson,30.61,95.0,5.32,1507390.0,RU,80.5464,73.5069,100.0,1685815285.0
38,Hobart,37.85,90.0,12.66,2163355.0,AU,147.3294,-42.8794,11.0,1685815025.0
39,Vestmannaeyjar,49.19,87.0,10.36,3412093.0,IS,-20.2734,63.4427,100.0,1685815289.0
40,Alofi,73.29,94.0,5.75,4036284.0,NU,-169.9187,-19.0595,100.0,1685815291.0
41,Carnarvon,63.16,43.0,11.61,2074865.0,AU,113.6333,-24.8667,0.0,1685815293.0
42,Saint-Philippe,71.19,78.0,15.41,935215.0,RE,55.7679,-21.3585,35.0,1685815295.0
43,Cabra,71.64,48.0,6.2,2520645.0,ES,-4.4421,37.4725,87.0,1685815298.0
44,Feldbach,66.09,76.0,3.87,2779685.0,AT,15.8883,46.9531,54.0,1685815300.0
45,Tual,81.14,81.0,16.49,1623197.0,ID,132.75,-5.6667,82.0,1685815302.0
46,Longyearbyen,35.44,69.0,3.44,2729907.0,SJ,15.6401,78.2186,0.0,1685815304.0
47,Dukat,49.84,69.0,0.94,2125906.0,RU,155.55,62.55,74.0,1685815306.0
48,Jalu,88.05,23.0,11.59,86049.0,LY,21.5482,29.0331,7.0,1685815308.0
49,Vaini,66.36,94.0,5.75,4032243.0,TO,-175.2,-21.2,20.0,1685815310.0
50,Albany,59.2,83.0,9.69,5106841.0,US,-73.9662,42.6001,100.0,1685815231.0
51,Karaton,75.52,93.0,1.03,1630058.0,ID,106.1045,-6.3424,77.0,1685815315.0
52,Saldanha,55.45,75.0,11.25,3361934.0,ZA,17.9442,-33.0117,62.0,1685815317.0
53,Castro,69.08,52.0,6.76,3466704.0,BR,-50.0119,-24.7911,0.0,1685815241.0
54,Inhambane,77.0,83.0,14.38,1045114.0,MZ,35.3833,-23.865,0.0,1685815321.0
55,Mataura,42.1,96.0,2.53,6201424.0,NZ,168.8643,-46.1927,100.0,1685815323.0
56,Puerto Ayora,81.55,88.0,8.99,3652764.0,EC,-90.3518,-0.7393,66.0,1685815097.0
57,Arraial do Cabo,75.06,69.0,8.05,3471451.0,BR,-42.0278,-22.9661,0.0,1685815328.0
58,Obihiro,43.77,92.0,0.58,2128815.0,JP,143.2044,42.9172,38.0,1685815293.0
59,Penzance,65.08,77.0,8.55,2640377.0,GB,-5.5371,50.1186,3.0,1685815332.0
60,Butaritari,83.21,77.0,12.37,2110227.0,KI,172.7902,3.0707,67.0,1685815334.0
61,Rikitea,75.06,66.0,13.38,4030556.0,PF,-134.9692,-23.1203,34.0,1685815336.0
62,Namatanai,78.28,83.0,6.15,2090021.0,PG,152.4333,-3.6667,77.0,1685815338.0
63,Isangel,73.85,79.0,13.15,2136825.0,VU,169.2667,-19.55,58.0,1685815341.0
64,Saint George,83.95,25.0,3.0,5546220.0,US,-113.5841,37.1041,0.0,1685815343.0
65,Kruisfontein,57.88,71.0,22.59,986717.0,ZA,24.7314,-34.0033,100.0,1685815345.0
66,Mwinilunga,62.65,43.0,4.09,902620.0,ZM,24.4293,-11.7358,76.0,1685815347.0
67,Port Alfred,60.19,79.0,5.99,964432.0,ZA,26.891,-33.5906,54.0,1685815349.0
68,Marzuq,82.89,47.0,6.33,72181.0,YE,46.4667,14.4,16.0,1685815351.0
69,Puerto Escondido,90.43,62.0,11.5,3520994.0,MX,-97.0667,15.85,20.0,1685815353.0
70,Sivaki,48.16,89.0,2.95,2016477.0,RU,126.75,52.6333,72.0,1685815356.0
71,Yellowknife,55.92,58.0,9.22,6185377.0,CA,-114.3525,62.456,100.0,1685815098.0
72,Canchungo,91.53,46.0,11.32,2373951.0,GW,-16.0333,12.0672,99.0,1685815360.0
73,Östersund,43.25,39.0,76.01,2685750.0,SE,14.6357,63.1792,40.0,1685815362.0
74,Fort Nelson,59.95,75.0,5.75,5955902.0,CA,-122.7002,58.8053,75.0,1685815364.0
75,Castelo Branco,79.0,48.0,6.89,2269514.0,PT,-7.4909,39.8222,31.0,1685815192.0
76,Black River,85.78,68.0,7.11,3491355.0,JM,-77.8487,18.0264,15.0,1685815368.0
77,Atuona,80.47,80.0,12.64,4020109.0,PF,-139.0333,-9.8,25.0,1685815371.0
78,Birao,84.11,54.0,8.75,240210.0,CF,22.7882,10.2849,79.0,1685815373.0
79,Ekhabi,35.71,96.0,5.1,2122614.0,RU,142.9671,53.5102,100.0,1685815375.0
80,Barrow,33.69,73.0,12.1,5880054.0,US,-156.7887,71.2906,99.0,1685815377.0
81,Hilo,71.65,80.0,5.75,5855927.0,US,-155.09,19.7297,40.0,1685815137.0
82,Mehamn,48.15,71.0,11.5,778707.0,NO,27.8492,71.0357,75.0,1685815381.0
83,Shingū,58.19,69.0,6.24,1847947.0,JP,135.9833,33.7333,0.0,1685815383.0
84,George Town,78.22,95.0,3.44,1735106.0,MY,100.3354,5.4112,40.0,1685815241.0
85,Russell,84.16,48.0,8.05,4047434.0,US,-85.1999,32.3502,20.0,1685815148.0
86,Sidhi,92.93,24.0,4.0,1256369.0,IN,81.8833,24.4167,15.0,1685815390.0
87,Laramie,55.47,50.0,3.76,5830062.0,US,-105.5911,41.3114,100.0,1685815212.0
88,Bluff,45.01,87.0,12.01,2206939.0,NZ,168.3333,-46.6,100.0,1685815394.0
89,Bayir,64.92,80.0,2.84,304183.0,TR,28.2167,37.2687,79.0,1685815396.0
90,Vila Velha,76.95,61.0,10.36,3445026.0,BR,-40.2925,-20.3297,75.0,1685815358.0
91,Kapaa,74.01,87.0,6.91,5848280.0,US,-159.319,22.0752,40.0,1685815400.0
92,Margate,57.79,71.0,13.0,2643044.0,GB,1.3862,51.3813,11.0,1685815387.0
93,Kamaishi,56.79,83.0,8.48,2112444.0,JP,141.8833,39.2667,15.0,1685815303.0
94,Stăncuţa,64.9,55.0,13.87,666309.0,RO,27.8333,44.9,77.0,1685815407.0
95,Ankang,61.92,96.0,2.73,1789065.0,CN,109.0172,32.68,100.0,1685815409.0
96,Port Elizabeth,60.19,77.0,19.57,964420.0,ZA,25.5701,-33.918,20.0,1685815412.0
97,Morant Bay,85.62,67.0,8.25,3489440.0,JM,-76.4093,17.8815,56.0,1685815414.0
98,São Miguel,86.77,67.0,18.68,3388304.0,BR,-35.3667,-5.4667,28.0,1685815416.0
99,Guerrero Negro,66.88,60.0,18.45,4021858.0,MX,-114.0611,27.9769,2.0,1685815418.0
100,Husavik,52.25,67.0,5.17,2629833.0,IS,-17.3389,66.0449,23.0,1685815420.0
101,Ahipara,48.81,77.0,1.86,2194098.0,NZ,173.1667,-35.1667,46.0,1685815423.0
102,Saint Paul Harbor,44.87,86.0,11.92,5866583.0,US,-152.4072,57.79,100.0,1685815244.0
103,Mahébourg,75.49,64.0,12.66,934322.0,MU,57.7,-20.4081,40.0,1685815427.0
104,Mount Isa,51.57,82.0,0.0,2065594.0,AU,139.5,-20.7333,1.0,1685815256.0
105,Te Anau,42.06,97.0,1.23,2181625.0,NZ,167.7167,-45.4167,100.0,1685815431.0
106,Alenquer,89.04,56.0,3.24,3407980.0,BR,-54.7383,-1.9417,48.0,1685815433.0
107,São Miguel do Araguaia,93.58,29.0,4.14,3448455.0,BR,-50.1628,-13.275,14.0,1685815344.0
108,Kriel,60.82,37.0,7.72,987202.0,ZA,29.2253,-26.2739,83.0,1685815437.0
109,Marsh Harbour,81.97,64.0,5.14,3571913.0,BS,-77.0636,26.5412,3.0,1685815439.0
110,Souillac,75.58,64.0,12.66,933995.0,MU,57.5167,-20.5167,40.0,1685815442.0
111,Tigil',40.01,90.0,8.14,2120612.0,RU,158.6667,57.8,9.0,1685815444.0
112,Kaeo,48.78,84.0,2.33,2189343.0,NZ,173.7833,-35.1,28.0,1685815446.0
113,Cape Town,55.78,76.0,3.44,3369157.0,ZA,18.4232,-33.9258,75.0,1685815282.0
114,Cidreira,76.39,46.0,3.31,3466165.0,BR,-50.2056,-30.1811,2.0,1685815450.0
115,Khatanga,35.58,95.0,18.5,2022572.0,RU,102.5,71.9667,100.0,1685815452.0
116,Karlshamn,57.69,57.0,12.33,2701727.0,SE,14.8619,56.1706,55.0,1685815454.0
117,Pevek,29.25,78.0,3.78,2122090.0,RU,170.3133,69.7008,27.0,1685815457.0
118,Mar del Plata,64.94,60.0,6.91,3430863.0,AR,-57.5575,-38.0023,0.0,1685815367.0
119,Gobabis,63.63,20.0,11.3,3357247.0,NA,18.9667,-22.45,0.0,1685815461.0
120,Gaoyou,70.07,50.0,8.84,1810309.0,CN,119.4278,32.7858,99.0,1685815463.0
121,Bethel,64.27,70.0,5.99,5282297.0,US,-73.414,41.3712,100.0,1685815244.0
122,Santa Maria da Vitória,90.7,27.0,7.47,3450063.0,BR,-44.1886,-13.3947,0.0,1685815407.0
123,Banda Aceh,81.25,76.0,14.18,1215502.0,ID,95.3222,5.5577,100.0,1685815469.0
124,Georgiyevka,73.44,33.0,11.18,1524243.0,KZ,74.7114,43.0369,40.0,1685815472.0
125,Zonguldak,58.05,97.0,2.35,737021.0,TR,31.8333,41.25,100.0,1685815474.0
126,Booué,75.81,94.0,2.86,2401495.0,GA,11.9385,-0.0921,96.0,1685815476.0
127,Siyabuswa,66.97,29.0,4.05,955313.0,ZA,29.0445,-25.1132,71.0,1685815478.0
128,Dunedin,46.35,69.0,4.21,2191562.0,NZ,170.5036,-45.8742,100.0,1685815480.0
129,Roald,48.51,81.0,3.44,3141667.0,NO,6.1333,62.5833,75.0,1685815482.0
130,Tweed,68.86,49.0,15.66,6170799.0,CA,-77.3162,44.4751,3.0,1685815337.0
131,Nanortalik,35.28,94.0,10.31,3421765.0,GL,-45.2371,60.1432,100.0,1685815486.0
132,Port Blair,82.44,78.0,6.91,1259385.0,IN,92.75,11.6667,75.0,1685815489.0
133,Lubango,61.59,53.0,5.28,3347762.0,AO,13.4925,-14.9172,44.0,1685815491.0
134,Shumskiy,57.99,81.0,7.02,1491977.0,RU,99.1328,54.8318,98.0,1685815493.0
135,San Cristobal,84.38,48.0,9.35,3628473.0,VE,-72.225,7.7669,73.0,1685815495.0
136,Nioro,98.92,20.0,7.76,2412408.0,GM,-15.75,13.35,89.0,1685815497.0
137,Thompson,78.96,61.0,2.3,6165406.0,CA,-97.8558,55.7435,75.0,1685815255.0
138,Manaus,86.49,66.0,4.61,3663517.0,BR,-60.025,-3.1019,40.0,1685815377.0
139,Laguna,76.82,50.0,6.91,5364271.0,US,-121.4238,38.421,0.0,1685815503.0
140,Hermanus,52.81,70.0,17.96,3366880.0,ZA,19.2345,-34.4187,49.0,1685815360.0
141,Westport,65.25,70.0,12.66,4845585.0,US,-73.3579,41.1415,100.0,1685815508.0
142,Dicabisagan,78.57,88.0,2.53,1715015.0,PH,122.4157,17.0818,100.0,1685815510.0
143,Newport,70.0,76.0,10.4,2641598.0,GB,-2.9984,51.5877,14.0,1685815236.0
144,Tateyama,66.99,76.0,5.41,1850523.0,JP,139.8667,34.9833,69.0,1685815340.0
145,Kuznechikha,46.74,93.0,11.01,537760.0,RU,42.3348,57.2161,90.0,1685815516.0
146,Poum,73.22,70.0,11.16,2138555.0,NC,164.0167,-20.2333,42.0,1685815518.0
147,Chokurdakh,43.45,73.0,3.76,2126123.0,RU,147.9167,70.6333,71.0,1685815521.0
148,Coquimbo,65.93,68.0,12.66,3893629.0,CL,-71.3436,-29.9533,0.0,1685815512.0
149,Ust-Nera,52.18,68.0,4.07,2120048.0,RU,143.2,64.5667,27.0,1685815525.0
150,Kavaratti,84.92,75.0,11.18,1267390.0,IN,72.642,10.5669,37.0,1685815527.0
151,Eruwa,77.54,84.0,6.08,2338669.0,NG,3.4167,7.5333,90.0,1685815529.0
152,Polyarny,47.59,50.0,11.61,506763.0,RU,33.4478,69.1989,60.0,1685815531.0
153,Ribeira Grande,68.4,77.0,6.91,3372707.0,PT,-28.7,38.5167,40.0,1685815533.0
154,Kalemie,73.54,69.0,0.43,214974.0,CD,29.1947,-5.9475,4.0,1685815535.0
155,Tuktoyaktuk,41.0,75.0,2.3,6170031.0,CA,-133.0374,69.4541,75.0,1685815538.0
156,Tomatlán,91.22,39.0,9.91,3981391.0,MX,-105.25,19.9333,17.0,1685815540.0
157,Bratca,59.74,89.0,4.63,683837.0,RO,22.6167,46.9333,51.0,1685815542.0
158,Chiang Khong,72.63,99.0,0.69,1611197.0,TH,100.4046,20.2613,83.0,1685815544.0
159,Gijang,64.13,61.0,5.3,1842966.0,KR,129.2139,35.2442,84.0,1685815546.0
160,Vao,70.77,68.0,16.87,2137773.0,NC,167.4833,-22.6667,100.0,1685815548.0
161,Marawi,71.15,90.0,1.97,1701054.0,PH,124.2928,7.9986,100.0,1685815550.0
162,Kununurra,62.58,94.0,0.0,2068110.0,AU,128.7333,-15.7667,79.0,1685815414.0
163,Ponta do Sol,71.94,76.0,1.83,2264557.0,PT,-17.1,32.6667,92.0,1685815554.0
164,Vanimo,77.04,90.0,3.78,2084442.0,PG,141.3028,-2.6741,54.0,1685815557.0
165,Kenai,48.07,75.0,0.0,5866063.0,US,-151.2583,60.5544,100.0,1685815559.0
166,Tarnogskiy Gorodok,48.11,93.0,6.76,484314.0,RU,43.5761,60.4997,97.0,1685815561.0
167,Tottori-shi,59.2,64.0,7.96,1849892.0,JP,134.2333,35.5,2.0,1685815563.0
168,Baracoa,88.66,60.0,6.11,3567834.0,CU,-74.4958,20.3467,34.0,1685815565.0
169,Krasnyy Kholm,43.3,63.0,6.64,541704.0,RU,37.1203,58.0607,86.0,1685815567.0
170,Nabire,75.42,94.0,3.94,1634614.0,ID,135.4833,-3.3667,100.0,1685815569.0
171,Zaysan,64.26,29.0,7.09,1517060.0,KZ,84.8667,47.4667,0.0,1685815572.0
172,New Norfolk,35.47,79.0,1.63,2155415.0,AU,147.0587,-42.7826,9.0,1685815574.0
173,Muhos,47.86,77.0,4.61,645765.0,FI,25.9931,64.808,100.0,1685815576.0
174,Sabzawār,77.13,39.0,11.18,118063.0,IR,57.6819,36.2126,52.0,1685815578.0
175,Catuday,79.16,81.0,6.98,1717787.0,PH,119.8062,16.2923,99.0,1685815580.0
176,Enshi,68.72,96.0,0.78,1811720.0,CN,109.4833,30.3,100.0,1685815582.0
177,Timiryazevskiy,64.51,88.0,4.03,1489597.0,RU,84.8769,56.49,55.0,1685815584.0
178,Aklavik,57.2,41.0,12.66,5882953.0,CA,-135.0107,68.2191,40.0,1685815587.0
179,Pochutla,95.83,48.0,9.08,3517970.0,MX,-96.4661,15.7432,6.0,1685815589.0
180,Bathsheba,86.61,79.0,11.5,3374083.0,BB,-59.5167,13.2167,40.0,1685815591.0
181,Salalah,86.09,79.0,6.91,286621.0,OM,54.0924,17.0151,0.0,1685815593.0
182,Airai,57.79,95.0,1.88,1651810.0,TL,125.4092,-8.9266,70.0,1685815595.0
183,Fuyang,70.18,66.0,6.58,1810845.0,CN,115.8167,32.9,100.0,1685815598.0
184,Makakilo City,73.72,73.0,4.61,5850554.0,US,-158.0858,21.3469,40.0,1685815600.0
185,Impfondo,75.79,86.0,3.18,2259655.0,CG,18.0667,1.6381,80.0,1685815602.0
186,Anloga,80.15,81.0,13.94,2304548.0,GH,0.8973,5.7947,99.0,1685815605.0
187,Chui,73.92,64.0,6.73,3443061.0,UY,-53.4616,-33.6971,94.0,1685815607.0
188,Nishihara,74.48,88.0,6.91,1855342.0,JP,127.7558,26.1842,38.0,1685815609.0
189,Bariloche,42.24,82.0,12.44,7647007.0,AR,-71.3082,-41.1456,99.0,1685815508.0
190,Kristianstad,64.54,39.0,8.05,2699310.0,SE,14.1524,56.0313,62.0,1685815613.0
191,Cabo San Lucas,81.09,69.0,9.22,3985710.0,MX,-109.9124,22.8909,0.0,1685815553.0
192,Hunchun,51.15,90.0,3.96,2036653.0,CN,130.3581,42.8675,37.0,1685815617.0
193,Aykhal,41.36,89.0,13.71,2027296.0,RU,111.5,66.0,41.0,1685815619.0
194,Nchelenge,73.87,63.0,1.14,175499.0,ZM,28.734,-9.3451,40.0,1685815621.0
195,Hobyo,82.67,82.0,22.15,57000.0,SO,48.5268,5.3505,96.0,1685815624.0
196,Pechenga,50.76,40.0,6.93,511865.0,RU,31.1703,69.5259,98.0,1685815626.0
197,Hambantota,81.28,83.0,19.08,1244926.0,LK,81.1185,6.1241,94.0,1685815628.0
198,Lompoc,62.35,83.0,5.99,5367788.0,US,-120.4579,34.6391,100.0,1685815630.0
199,Hasaki,59.4,57.0,6.76,2112802.0,JP,140.8333,35.7333,50.0,1685815632.0
200,Departamento de Maldonado,61.72,77.0,9.86,3441890.0,UY,-54.9167,-34.6667,96.0,1685815634.0
201,Naze,68.38,76.0,6.33,1855540.0,JP,129.4833,28.3667,91.0,1685815636.0
202,Nikolskoye,51.19,68.0,8.05,546105.0,RU,30.7861,59.7035,91.0,1685815639.0
203,Dul'durga,44.02,90.0,3.24,2024812.0,RU,113.5931,50.6761,96.0,1685815641.0
204,Leh,45.25,44.0,5.19,1264976.0,IN,77.5833,34.1667,45.0,1685815643.0
205,Lata,71.92,79.0,4.7,2738381.0,PT,-8.3327,40.1629,82.0,1685815645.0
206,Tiksi,36.48,90.0,3.47,2015306.0,RU,128.8694,71.6872,95.0,1685815647.0
207,Qaanaaq,25.95,77.0,2.64,3831208.0,GL,-69.3632,77.484,24.0,1685815650.0
208,Ilulissat,32.02,86.0,10.36,3423146.0,GL,-51.1,69.2167,75.0,1685815652.0
209,Saint-Augustin,45.46,55.0,13.47,6137462.0,CA,-58.6502,51.226,49.0,1685815654.0
210,Saskylakh,52.54,96.0,1.99,2017155.0,RU,114.0833,71.9167,100.0,1685815656.0
211,Tessalit,99.91,10.0,12.24,2449893.0,ML,1.0114,20.1986,48.0,1685815658.0
212,Rayong,84.24,79.0,6.8,1607016.0,TH,101.4333,12.8333,36.0,1685815660.0
213,Sur,90.75,49.0,5.82,286245.0,OM,59.5289,22.5667,0.0,1685815662.0
214,Bereket,91.63,24.0,5.35,161974.0,TM,55.5154,39.2446,27.0,1685815664.0
215,Staraya Kulatka,64.87,62.0,4.34,489164.0,RU,47.6167,52.7167,64.0,1685815667.0
216,Roswell,85.33,37.0,12.66,4219934.0,US,-84.3616,34.0232,0.0,1685815638.0
217,Santa Luzia,74.3,35.0,6.98,3450144.0,BR,-43.8514,-19.7697,0.0,1685815671.0
218,São Filipe,75.94,74.0,5.1,3374210.0,CV,-24.4956,14.8961,12.0,1685815673.0
219,San Luis,70.72,49.0,6.2,3837056.0,AR,-66.3356,-33.295,76.0,1685815588.0
220,Fairbanks,50.63,70.0,8.05,5861897.0,US,-147.7164,64.8378,75.0,1685815677.0
221,Sibolga,76.8,88.0,2.8,1213855.0,ID,98.7792,1.7427,99.0,1685815679.0
222,Pahrump,86.29,14.0,4.0,5509851.0,US,-115.9839,36.2083,0.0,1685815675.0
223,Narsaq,46.62,93.0,6.04,3421719.0,GL,-46.05,60.9167,99.0,1685815684.0
224,Hamilton,89.98,34.0,9.22,4513583.0,US,-84.5333,39.1834,20.0,1685815634.0
225,Fortuna,57.22,81.0,8.05,5563839.0,US,-124.1573,40.5982,100.0,1685815688.0
226,Ayan,38.34,93.0,5.01,2027316.0,RU,138.1667,56.45,66.0,1685815690.0
227,El Dorado,73.63,49.0,3.0,5345659.0,US,-120.5177,38.7666,5.0,1685815692.0
228,Leonidovo,39.85,96.0,3.02,2123805.0,RU,142.8667,49.2833,100.0,1685815694.0
229,Chicama,75.74,62.0,12.86,3698359.0,PE,-79.1469,-7.8447,32.0,1685815696.0
230,Umluj,90.88,42.0,8.84,100926.0,SA,37.2685,25.0213,1.0,1685815699.0
231,Acapulco de Juárez,87.62,62.0,14.97,3533462.0,MX,-99.8901,16.8634,0.0,1685815701.0
232,Santa Maria,76.32,58.0,6.82,3450083.0,BR,-53.8069,-29.6842,15.0,1685815703.0
233,Ubinskoye,71.42,61.0,1.5,1488708.0,RU,79.6802,55.3068,42.0,1685815705.0
234,Flinders,60.26,80.0,5.99,6255012.0,AU,150.8552,-34.5833,99.0,1685815707.0
235,Broome,76.32,60.0,14.0,5110365.0,US,-75.833,42.2506,75.0,1685815709.0
236,Mossamedes,67.66,71.0,14.0,3347019.0,AO,12.1522,-15.1961,34.0,1685815712.0
237,Orange Cove,82.63,30.0,8.05,5379533.0,US,-119.3137,36.6244,0.0,1685815714.0
238,Barra Patuca,90.12,55.0,9.91,3614835.0,HN,-84.2833,15.8,2.0,1685815716.0
239,Arlit,99.28,7.0,9.28,2447513.0,NE,7.3853,18.7369,83.0,1685815718.0
240,Chilia Veche,63.23,57.0,12.73,682117.0,RO,29.2833,45.4167,56.0,1685815720.0
241,Conde,83.66,65.0,17.27,3385077.0,BR,-34.9075,-7.2597,75.0,1685815722.0
242,Bulungu,81.81,61.0,1.07,2316259.0,CD,18.6,-4.55,100.0,1685815724.0
243,Baker City,70.68,34.0,11.5,5712169.0,US,-117.8344,44.7749,0.0,1685815726.0
244,Rājākhera,92.71,31.0,5.19,1258930.0,IN,78.1714,26.8961,12.0,1685815729.0
245,Portland,66.27,52.0,9.22,5746545.0,US,-122.6762,45.5234,0.0,1685815517.0
246,Birkeland,60.17,61.0,8.05,3161532.0,NO,8.2323,58.3309,0.0,1685815733.0
247,Dvinskoy Bereznik,47.37,87.0,6.22,577240.0,RU,42.7072,62.8551,100.0,1685815735.0
248,Jalingo,85.69,59.0,4.9,2336589.0,NG,11.3667,8.8833,76.0,1685815737.0
249,Yar-Sale,62.78,54.0,3.83,1486321.0,RU,70.8333,66.8333,92.0,1685815739.0
250,Tafresh,72.63,26.0,4.54,113636.0,IR,50.013,34.692,46.0,1685815741.0
251,Homer,51.28,64.0,4.61,5864145.0,US,-151.5483,59.6425,100.0,1685815744.0
252,Mandalgovi,53.22,46.0,8.46,2030065.0,MN,106.2708,45.7625,4.0,1685815746.0
253,Kibala,82.96,61.0,5.35,2425791.0,TD,18.3463,9.1104,81.0,1685815748.0
254,Ulladulla,56.77,83.0,10.2,2145554.0,AU,150.4667,-35.35,100.0,1685815750.0
255,Sitka,55.29,71.0,6.91,5557293.0,US,-135.33,57.0531,40.0,1685815752.0
256,Leningradskiy,23.88,90.0,3.36,2123814.0,RU,178.4167,69.3833,79.0,1685815754.0
257,Takāb,63.45,33.0,4.94,113508.0,IR,47.1133,36.4009,52.0,1685815756.0
258,Tarancón,64.85,57.0,11.61,3108317.0,ES,-3.0073,40.0085,82.0,1685815758.0
259,Goderich,73.0,60.0,11.36,5962442.0,CA,-81.7165,43.7501,5.0,1685815761.0
260,Rosa Zarate,87.3,68.0,5.1,3652257.0,EC,-79.4667,0.3333,74.0,1685815763.0
261,Luganville,78.17,86.0,13.56,2136150.0,VU,167.1667,-15.5333,99.0,1685815765.0
262,Druzhba,47.1,70.0,7.47,709584.0,UA,33.9453,52.0428,25.0,1685815767.0
263,Valea lui Mihai,71.31,65.0,6.46,663692.0,RO,22.15,47.5167,54.0,1685815769.0
264,Ancud,48.54,71.0,21.34,3899695.0,CL,-73.8203,-41.8697,95.0,1685815771.0
265,Matagami,73.9,20.0,6.51,6067747.0,CA,-77.6328,49.7502,30.0,1685815773.0
266,Peniche,67.78,78.0,12.59,2264923.0,PT,-9.3811,39.3558,3.0,1685815775.0
267,Miraflores,82.99,26.0,6.08,3761194.0,MX,-98.8083,19.2167,1.0,1685815778.0
268,Lebu,55.27,84.0,12.46,3883457.0,CL,-73.65,-37.6167,25.0,1685815780.0
269,Crawley,64.63,52.0,14.97,2652053.0,GB,-0.1831,51.113,0.0,1685815715.0
270,Khonsa,71.4,63.0,4.52,1266668.0,IN,95.5667,27.0167,24.0,1685815784.0
271,Yumen,58.68,54.0,12.46,1528998.0,CN,97.2,40.2833,100.0,1685815786.0
272,Bubaque,80.71,73.0,11.45,2374583.0,GW,-15.8333,11.2833,100.0,1685815788.0
273,Ribas do Rio Pardo,80.26,40.0,4.7,3451399.0,BR,-53.7592,-20.4431,0.0,1685815790.0
274,Malbork,55.78,65.0,7.11,3092472.0,PL,19.0266,54.0359,42.0,1685815792.0
275,Saint-Leu,71.04,85.0,1.7,6690297.0,RE,55.2833,-21.15,3.0,1685815794.0
276,Arkhara,44.55,87.0,1.5,2027487.0,RU,130.0842,49.4212,90.0,1685815797.0
277,Tura,79.07,59.0,5.26,1254046.0,IN,90.2201,25.5198,0.0,1685815799.0
278,Ingham,86.29,46.0,12.66,4997130.0,US,-84.3833,42.6,40.0,1685815801.0
279,Sarandi,72.41,60.0,8.1,3447998.0,BR,-51.8739,-23.4436,0.0,1685815803.0
280,Biak,76.62,86.0,4.7,1637001.0,ID,122.8766,-0.9131,62.0,1685815805.0
281,Nieuw Amsterdam,88.38,68.0,5.75,3383434.0,SR,-55.0833,5.8833,40.0,1685815807.0
282,Boundiali,88.02,55.0,3.76,2290836.0,CI,-6.4869,9.5217,98.0,1685815809.0
283,Aitape,77.02,88.0,3.27,2101169.0,PG,142.3475,-3.1374,91.0,1685815812.0
284,Manadhoo,82.96,79.0,20.04,1337618.0,MV,73.3833,5.7667,100.0,1685815814.0
285,Ca Mau,81.63,82.0,5.55,1586443.0,VN,105.15,9.1769,97.0,1685815816.0
286,San Patricio,88.32,48.0,9.78,4726521.0,US,-97.5169,28.017,54.0,1685815818.0
287,Portree,58.51,78.0,8.7,2640006.0,GB,-6.1942,57.4129,9.0,1685815820.0
288,Srednekolymsk,56.71,35.0,4.76,2121025.0,RU,153.6833,67.45,100.0,1685815822.0
289,Zhangaözen,86.94,24.0,6.38,607610.0,KZ,52.8,43.3,44.0,1685815824.0
290,Mayo,79.12,68.0,14.0,4362001.0,US,-76.5119,38.8876,0.0,1685815826.0
291,Hualmay,74.12,67.0,13.11,3939761.0,PE,-77.6139,-11.0964,79.0,1685815829.0
292,Púchov,64.89,68.0,2.15,3057963.0,SK,18.326,49.1249,5.0,1685815831.0
293,Hong Kong,85.05,85.0,8.01,1819729.0,HK,114.1577,22.2855,7.0,1685815600.0
294,Dzilam González,89.35,45.0,8.66,3529654.0,MX,-88.9333,21.2833,50.0,1685815835.0
295,Sistranda,44.56,82.0,15.95,3139597.0,NO,8.834,63.7256,100.0,1685815837.0
296,Ondjiva,70.72,27.0,4.12,3346821.0,AO,15.7333,-17.0667,0.0,1685815839.0
297,Taguatinga,93.47,27.0,6.51,6319623.0,BR,-46.5711,-12.3857,0.0,1685815841.0
298,Evensk,49.89,64.0,3.6,2125693.0,RU,159.2333,61.95,19.0,1685815844.0
299,Katsuura,65.52,70.0,1.28,2112309.0,JP,140.3,35.1333,58.0,1685815846.0
300,Ambovombe,72.34,69.0,6.11,1079048.0,MG,46.0833,-25.1667,0.0,1685815848.0
301,Pisco,73.45,68.0,13.8,3932145.0,PE,-76.2167,-13.7,100.0,1685815851.0
302,Lala,76.86,93.0,0.65,1707944.0,PH,123.7458,7.9745,100.0,1685815853.0
303,East London,61.74,77.0,14.97,1006984.0,ZA,27.9116,-33.0153,0.0,1685815855.0
304,Nyurba,49.82,85.0,5.73,2018735.0,RU,118.3319,63.2842,56.0,1685815857.0
305,Baykit,52.32,68.0,3.78,1510689.0,RU,96.37,61.67,3.0,1685815860.0
306,Muyezerskiy,41.83,71.0,2.91,524100.0,RU,31.65,63.9333,99.0,1685815862.0
307,Umarkot,91.98,48.0,21.7,1162959.0,PK,69.7362,25.3616,0.0,1685815864.0
308,Paamiut,33.37,85.0,12.68,3421193.0,GL,-49.6678,61.994,69.0,1685815866.0
309,Gberia Fotombu,79.75,81.0,5.97,2409019.0,SL,-11.1667,9.8833,100.0,1685815868.0
310,Auki,77.43,88.0,3.36,2109701.0,SB,160.7034,-8.7676,67.0,1685815870.0
311,Timmins,77.86,26.0,6.38,6166739.0,CA,-81.3331,48.4669,14.0,1685815726.0
312,Pachino,69.84,71.0,10.76,6539213.0,IT,15.0907,36.7186,27.0,1685815756.0
313,Arrondissement d'Arcachon,75.25,60.0,11.5,6621469.0,FR,-1.0519,44.5875,82.0,1685815877.0
314,Avera,85.6,41.0,11.65,4231997.0,US,-82.5271,33.194,51.0,1685815879.0
315,Bonthe,79.11,87.0,6.51,2409914.0,SL,-12.505,7.5264,100.0,1685815881.0
316,Songjianghe,43.77,96.0,5.01,2034691.0,CN,127.479,42.1859,33.0,1685815883.0
317,Salisbury,69.13,49.0,13.8,2638664.0,GB,-1.7957,51.0693,75.0,1685815678.0
318,Xi'an,58.46,96.0,2.53,1790630.0,CN,108.9286,34.2583,100.0,1685815887.0
319,Touros,84.02,66.0,17.87,3386213.0,BR,-35.4608,-5.1989,14.0,1685815890.0
320,Boda,76.42,71.0,3.85,2388614.0,CF,17.4695,4.3189,38.0,1685815892.0
321,Mayumba,74.68,86.0,7.9,2399001.0,GA,10.6554,-3.432,98.0,1685815894.0
322,Chul'man,48.85,69.0,2.26,2025261.0,RU,124.9104,56.8479,70.0,1685815896.0
323,Tambacounda,104.36,15.0,5.84,2244991.0,SN,-13.7586,13.7539,93.0,1685815898.0
324,Bushehr,84.29,61.0,9.22,139817.0,IR,50.8385,28.9684,0.0,1685815901.0
325,Port Hardy,55.58,76.0,8.05,6111862.0,CA,-127.4199,50.6996,75.0,1685815903.0
326,Shashi,69.03,67.0,8.59,1795816.0,CN,112.2447,30.3072,92.0,1685815905.0
327,Grand-Lahou,79.05,84.0,6.35,2288105.0,CI,-5.0242,5.1367,100.0,1685815907.0
328,State College,84.65,42.0,8.05,5213681.0,US,-77.86,40.7934,40.0,1685815667.0
329,Teguise,73.62,57.0,11.5,2510573.0,ES,-13.564,29.0605,20.0,1685815911.0
330,Magdagachi,49.75,82.0,5.5,2020591.0,RU,125.8,53.45,68.0,1685815913.0
331,Gaozhou,79.03,92.0,4.0,1810295.0,CN,110.8461,21.9392,1.0,1685815915.0
332,Meulaboh,77.63,88.0,2.82,1214488.0,ID,96.1285,4.1363,100.0,1685815917.0
333,Río Gallegos,43.29,84.0,8.14,3838859.0,AR,-69.2181,-51.6226,100.0,1685815920.0
334,Chaihe,47.03,95.0,3.18,2038198.0,CN,129.7,44.7667,94.0,1685815922.0
335,Nikel,50.18,38.0,5.01,522260.0,RU,30.222,69.4128,100.0,1685815924.0
336,Beringovskiy,41.56,85.0,5.3,2126710.0,RU,179.3167,63.05,40.0,1685815927.0
337,Coyhaique,42.75,81.0,5.75,3894426.0,CL,-72.0662,-45.5752,75.0,1685815929.0
338,Vardø,44.58,81.0,6.91,777019.0,NO,31.1107,70.3705,20.0,1685815931.0
339,Talnakh,40.21,73.0,5.03,1490256.0,RU,88.3972,69.4865,90.0,1685815933.0
340,Faya,66.72,53.0,6.53,110690.0,SA,42.4509,18.3851,97.0,1685815935.0
341,Znamenskoye,68.59,58.0,5.95,1485020.0,RU,73.8282,57.1281,6.0,1685815937.0
342,Manavgat,68.72,87.0,7.34,304854.0,TR,31.4431,36.7867,26.0,1685815939.0
343,Cairns,72.23,91.0,11.5,2172797.0,AU,145.7667,-16.9167,100.0,1685815942.0
344,Klaksvík,49.12,86.0,6.67,2618795.0,FO,-6.589,62.2266,57.0,1685815944.0
345,Fonte Boa,89.47,55.0,1.21,6319315.0,BR,-66.2662,-2.4959,16.0,1685815946.0
346,Piaçabuçu,80.28,76.0,10.36,3454005.0,BR,-36.4344,-10.4056,12.0,1685815948.0
347,Havøysund,46.63,89.0,9.15,779622.0,NO,24.6622,70.9963,91.0,1685815950.0
348,Boden,50.0,72.0,4.7,606531.0,SE,21.6886,65.8252,94.0,1685815952.0
349,Nhulunbuy,72.21,100.0,4.61,2064735.0,AU,136.7667,-12.2333,40.0,1685815955.0
350,Kamenka,62.67,69.0,8.63,553766.0,RU,42.7678,51.3223,70.0,1685815957.0
351,Kazachinskoye,58.69,68.0,4.45,1504075.0,RU,93.2761,57.6953,30.0,1685815959.0
352,Geraldton,50.41,76.0,11.5,2070998.0,AU,114.6,-28.7667,100.0,1685815780.0
353,Maxixe,74.77,78.0,12.82,1039536.0,MZ,35.3472,-23.8597,28.0,1685815963.0
354,Leon Valley,84.52,62.0,6.91,4705923.0,US,-98.6186,29.4952,40.0,1685815965.0
355,Nome,32.07,93.0,6.91,5870133.0,US,-165.4064,64.5011,100.0,1685815967.0
356,Manokwari,78.71,83.0,5.61,1636308.0,ID,134.0833,-0.8667,95.0,1685815969.0
357,Grand-Santi,87.53,63.0,2.01,3381538.0,GF,-54.3833,4.25,100.0,1685815972.0
358,Faanui,78.04,64.0,6.64,4034551.0,PF,-151.75,-16.4833,29.0,1685815974.0
359,Clyde River,25.03,93.0,17.27,5924351.0,CA,-68.5914,70.4692,75.0,1685815976.0
360,Kosa,56.1,98.0,5.5,544318.0,RU,54.9977,59.9445,71.0,1685815978.0
361,Blackwater,59.67,89.0,7.87,2175403.0,AU,148.8833,-23.5833,2.0,1685815980.0
362,Assiniboia,76.82,65.0,10.36,5887798.0,CA,-105.9845,49.6334,100.0,1685815982.0
363,Bambous Virieux,75.45,64.0,11.5,1106677.0,MU,57.7575,-20.3428,40.0,1685815984.0
364,Arona,64.74,87.0,3.44,2521582.0,ES,-16.681,28.0996,75.0,1685815986.0
365,Belyy Yar,66.09,59.0,0.0,1510377.0,RU,91.3903,53.6039,0.0,1685815989.0
366,San Miguel,95.65,47.0,2.19,3583446.0,SV,-88.1833,13.4833,17.0,1685815991.0
367,Maniitsoq,33.73,95.0,18.03,3421982.0,GL,-52.9,65.4167,100.0,1685815993.0
368,Freeport,66.29,67.0,12.66,5117949.0,US,-73.5832,40.6576,100.0,1685815899.0
369,Constitución,59.36,79.0,10.16,3893726.0,CL,-72.4167,-35.3333,92.0,1685815997.0
370,Tarakan,81.86,78.0,3.62,1624725.0,ID,117.6333,3.3,55.0,1685816000.0
371,Nirmal,95.95,25.0,7.63,1261288.0,IN,78.35,19.1,78.0,1685816002.0
372,Zmeinogorsk,59.34,84.0,4.76,1485042.0,RU,82.195,51.1567,28.0,1685816004.0
373,Valparaíso,65.89,67.0,9.22,3868626.0,CL,-71.6273,-33.0393,0.0,1685815837.0
374,Caravelas,77.63,61.0,11.27,3466980.0,BR,-39.2481,-17.7125,6.0,1685816008.0
375,Torbay,41.65,97.0,18.99,6167817.0,CA,-52.7314,47.6666,100.0,1685816010.0
376,Le Port,73.02,85.0,10.54,935616.0,RE,55.2919,-20.9373,9.0,1685816012.0
377,Kumul,75.83,20.0,11.59,1529484.0,CN,93.45,42.8,65.0,1685816015.0
378,Inverell,50.43,81.0,4.97,2162662.0,AU,151.1167,-29.7833,76.0,1685816017.0
379,Tortolì,67.82,83.0,13.8,2522890.0,IT,9.6572,39.9256,40.0,1685816019.0
380,Beipiao,66.25,25.0,5.37,2038342.0,CN,120.7792,41.7919,83.0,1685816021.0
381,Novo Aripuanã,85.21,70.0,4.23,3663142.0,BR,-60.3797,-5.1206,58.0,1685816023.0
382,Akdepe,84.29,16.0,12.17,601551.0,TM,59.3788,42.0551,1.0,1685816025.0
383,Pangnirtung,32.0,100.0,10.36,6096551.0,CA,-65.7125,66.1451,100.0,1685816027.0
384,Komatipoort,73.33,27.0,5.35,988290.0,ZA,31.9548,-25.4332,58.0,1685816029.0
385,Kailua,75.56,75.0,12.33,5847486.0,US,-157.7394,21.4022,98.0,1685816032.0
386,Massakory,91.15,44.0,8.79,2428228.0,TD,15.7293,12.996,78.0,1685816034.0
387,Byron Bay,56.71,91.0,5.77,2172880.0,AU,153.6167,-28.65,74.0,1685815776.0
388,Dawson Creek,69.44,46.0,6.91,5935804.0,CA,-120.2362,55.7666,0.0,1685816038.0
389,Port-Gentil,77.36,86.0,14.5,2396518.0,GA,8.7815,-0.7193,89.0,1685816040.0
390,Augusto Corrêa,80.56,88.0,7.09,3406961.0,BR,-46.635,-1.0217,68.0,1685816042.0
391,Araouane,101.39,13.0,10.29,2460954.0,ML,-3.5265,18.9048,5.0,1685816044.0
392,Coahuayana Viejo,90.93,43.0,8.16,4013679.0,MX,-103.6833,18.7333,3.0,1685816046.0
393,Mount Gambier,50.34,94.0,6.6,2156643.0,AU,140.7667,-37.8333,71.0,1685816049.0
394,Swan River,84.09,51.0,13.8,6160362.0,CA,-101.2676,52.1058,80.0,1685816051.0
395,Bima,71.44,95.0,4.16,1648759.0,ID,118.7167,-8.4667,8.0,1685816053.0
396,Cherskiy,43.07,61.0,6.55,2126199.0,RU,161.3,68.75,100.0,1685816055.0
397,Adrar,95.49,14.0,8.68,2381972.0,MR,-10.0711,20.5022,21.0,1685816057.0
398,Egvekinot,27.54,78.0,3.58,4031742.0,RU,-179.1667,66.3167,78.0,1685816059.0
399,Comodoro Rivadavia,58.86,31.0,18.41,3860443.0,AR,-67.5,-45.8667,0.0,1685816061.0
400,Volchikha,67.55,57.0,5.88,1486983.0,RU,80.3833,52.0333,60.0,1685816064.0
401,Paita,79.39,71.0,15.48,3694112.0,PE,-81.1144,-5.0892,20.0,1685816066.0
402,Calama,73.89,6.0,14.97,3897347.0,CL,-68.9333,-22.4667,0.0,1685816068.0
403,Abalak,69.75,71.0,6.67,1512223.0,RU,68.5944,58.1286,74.0,1685816070.0
404,Atar,96.39,16.0,11.54,2381334.0,MR,-13.0499,20.5169,0.0,1685816072.0
405,Venado Tuerto,75.76,64.0,5.32,3833062.0,AR,-61.9688,-33.7456,85.0,1685816074.0
406,Ostrovnoy,37.99,79.0,9.1,556268.0,RU,39.5131,68.0531,33.0,1685816076.0
407,Praia,81.14,57.0,16.11,3374333.0,CV,-23.5087,14.9215,20.0,1685816079.0
408,Campoverde,87.49,42.0,1.3,3733380.0,PE,-74.8058,-8.4753,63.0,1685816081.0
409,Peebles,64.36,41.0,3.0,2640526.0,GB,-3.1888,55.6519,7.0,1685816083.0
410,Ngunguru,51.44,79.0,5.99,2186111.0,NZ,174.5,-35.6167,10.0,1685816085.0
411,Haines Junction,57.15,38.0,3.44,5969025.0,CA,-137.5108,60.7522,8.0,1685816087.0
412,Chernyshevsk,50.36,51.0,3.38,2025458.0,RU,117.0174,52.5243,77.0,1685816089.0
413,Makiyivka,60.8,80.0,15.73,702320.0,UA,37.9258,48.0478,76.0,1685816091.0
414,Petropavlovsk-Kamchatskiy,37.99,100.0,2.24,2122104.0,RU,158.6483,53.0452,100.0,1685816094.0
415,Los Llanos de Aridane,68.13,84.0,5.01,2514651.0,ES,-17.9182,28.6585,75.0,1685816096.0
416,Nuevo Progreso,85.89,55.0,3.0,3522526.0,MX,-97.95,23.1667,60.0,1685816098.0
417,Norsup,78.73,82.0,17.22,2135517.0,VU,167.3833,-16.0667,94.0,1685816100.0
418,Yulara,57.38,52.0,8.32,6355222.0,AU,130.9889,-25.2406,58.0,1685816102.0
419,Hohhot,59.29,38.0,6.71,2036892.0,CN,111.6522,40.8106,0.0,1685816104.0
420,Bowen,68.7,84.0,11.61,2174444.0,AU,148.2333,-20.0167,53.0,1685816107.0
421,Smoky Lake,67.28,72.0,5.75,6150293.0,CA,-112.4686,54.1169,100.0,1685816110.0
422,Angoram,73.6,99.0,1.7,2100765.0,PG,144.0661,-4.0625,95.0,1685816112.0
423,Itarema,84.47,69.0,15.68,3393692.0,BR,-39.9167,-2.9248,59.0,1685816114.0
424,La Asuncion,98.33,44.0,9.22,3480908.0,VE,-63.8628,11.0333,38.0,1685816116.0
425,Berlevåg,49.8,43.0,16.11,780687.0,NO,29.0864,70.8578,100.0,1685816118.0
426,Ambilobe,72.88,76.0,5.26,1082243.0,MG,49.05,-13.2,5.0,1685816120.0
427,Teya,54.68,69.0,2.75,1489656.0,RU,92.6267,60.3778,65.0,1685816123.0
428,Máncora,84.65,60.0,7.78,3695000.0,PE,-81.0475,-4.1078,13.0,1685816125.0
429,Crotone,71.55,73.0,6.91,2524881.0,IT,17.1178,39.0851,0.0,1685816127.0
430,Sechura,83.44,58.0,15.17,3691954.0,PE,-80.8222,-5.5569,14.0,1685816129.0
431,Tarko-Sale,63.21,46.0,10.36,1490085.0,RU,77.785,64.9225,52.0,1685816131.0
432,Yerofey Pavlovich,49.26,63.0,5.01,2012938.0,RU,121.9667,53.9667,20.0,1685816133.0
433,Doha,92.77,34.0,9.22,290030.0,QA,51.5333,25.2867,0.0,1685816135.0
434,Palmer,56.43,70.0,9.22,4946620.0,US,-72.3287,42.1584,100.0,1685816138.0
435,Darhan,54.32,86.0,4.07,2031964.0,MN,105.9228,49.4867,100.0,1685816140.0
436,Rantauprapat,74.55,95.0,2.48,1214073.0,ID,99.8333,2.1,89.0,1685816142.0
437,Arroyo de la Encomienda,71.11,51.0,10.36,3129371.0,ES,-4.7969,41.6096,40.0,1685816144.0
438,Keetmanshoop,56.19,44.0,6.2,3356264.0,NA,18.1333,-26.5833,0.0,1685816146.0
439,Staryy Nadym,68.27,40.0,6.78,1490918.0,RU,72.6842,65.6118,81.0,1685816148.0
440,Beloha,68.32,61.0,5.82,1067565.0,MG,45.05,-25.1667,0.0,1685816150.0
441,Kelvington,73.74,73.0,9.19,5990669.0,CA,-103.5343,52.1667,100.0,1685816152.0
442,Munger,92.41,18.0,8.19,1262482.0,IN,86.4667,25.3833,0.0,1685816155.0
443,Grindavik,48.67,87.0,14.97,3416888.0,IS,-22.4338,63.8424,0.0,1685816157.0
444,Kangaatsiaq,32.18,94.0,27.94,3422683.0,GL,-53.4641,68.3065,100.0,1685816159.0
445,Omsukchan,51.58,69.0,0.85,2122493.0,RU,155.8,62.5333,64.0,1685816161.0
446,Quzhou,72.93,86.0,5.99,1797264.0,CN,118.8686,28.9594,88.0,1685816163.0
447,Neijiang,65.16,96.0,3.8,1799491.0,CN,105.0622,29.5835,100.0,1685816165.0
448,Bonavista,39.49,96.0,14.61,5905393.0,CA,-53.1147,48.6499,100.0,1685816167.0
449,Pauini,84.65,75.0,1.39,3662927.0,BR,-66.9764,-7.7136,50.0,1685816170.0
450,Poso,77.07,89.0,5.41,1630723.0,ID,120.7524,-1.3959,40.0,1685816172.0
451,Hervey Bay,67.21,84.0,6.44,2146219.0,AU,152.8535,-25.2986,47.0,1685816174.0
452,Gambēla,75.18,81.0,5.32,337405.0,ET,34.5833,8.25,91.0,1685816176.0
453,Hede,68.79,51.0,6.2,1808744.0,CN,120.2517,33.7681,100.0,1685816178.0
454,Alice Springs,62.15,45.0,6.91,2077895.0,AU,133.8833,-23.7,40.0,1685816180.0
455,Tazmalt,69.91,68.0,2.51,2477537.0,DZ,4.3989,36.3868,83.0,1685816182.0
456,Mangaratiba,79.66,71.0,7.09,3457991.0,BR,-44.0406,-22.9597,0.0,1685816184.0
457,Porto-Novo,82.22,76.0,8.48,2392087.0,BJ,2.6036,6.4965,99.0,1685816090.0
458,Sabha,94.86,13.0,12.66,2212775.0,LY,14.4283,27.0377,14.0,1685816190.0
459,Salinópolis,83.35,74.0,12.35,3389822.0,BR,-47.3561,-0.6136,79.0,1685816192.0
460,Riyadh,93.34,14.0,8.66,108410.0,SA,46.7219,24.6877,24.0,1685816106.0
461,Jönköping,64.11,36.0,10.36,2702979.0,SE,14.1562,57.7814,78.0,1685816196.0
462,Yatou,64.24,60.0,5.14,1786855.0,CN,122.3833,37.15,82.0,1685816198.0
463,Jaru,85.87,67.0,1.86,3925040.0,BR,-62.4664,-10.4389,10.0,1685816200.0
464,Yashan,77.81,96.0,3.18,1786867.0,CN,109.9419,22.1975,1.0,1685816202.0
465,Bamiantong,45.63,93.0,2.75,2038482.0,CN,130.5333,44.9333,69.0,1685816205.0
466,Boa Vista,78.78,89.0,3.44,3664980.0,BR,-60.6733,2.8197,40.0,1685816207.0
467,Barra do Bugres,91.89,38.0,3.29,3470718.0,BR,-57.1811,-15.0725,7.0,1685816209.0
468,Butembo,58.89,97.0,3.67,217562.0,CD,29.2833,0.15,80.0,1685816211.0
469,Talaya,52.84,60.0,1.72,2120769.0,RU,152.75,61.3833,50.0,1685816213.0
470,Vengurla,82.65,81.0,8.3,1253257.0,IN,73.6333,15.8667,1.0,1685816215.0
471,Maracaçumé,81.23,90.0,5.1,3395497.0,BR,-45.9592,-2.0428,73.0,1685816217.0
472,Nouadhibou,73.38,73.0,18.41,2377457.0,MR,-17.0347,20.931,0.0,1685816219.0
473,La Celia,74.79,52.0,1.99,3679542.0,CO,-76.0167,5.0433,76.0,1685816221.0
474,Lüderitz,55.33,85.0,1.95,3355672.0,NA,15.1594,-26.6481,0.0,1685816224.0
475,Carutapera,79.83,91.0,9.35,3402648.0,BR,-46.02,-1.195,80.0,1685816226.0
476,Yauya,60.98,31.0,3.85,3690733.0,PE,-77.3,-8.9833,61.0,1685816228.0
477,Port Said,71.06,79.0,11.43,358619.0,EG,32.2841,31.2565,6.0,1685816028.0
478,Sambava,74.68,82.0,11.68,1056899.0,MG,50.1667,-14.2667,19.0,1685816232.0
479,Kafanchan,75.16,81.0,4.29,2335713.0,NG,8.3,9.5833,87.0,1685816234.0
480,Neftçala,73.74,75.0,14.79,147425.0,AZ,49.2472,39.3742,0.0,1685816236.0
481,Yhú,78.03,48.0,5.59,3436595.0,PY,-55.9167,-25.05,0.0,1685816238.0
482,Necochea,60.6,51.0,4.38,3430443.0,AR,-58.7368,-38.5473,59.0,1685816238.0
483,Muros,65.43,85.0,2.82,3115824.0,ES,-9.0603,42.7762,68.0,1685816243.0
484,Linxia Chengguanzhen,51.67,83.0,9.69,1803331.0,CN,103.2064,35.6003,100.0,1685816245.0
485,Tripoli,72.36,71.0,26.46,2210247.0,LY,13.1875,32.8752,43.0,1685816247.0
486,Ixtapa,81.63,65.0,12.66,4004293.0,MX,-105.2,20.7,0.0,1685816249.0
487,Santiago del Estero,79.5,52.0,2.86,3835869.0,AR,-64.2615,-27.7951,23.0,1685816251.0
488,Uribia,92.88,50.0,1.57,3666409.0,CO,-72.266,11.7139,52.0,1685816253.0
489,Rome,76.41,47.0,12.66,5134295.0,US,-75.4557,43.2128,75.0,1685816255.0
490,Xuanzhou,68.81,71.0,8.37,1788081.0,CN,118.7553,30.9525,77.0,1685816257.0
491,Arrondissement de Muret,67.73,71.0,1.99,2991152.0,FR,1.25,43.3333,35.0,1685816178.0
492,Orlik,47.48,86.0,3.0,1496073.0,RU,99.825,52.5178,100.0,1685816262.0
493,Toyoake,62.44,74.0,7.14,1856057.0,JP,137.0137,35.0594,6.0,1685816264.0
494,Ibrā’,91.58,14.0,7.45,287832.0,OM,58.5334,22.6906,1.0,1685816266.0
495,Ayagoz,61.93,32.0,11.48,1525988.0,KZ,80.4392,47.9714,0.0,1685816268.0
496,Deputatsky,43.21,61.0,2.42,2028164.0,RU,139.9,69.3,50.0,1685816271.0
497,Moyale,70.74,67.0,4.43,186180.0,KE,39.0584,3.5167,72.0,1685816273.0
498,Gresik,82.31,83.0,2.44,1643776.0,ID,112.6561,-7.1539,2.0,1685816275.0
499,Tsushima,62.6,82.0,5.41,1849539.0,JP,136.7167,35.1667,12.0,1685816277.0
500,Boralday,66.06,48.0,4.47,1526384.0,KZ,76.8594,43.3578,75.0,1685816279.0
501,Mahina,76.77,65.0,4.61,4034307.0,PF,-149.489,-17.5065,20.0,1685816281.0
502,Ust-Maya,47.62,69.0,2.48,2013918.0,RU,134.5333,60.4167,57.0,1685816283.0
503,General Pico,67.19,50.0,8.23,3855075.0,AR,-63.7568,-35.6566,100.0,1685816285.0
504,Labuan,79.16,83.0,2.3,1733782.0,MY,115.2417,5.2767,40.0,1685816288.0
505,Saint Anthony,82.9,52.0,9.22,5044290.0,US,-93.218,45.0205,75.0,1685816290.0
506,Iqaluit,36.7,74.0,4.61,5983720.0,CA,-68.5145,63.7506,100.0,1685816292.0
507,Haapiti,76.71,69.0,4.56,4034438.0,PF,-149.8667,-17.5667,41.0,1685816294.0
508,Sarankhola,82.31,88.0,7.36,1185239.0,BD,89.7897,22.3082,69.0,1685816296.0
509,Odienné,86.56,60.0,1.74,2283016.0,CI,-7.5692,9.51,98.0,1685816298.0
510,Miles City,72.57,68.0,5.75,5666176.0,US,-105.8406,46.4083,40.0,1685816301.0
511,Daru,77.5,90.0,13.96,2098329.0,PG,143.2092,-9.0763,97.0,1685816303.0
512,Umm Kaddadah,93.25,28.0,4.09,364933.0,SD,26.6876,13.6017,74.0,1685816305.0
513,Skegness,56.71,77.0,12.21,2637762.0,GB,0.3363,53.1436,2.0,1685816307.0
514,Saint-François,80.04,39.0,2.3,2980080.0,FR,3.9054,46.4154,51.0,1685816309.0
515,Semey,68.23,61.0,8.46,1519422.0,KZ,80.2275,50.4111,33.0,1685816311.0
516,Esperance,57.16,76.0,3.71,2071860.0,AU,121.9,-33.8667,100.0,1685816313.0
517,Selkirk,87.28,51.0,5.01,6144054.0,CA,-96.8845,50.1436,91.0,1685816315.0
518,Mahajanga,80.55,58.0,8.23,1062663.0,MG,46.3167,-15.7167,51.0,1685816318.0
519,Ruwi,89.29,44.0,6.22,287286.0,OM,58.5507,23.5996,18.0,1685816320.0
520,Pucallpa,87.84,58.0,2.3,3693345.0,PE,-74.5539,-8.3791,40.0,1685816322.0
521,Ginda,60.03,51.0,7.07,1253628.0,IN,78.4932,30.6945,19.0,1685816324.0
522,Hare Bay,38.8,92.0,10.04,5970873.0,CA,-54.0148,48.8499,100.0,1685816110.0
523,Kabalo,83.62,40.0,4.0,215668.0,CD,26.9167,-6.05,82.0,1685816328.0
524,Cockburn Town,77.25,92.0,10.42,3576994.0,TC,-71.1419,21.4612,100.0,1685816201.0
525,Kolomyia,51.67,74.0,4.45,705392.0,UA,25.0403,48.5306,7.0,1685816332.0
526,Odawara,61.99,82.0,0.78,1854747.0,JP,139.1597,35.2556,99.0,1685816334.0
527,Santa Cruz de la Sierra,84.25,54.0,25.32,3904906.0,BO,-63.1667,-17.8,20.0,1685816337.0
528,Derzhavīnsk,78.19,22.0,9.26,1524606.0,KZ,66.3167,51.1,3.0,1685816339.0
529,Raduzhny,65.91,66.0,6.87,1540356.0,RU,77.475,62.0961,25.0,1685816341.0
530,Gulariyā,85.17,31.0,4.85,1283368.0,NP,81.3333,28.2333,0.0,1685816343.0
531,Oudtshoorn,52.16,75.0,2.15,967106.0,ZA,22.2014,-33.5907,95.0,1685816345.0
532,Ruteng,60.91,90.0,1.48,1629380.0,ID,120.4721,-8.6136,9.0,1685816347.0
533,Sokolac,55.58,98.0,3.85,3190385.0,BA,18.8017,43.9397,87.0,1685816349.0
534,Jieshi,81.01,86.0,8.57,1805857.0,CN,115.8257,22.8134,31.0,1685816351.0
535,Porto Velho,89.65,55.0,3.44,3662762.0,BR,-63.9039,-8.7619,40.0,1685816106.0
536,Olinda,82.13,74.0,12.66,3393536.0,BR,-34.8553,-8.0089,40.0,1685816356.0
537,Vallenar,79.09,21.0,4.68,3868633.0,CL,-70.7581,-28.5708,95.0,1685816266.0
538,Bud,88.5,40.0,10.78,4255151.0,US,-86.1758,39.447,90.0,1685816360.0
539,Dhārchula,66.6,48.0,7.23,1272864.0,IN,80.5333,29.85,44.0,1685816362.0
540,Mabaruma,83.98,82.0,3.96,3377301.0,GY,-59.7833,8.2,98.0,1685816364.0
541,Nemuro,44.49,91.0,11.56,2128975.0,JP,145.575,43.3236,90.0,1685816366.0
542,Caucayá,88.84,52.0,3.0,3671437.0,CO,-74.7819,-0.1934,57.0,1685816368.0
543,Vanderhoof,65.61,36.0,4.18,6173361.0,CA,-124.0198,54.0166,7.0,1685816371.0
544,Maravilha,73.8,61.0,6.51,3457809.0,BR,-53.1725,-26.7608,0.0,1685816373.0
545,Nanlong,63.19,97.0,5.01,1799908.0,CN,106.0631,31.3533,100.0,1685816375.0
546,Seryshevo,47.14,67.0,7.27,2016942.0,RU,128.3786,51.0933,90.0,1685816377.0
547,Les Cayes,77.63,90.0,2.64,3728097.0,HT,-73.75,18.2,100.0,1685816379.0
548,Lagoa,65.79,75.0,2.98,3372964.0,PT,-27.9833,39.05,99.0,1685816381.0
549,Pacifica,64.09,74.0,5.75,5380420.0,US,-122.4869,37.6138,20.0,1685816383.0
550,Northam,63.63,69.0,9.44,2641434.0,GB,-4.2167,51.0333,16.0,1685816385.0
551,Rio Grande,82.51,67.0,8.55,3451138.0,BR,-52.0986,-32.035,37.0,1685816388.0
552,Gejiu,59.22,93.0,2.01,1810240.0,CN,103.1635,23.306,55.0,1685816390.0
553,Opuwo,67.75,30.0,7.61,3354077.0,NA,13.84,-18.0607,2.0,1685816392.0
554,La Ronge,66.45,77.0,8.05,6050066.0,CA,-105.2842,55.1001,100.0,1685816395.0
555,Yazykovo,64.96,86.0,3.09,468483.0,RU,56.1353,55.2199,44.0,1685816397.0
556,Batticaloa,83.32,76.0,6.78,1250161.0,LK,81.6924,7.7102,100.0,1685816399.0
557,Khasan,54.34,80.0,5.41,2039557.0,RU,130.6434,42.4308,23.0,1685816401.0
558,Kattivākkam,88.07,89.0,19.19,1267433.0,IN,80.3167,13.2167,32.0,1685816403.0
559,Arrondissement de Saint-Denis,74.19,40.0,12.66,2980915.0,FR,2.3333,48.9167,0.0,1685816376.0
560,Ende,74.17,89.0,1.21,1644932.0,ID,121.6623,-8.8432,53.0,1685816408.0
561,Harlingen,89.76,71.0,9.22,4696233.0,US,-97.6961,26.1906,0.0,1685816265.0
562,Zhicheng,69.91,67.0,3.31,1784554.0,CN,111.5047,30.2956,100.0,1685816412.0
563,Havelock,78.44,73.0,10.36,4470244.0,US,-76.9013,34.8791,0.0,1685816414.0
564,Madimba,73.83,82.0,7.94,878141.0,TZ,40.3333,-10.4,16.0,1685816416.0
565,Pacific Grove,56.8,83.0,5.75,5380437.0,US,-121.9166,36.6177,40.0,1685816418.0
566,Esim,78.19,89.0,6.67,2303611.0,GH,-2.2405,4.8699,100.0,1685816178.0
567,Gorontalo,75.27,94.0,2.28,1643837.0,ID,123.0595,0.5412,38.0,1685816423.0
568,Vaitape,78.08,64.0,6.67,4033077.0,PF,-151.75,-16.5167,26.0,1685816425.0
569,Ottawa,69.71,37.0,19.57,6094817.0,CA,-75.6981,45.4112,20.0,1685816251.0
570,Petropavl,72.93,36.0,9.78,1520172.0,KZ,69.1628,54.8753,0.0,1685816429.0
571,Bossangoa,74.93,89.0,0.49,2388036.0,CF,17.4552,6.4926,77.0,1685816431.0
572,Lavrentiya,30.65,87.0,3.18,4031637.0,RU,-171.0,65.5833,13.0,1685816433.0
573,Muskegon,88.34,38.0,9.22,5003136.0,US,-86.1334,43.3,75.0,1685816435.0
574,Lālmohan,85.06,83.0,13.94,1185251.0,BD,90.7419,22.3384,21.0,1685816438.0
575,Gainesville,85.44,50.0,6.91,4156404.0,US,-82.3248,29.6516,0.0,1685816151.0
