,City,Temp_max,Humidity,wind_speed,city_id,country_code,long,lat,Cloudiness,datetime
0,Flin Flon,69.64,73.0,8.05,5954718.0,CA,-101.865,54.7682,75.0,1685383202.0
1,Severo-Kuril'sk,41.5,96.0,16.84,2121385.0,RU,156.125,50.6789,85.0,1685383204.0
2,Codrington,58.33,88.0,11.56,2171099.0,AU,141.9667,-38.2667,99.0,1685383208.0
3,Bredasdorp,58.84,97.0,21.43,1015776.0,ZA,20.0403,-34.5322,100.0,1685383212.0
4,Kindersley,69.82,46.0,11.5,5992154.0,CA,-109.1682,51.4668,75.0,1685383215.0
5,Kavieng,82.24,77.0,9.26,2094342.0,PG,150.7967,-2.5744,77.0,1685383217.0
6,Brae,50.0,85.0,17.56,2654970.0,GB,-1.353,60.3964,91.0,1685383222.0
7,Hithadhoo,82.99,76.0,7.78,1282256.0,MV,73.0833,-0.6,77.0,1685383226.0
8,Ponta Delgada,66.92,72.0,11.5,3372783.0,PT,-25.6667,37.7333,20.0,1685383229.0
9,Kaitangata,45.03,97.0,3.56,2208248.0,NZ,169.8464,-46.2817,89.0,1685383232.0
10,Neiafu,79.48,94.0,6.91,4032420.0,TO,-173.9833,-18.65,40.0,1685383236.0
11,Busselton,68.95,74.0,21.0,2075265.0,AU,115.3333,-33.65,99.0,1685383239.0
12,Kudahuvadhoo,83.21,74.0,13.38,1337607.0,MV,72.8944,2.6708,38.0,1685383241.0
13,Port Macquarie,40.89,74.0,5.08,2152659.0,AU,152.9167,-31.4333,6.0,1685383210.0
14,Jamestown,80.08,29.0,8.05,5122534.0,US,-79.2353,42.097,0.0,1685383246.0
15,Nantucket,55.15,83.0,24.52,4944903.0,US,-70.0995,41.2835,2.0,1685383232.0
16,São João da Barra,75.29,69.0,8.3,3448903.0,BR,-41.0511,-21.6403,96.0,1685383251.0
17,Castlebar,64.58,70.0,6.04,2965654.0,IE,-9.3,53.85,71.0,1685383253.0
18,Katobu,73.53,88.0,4.45,1640972.0,ID,122.5276,-4.9408,2.0,1685383255.0
19,Port Lincoln,57.22,96.0,5.93,2063036.0,AU,135.8667,-34.7333,85.0,1685383257.0
20,Padampur,79.66,62.0,9.53,1260938.0,IN,73.6167,29.6833,49.0,1685383260.0
21,Cayenne,77.04,94.0,1.14,3382160.0,GF,-52.3333,4.9333,75.0,1685383207.0
22,Norman Wells,55.44,62.0,8.05,6089245.0,CA,-126.8329,65.282,100.0,1685383264.0
23,Upernavik,26.2,56.0,5.97,3418910.0,GL,-56.1549,72.7868,80.0,1685383267.0
24,Ushuaia,46.06,81.0,4.61,3833367.0,AR,-68.3,-54.8,40.0,1685383269.0
25,Tasiilaq,35.76,99.0,1.32,3424607.0,GL,-37.6368,65.6145,100.0,1685383271.0
26,Thunder Bay,67.91,37.0,11.5,6166142.0,CA,-89.3168,48.4001,40.0,1685383149.0
27,Provideniya,36.09,96.0,6.22,4031574.0,RU,-173.3,64.3833,98.0,1685383277.0
28,Cap Malheureux,73.47,77.0,3.0,934649.0,MU,57.6142,-19.9842,1.0,1685383279.0
29,West Wendover,65.41,45.0,5.75,5710035.0,US,-114.0733,40.7391,0.0,1685383281.0
30,Tautira,80.62,73.0,13.89,4033557.0,PF,-149.15,-17.7333,92.0,1685383283.0
31,Avarua,73.45,88.0,4.61,4035715.0,CK,-159.775,-21.2078,100.0,1685383285.0
32,Punta Arenas,51.53,71.0,11.5,3874787.0,CL,-70.9167,-53.15,75.0,1685383287.0
33,Ozernovskiy,42.42,90.0,14.74,2122293.0,RU,156.5167,51.5,37.0,1685383290.0
34,Aksu,68.61,29.0,9.93,1529660.0,CN,80.2644,41.1231,10.0,1685383292.0
35,Arrondissement d'Ajaccio,70.52,69.0,11.5,3038333.0,FR,8.9167,42.0,75.0,1685383294.0
36,Cabedelo,77.67,79.0,11.92,3404558.0,BR,-34.8339,-6.9811,91.0,1685383301.0
37,Dikson,25.65,93.0,7.4,1507390.0,RU,80.5464,73.5069,16.0,1685383303.0
38,Hobart,48.34,76.0,5.75,2163355.0,AU,147.3294,-42.8794,75.0,1685383086.0
39,Vestmannaeyjar,49.19,93.0,18.41,3412093.0,IS,-20.2734,63.4427,100.0,1685383308.0
40,Alofi,78.37,83.0,20.4,4036284.0,NU,-169.9187,-19.0595,23.0,1685383310.0
41,Carnarvon,71.92,67.0,4.52,2074865.0,AU,113.6333,-24.8667,99.0,1685383312.0
42,Saint-Philippe,69.39,76.0,7.67,935215.0,RE,55.7679,-21.3585,44.0,1685383314.0
43,Cabra,70.97,39.0,11.16,2520645.0,ES,-4.4421,37.4725,53.0,1685383316.0
44,Feldbach,67.75,77.0,3.87,2779685.0,AT,15.8883,46.9531,37.0,1685383318.0
45,Tual,81.16,81.0,21.92,1623197.0,ID,132.75,-5.6667,92.0,1685383320.0
46,Longyearbyen,35.44,69.0,20.71,2729907.0,SJ,15.6401,78.2186,75.0,1685383323.0
47,Dukat,38.03,88.0,6.73,2125906.0,RU,155.55,62.55,97.0,1685383325.0
48,Jalu,81.7,22.0,6.91,86049.0,LY,21.5482,29.0331,2.0,1685383327.0
49,Vaini,75.36,94.0,12.66,4032243.0,TO,-175.2,-21.2,40.0,1685383330.0
50,Albany,81.14,34.0,1.99,5106841.0,US,-73.9662,42.6001,1.0,1685383114.0
51,Karaton,73.85,93.0,2.06,1630058.0,ID,106.1045,-6.3424,89.0,1685383334.0
52,Saldanha,53.65,91.0,8.14,3361934.0,ZA,17.9442,-33.0117,100.0,1685383336.0
53,Castro,56.3,89.0,6.85,3466704.0,BR,-50.0119,-24.7911,100.0,1685383257.0
54,Inhambane,73.0,83.0,5.99,1045114.0,MZ,35.3833,-23.865,20.0,1685383340.0
55,Mataura,44.58,92.0,2.64,6201424.0,NZ,168.8643,-46.1927,70.0,1685383343.0
56,Puerto Ayora,79.56,93.0,5.99,3652764.0,EC,-90.3518,-0.7393,34.0,1685383272.0
57,Arraial do Cabo,75.06,73.0,5.75,3471451.0,BR,-42.0278,-22.9661,75.0,1685383347.0
58,Obihiro,49.95,96.0,3.53,2128815.0,JP,143.2044,42.9172,99.0,1685383349.0
59,Penzance,61.48,76.0,12.01,2640377.0,GB,-5.5371,50.1186,61.0,1685383351.0
60,Butaritari,83.64,75.0,9.26,2110227.0,KI,172.7902,3.0707,68.0,1685383354.0
61,Rikitea,73.6,61.0,12.62,4030556.0,PF,-134.9692,-23.1203,100.0,1685383356.0
62,Namatanai,79.11,80.0,3.44,2090021.0,PG,152.4333,-3.6667,36.0,1685383358.0
63,Isangel,73.24,84.0,10.11,2136825.0,VU,169.2667,-19.55,83.0,1685383360.0
64,Saint George,84.16,16.0,4.0,5546220.0,US,-113.5841,37.1041,0.0,1685383316.0
65,Kruisfontein,61.88,96.0,10.4,986717.0,ZA,24.7314,-34.0033,100.0,1685383364.0
66,Mwinilunga,63.5,47.0,1.88,902620.0,ZM,24.4293,-11.7358,65.0,1685383367.0
67,Port Alfred,61.18,96.0,5.99,964432.0,ZA,26.891,-33.5906,100.0,1685383369.0
68,Marzuq,80.73,58.0,8.37,72181.0,YE,46.4667,14.4,20.0,1685383371.0
69,Puerto Escondido,89.02,57.0,7.63,3520994.0,MX,-97.0667,15.85,16.0,1685383373.0
70,Sivaki,42.53,77.0,1.32,2016477.0,RU,126.75,52.6333,96.0,1685383375.0
71,Yellowknife,55.92,54.0,11.5,6185377.0,CA,-114.3525,62.456,75.0,1685383202.0
72,Canchungo,91.53,61.0,13.35,2373951.0,GW,-16.0333,12.0672,82.0,1685383379.0
73,Östersund,45.05,39.0,21.99,2685750.0,SE,14.6357,63.1792,40.0,1685383382.0
74,Fort Nelson,58.95,36.0,13.8,5955902.0,CA,-122.7002,58.8053,40.0,1685383385.0
75,Castelo Branco,63.23,81.0,9.98,2269514.0,PT,-7.4909,39.8222,99.0,1685383387.0
76,Black River,87.66,64.0,10.04,3491355.0,JM,-77.8487,18.0264,16.0,1685383389.0
77,Atuona,80.19,76.0,20.83,4020109.0,PF,-139.0333,-9.8,23.0,1685383391.0
78,Birao,81.19,62.0,5.17,240210.0,CF,22.7882,10.2849,47.0,1685383394.0
79,Ekhabi,34.88,96.0,12.46,2122614.0,RU,142.9671,53.5102,82.0,1685383396.0
80,Barrow,33.82,93.0,11.5,5880054.0,US,-156.7887,71.2906,100.0,1685383398.0
81,Hilo,75.45,78.0,1.99,5855927.0,US,-155.09,19.7297,80.0,1685383400.0
82,Mehamn,42.71,82.0,23.13,778707.0,NO,27.8492,71.0357,81.0,1685383403.0
83,Shingū,72.84,97.0,5.41,1847947.0,JP,135.9833,33.7333,100.0,1685383405.0
84,George Town,81.46,85.0,1.14,1735106.0,MY,100.3354,5.4112,20.0,1685383252.0
85,Russell,78.76,47.0,5.75,4047434.0,US,-85.1999,32.3502,75.0,1685383409.0
86,Sidhi,92.26,30.0,4.41,1256369.0,IN,81.8833,24.4167,25.0,1685383412.0
87,Laramie,67.17,28.0,17.27,5830062.0,US,-105.5911,41.3114,75.0,1685383146.0
88,Bluff,49.3,85.0,11.27,2206939.0,NZ,168.3333,-46.6,60.0,1685383282.0
89,Bayir,63.12,90.0,3.11,304183.0,TR,28.2167,37.2687,100.0,1685383419.0
90,Vila Velha,75.15,73.0,9.22,3445026.0,BR,-40.2925,-20.3297,100.0,1685383195.0
91,Kapaa,75.38,86.0,5.01,5848280.0,US,-159.319,22.0752,7.0,1685383423.0
92,Margate,53.33,72.0,13.0,2643044.0,GB,1.3862,51.3813,86.0,1685383395.0
93,Kamaishi,57.85,97.0,5.32,2112444.0,JP,141.8833,39.2667,79.0,1685383274.0
94,Stăncuţa,65.57,75.0,8.16,666309.0,RO,27.8333,44.9,94.0,1685383429.0
95,Ankang,69.4,91.0,2.62,1789065.0,CN,109.0172,32.68,100.0,1685383431.0
96,Port Elizabeth,62.6,91.0,18.41,964420.0,ZA,25.5701,-33.918,100.0,1685383333.0
97,Morant Bay,89.22,71.0,10.2,3489440.0,JM,-76.4093,17.8815,60.0,1685383436.0
98,São Miguel,81.37,71.0,11.7,3388304.0,BR,-35.3667,-5.4667,43.0,1685383438.0
99,Guerrero Negro,67.28,57.0,13.58,4021858.0,MX,-114.0611,27.9769,76.0,1685383440.0
100,Husavik,54.72,64.0,7.58,2629833.0,IS,-17.3389,66.0449,97.0,1685383442.0
101,Ahipara,59.83,94.0,2.84,2194098.0,NZ,173.1667,-35.1667,91.0,1685383444.0
102,Saint Paul Harbor,47.71,61.0,5.75,5866583.0,US,-152.4072,57.79,100.0,1685383447.0
103,Mahébourg,75.49,78.0,5.75,934322.0,MU,57.7,-20.4081,20.0,1685383449.0
104,Mount Isa,42.57,56.0,0.0,2065594.0,AU,139.5,-20.7333,77.0,1685383451.0
105,Te Anau,49.69,89.0,6.13,2181625.0,NZ,167.7167,-45.4167,70.0,1685383453.0
106,Alenquer,81.63,79.0,7.02,3407980.0,BR,-54.7383,-1.9417,99.0,1685383295.0
107,São Miguel do Araguaia,92.82,29.0,4.29,3448455.0,BR,-50.1628,-13.275,59.0,1685383457.0
108,Kriel,56.8,41.0,5.12,987202.0,ZA,29.2253,-26.2739,99.0,1685383460.0
109,Marsh Harbour,82.53,68.0,9.17,3571913.0,BS,-77.0636,26.5412,98.0,1685383462.0
110,Souillac,75.58,78.0,5.75,933995.0,MU,57.5167,-20.5167,20.0,1685383465.0
111,Tigil',47.41,61.0,4.92,2120612.0,RU,158.6667,57.8,22.0,1685383472.0
112,Kaeo,59.79,95.0,2.08,2189343.0,NZ,173.7833,-35.1,94.0,1685383318.0
113,Cape Town,60.48,82.0,25.32,3369157.0,ZA,18.4232,-33.9258,75.0,1685383389.0
114,Cidreira,64.99,58.0,7.45,3466165.0,BR,-50.2056,-30.1811,7.0,1685383478.0
115,Khatanga,34.05,77.0,9.89,2022572.0,RU,102.5,71.9667,75.0,1685383459.0
116,Karlshamn,59.49,44.0,12.64,2701727.0,SE,14.8619,56.1706,89.0,1685383483.0
117,Pevek,30.65,92.0,20.78,2122090.0,RU,170.3133,69.7008,100.0,1685383485.0
118,Mar del Plata,57.94,62.0,11.5,3430863.0,AR,-57.5575,-38.0023,0.0,1685383471.0
119,Gobabis,65.07,16.0,11.43,3357247.0,NA,18.9667,-22.45,20.0,1685383489.0
120,Gaoyou,67.96,92.0,6.38,1810309.0,CN,119.4278,32.7858,81.0,1685383492.0
121,Bethel,76.98,42.0,1.99,5282297.0,US,-73.414,41.3712,3.0,1685383291.0
122,Santa Maria da Vitória,93.83,23.0,3.8,3450063.0,BR,-44.1886,-13.3947,6.0,1685383474.0
123,Banda Aceh,80.65,78.0,12.84,1215502.0,ID,95.3222,5.5577,99.0,1685383498.0
124,Georgiyevka,62.64,23.0,6.71,1524243.0,KZ,74.7114,43.0369,0.0,1685383500.0
125,Zonguldak,54.5,96.0,1.79,737021.0,TR,31.8333,41.25,78.0,1685383503.0
126,Booué,75.7,92.0,2.01,2401495.0,GA,11.9385,-0.0921,66.0,1685383505.0
127,Siyabuswa,64.51,37.0,8.52,955313.0,ZA,29.0445,-25.1132,29.0,1685383507.0
128,Dunedin,50.81,82.0,1.36,2191562.0,NZ,170.5036,-45.8742,86.0,1685383510.0
129,Roald,48.42,100.0,11.5,3141667.0,NO,6.1333,62.5833,100.0,1685383512.0
130,Tweed,75.85,40.0,9.17,6170799.0,CA,-77.3162,44.4751,10.0,1685383514.0
131,Nanortalik,36.66,83.0,6.58,3421765.0,GL,-45.2371,60.1432,16.0,1685383517.0
132,Port Blair,80.64,89.0,2.3,1259385.0,IN,92.75,11.6667,40.0,1685383519.0
133,Lubango,58.69,63.0,2.15,3347762.0,AO,13.4925,-14.9172,14.0,1685383521.0
134,Shumskiy,52.72,59.0,4.45,1491977.0,RU,99.1328,54.8318,100.0,1685383523.0
135,San Cristobal,78.98,47.0,5.01,3628473.0,VE,-72.225,7.7669,56.0,1685383526.0
136,Nioro,106.09,21.0,3.8,2412408.0,GM,-15.75,13.35,99.0,1685383528.0
137,Thompson,64.56,88.0,8.05,6165406.0,CA,-97.8558,55.7435,100.0,1685383328.0
138,Manaus,88.29,66.0,3.44,3663517.0,BR,-60.025,-3.1019,40.0,1685383462.0
139,Laguna,67.77,64.0,11.5,5364271.0,US,-121.4238,38.421,0.0,1685383535.0
140,Hermanus,58.8,91.0,20.2,3366880.0,ZA,19.2345,-34.4187,100.0,1685383537.0
141,Westport,74.25,47.0,13.8,4845585.0,US,-73.3579,41.1415,0.0,1685383372.0
142,Dicabisagan,80.51,80.0,8.46,1715015.0,PH,122.4157,17.0818,100.0,1685383542.0
143,Newport,63.7,61.0,15.57,2641598.0,GB,-2.9984,51.5877,92.0,1685383544.0
144,Tateyama,69.57,96.0,6.71,1850523.0,JP,139.8667,34.9833,100.0,1685383546.0
145,Kuznechikha,54.21,66.0,1.7,537760.0,RU,42.3348,57.2161,2.0,1685383548.0
146,Poum,73.63,77.0,16.46,2138555.0,NC,164.0167,-20.2333,100.0,1685383550.0
147,Chokurdakh,37.89,82.0,9.71,2126123.0,RU,147.9167,70.6333,62.0,1685383553.0
148,Coquimbo,62.33,77.0,9.22,3893629.0,CL,-71.3436,-29.9533,75.0,1685383555.0
149,Ust-Nera,43.63,89.0,4.0,2120048.0,RU,143.2,64.5667,40.0,1685383557.0
150,Kavaratti,86.56,70.0,8.05,1267390.0,IN,72.642,10.5669,76.0,1685383559.0
151,Eruwa,82.04,71.0,3.2,2338669.0,NG,3.4167,7.5333,97.0,1685383561.0
152,Polyarny,43.81,86.0,13.24,506763.0,RU,33.4478,69.1989,82.0,1685383563.0
153,Ribeira Grande,68.4,68.0,5.75,3372707.0,PT,-28.7,38.5167,40.0,1685383535.0
154,Kalemie,74.14,77.0,3.56,214974.0,CD,29.1947,-5.9475,87.0,1685383568.0
155,Tuktoyaktuk,50.0,62.0,12.66,6170031.0,CA,-133.0374,69.4541,40.0,1685383571.0
156,Tomatlán,94.23,41.0,10.07,3981391.0,MX,-105.25,19.9333,0.0,1685383563.0
157,Bratca,60.55,84.0,3.74,683837.0,RO,22.6167,46.9333,89.0,1685383575.0
158,Chiang Khong,76.78,83.0,0.94,1611197.0,TH,100.4046,20.2613,21.0,1685383577.0
159,Gijang,65.93,95.0,3.78,1842966.0,KR,129.2139,35.2442,98.0,1685383579.0
160,Vao,71.37,69.0,12.82,2137773.0,NC,167.4833,-22.6667,100.0,1685383520.0
161,Marawi,70.75,92.0,6.53,1701054.0,PH,124.2928,7.9986,97.0,1685383584.0
162,Kununurra,58.98,51.0,1.14,2068110.0,AU,128.7333,-15.7667,50.0,1685383586.0
163,Ponta do Sol,73.29,69.0,7.0,2264557.0,PT,-17.1,32.6667,14.0,1685383501.0
164,Vanimo,77.63,83.0,2.77,2084442.0,PG,141.3028,-2.6741,88.0,1685383591.0
165,Kenai,45.12,81.0,0.0,5866063.0,US,-151.2583,60.5544,40.0,1685383593.0
166,Tarnogskiy Gorodok,53.62,71.0,5.97,484314.0,RU,43.5761,60.4997,6.0,1685383595.0
167,Tottori-shi,65.53,99.0,3.69,1849892.0,JP,134.2333,35.5,100.0,1685383557.0
168,Baracoa,87.64,63.0,5.57,3567834.0,CU,-74.4958,20.3467,61.0,1685383599.0
169,Krasnyy Kholm,56.84,67.0,3.94,541704.0,RU,37.1203,58.0607,40.0,1685383601.0
170,Nabire,77.29,90.0,3.76,1634614.0,ID,135.4833,-3.3667,56.0,1685383604.0
171,Zaysan,50.97,47.0,9.08,1517060.0,KZ,84.8667,47.4667,51.0,1685383606.0
172,New Norfolk,48.24,86.0,7.16,2155415.0,AU,147.0587,-42.7826,100.0,1685383608.0
173,Muhos,49.23,52.0,9.71,645765.0,FI,25.9931,64.808,56.0,1685383610.0
174,Sabzawār,80.29,15.0,11.77,118063.0,IR,57.6819,36.2126,56.0,1685383612.0
175,Catuday,82.45,74.0,14.18,1717787.0,PH,119.8062,16.2923,99.0,1685383614.0
176,Enshi,73.06,96.0,2.01,1811720.0,CN,109.4833,30.3,31.0,1685383617.0
177,Timiryazevskiy,48.02,84.0,3.87,1489597.0,RU,84.8769,56.49,98.0,1685383619.0
178,Aklavik,57.65,46.0,11.27,5882953.0,CA,-135.0107,68.2191,77.0,1685383621.0
179,Pochutla,92.82,42.0,9.28,3517970.0,MX,-96.4661,15.7432,27.0,1685383623.0
180,Bathsheba,86.61,70.0,11.5,3374083.0,BB,-59.5167,13.2167,40.0,1685383625.0
181,Salalah,84.29,84.0,3.44,286621.0,OM,54.0924,17.0151,40.0,1685383628.0
182,Airai,54.72,89.0,3.13,1651810.0,TL,125.4092,-8.9266,96.0,1685383630.0
183,Fuyang,68.38,95.0,5.41,1810845.0,CN,115.8167,32.9,85.0,1685383637.0
184,Makakilo City,74.25,73.0,9.22,5850554.0,US,-158.0858,21.3469,0.0,1685383640.0
185,Impfondo,77.68,77.0,0.58,2259655.0,CG,18.0667,1.6381,45.0,1685383642.0
186,Anloga,81.64,78.0,5.03,2304548.0,GH,0.8973,5.7947,100.0,1685383644.0
187,Chui,58.6,51.0,3.29,3443061.0,UY,-53.4616,-33.6971,47.0,1685383646.0
188,Nishihara,79.88,90.0,18.41,1855342.0,JP,127.7558,26.1842,20.0,1685383648.0
189,Bariloche,49.41,55.0,5.75,7647007.0,AR,-71.3082,-41.1456,18.0,1685383650.0
190,Kristianstad,59.14,44.0,10.36,2699310.0,SE,14.1524,56.0313,99.0,1685383652.0
191,Cabo San Lucas,81.72,53.0,11.5,3985710.0,MX,-109.9124,22.8909,0.0,1685383660.0
192,Hunchun,50.97,66.0,3.47,2036653.0,CN,130.3581,42.8675,45.0,1685383662.0
193,Aykhal,45.32,87.0,6.82,2027296.0,RU,111.5,66.0,100.0,1685383664.0
194,Nchelenge,72.37,67.0,3.15,175499.0,ZM,28.734,-9.3451,78.0,1685383666.0
195,Hobyo,82.8,78.0,23.38,57000.0,SO,48.5268,5.3505,64.0,1685383668.0
196,Pechenga,41.67,93.0,8.68,511865.0,RU,31.1703,69.5259,100.0,1685383671.0
197,Hambantota,79.43,84.0,10.11,1244926.0,LK,81.1185,6.1241,91.0,1685383673.0
198,Lompoc,62.13,74.0,5.75,5367788.0,US,-120.4579,34.6391,0.0,1685383487.0
199,Hasaki,66.67,96.0,6.11,2112802.0,JP,140.8333,35.7333,100.0,1685383677.0
200,Departamento de Maldonado,56.23,44.0,3.27,3441890.0,UY,-54.9167,-34.6667,71.0,1685383679.0
201,Naze,73.44,96.0,7.61,1855540.0,JP,129.4833,28.3667,46.0,1685383682.0
202,Nikolskoye,54.27,55.0,4.27,546105.0,RU,30.7861,59.7035,52.0,1685383684.0
203,Dul'durga,46.78,39.0,0.45,2024812.0,RU,113.5931,50.6761,1.0,1685383686.0
204,Leh,49.46,31.0,3.78,1264976.0,IN,77.5833,34.1667,98.0,1685383689.0
205,Lata,60.93,99.0,4.16,2738381.0,PT,-8.3327,40.1629,100.0,1685383691.0
206,Tiksi,38.59,98.0,13.35,2015306.0,RU,128.8694,71.6872,48.0,1685383693.0
207,Qaanaaq,23.16,65.0,4.68,3831208.0,GL,-69.3632,77.484,16.0,1685383696.0
208,Ilulissat,33.82,47.0,6.91,3423146.0,GL,-51.1,69.2167,75.0,1685383698.0
209,Saint-Augustin,51.21,37.0,15.66,6137462.0,CA,-58.6502,51.226,82.0,1685383700.0
210,Saskylakh,36.54,91.0,17.6,2017155.0,RU,114.0833,71.9167,49.0,1685383480.0
211,Tessalit,97.88,14.0,19.15,2449893.0,ML,1.0114,20.1986,60.0,1685383705.0
212,Rayong,82.38,82.0,2.51,1607016.0,TH,101.4333,12.8333,65.0,1685383707.0
213,Sur,91.04,55.0,12.35,286245.0,OM,59.5289,22.5667,0.0,1685383709.0
214,Bereket,88.9,14.0,13.73,161974.0,TM,55.5154,39.2446,69.0,1685383550.0
215,Staraya Kulatka,61.81,56.0,7.76,489164.0,RU,47.6167,52.7167,84.0,1685383713.0
216,Roswell,72.36,56.0,8.05,4219934.0,US,-84.3616,34.0232,0.0,1685383542.0
217,Santa Luzia,76.1,63.0,4.27,3450144.0,BR,-43.8514,-19.7697,73.0,1685383717.0
218,São Filipe,77.38,68.0,11.34,3374210.0,CV,-24.4956,14.8961,100.0,1685383502.0
219,San Luis,63.12,41.0,5.77,3837056.0,AR,-66.3356,-33.295,67.0,1685383423.0
220,Fairbanks,46.74,91.0,13.8,5861897.0,US,-147.7164,64.8378,100.0,1685383724.0
221,Sibolga,76.44,87.0,2.98,1213855.0,ID,98.7792,1.7427,27.0,1685383726.0
222,Pahrump,82.45,22.0,11.99,5509851.0,US,-115.9839,36.2083,20.0,1685383728.0
223,Narsaq,48.42,86.0,4.07,3421719.0,GL,-46.05,60.9167,80.0,1685383730.0
224,Hamilton,82.56,37.0,10.36,4513583.0,US,-84.5333,39.1834,0.0,1685383732.0
225,Fortuna,54.52,100.0,8.05,5563839.0,US,-124.1573,40.5982,100.0,1685383734.0
226,Ayan,40.75,70.0,8.01,2027316.0,RU,138.1667,56.45,85.0,1685383737.0
227,El Dorado,66.76,59.0,1.01,5345659.0,US,-120.5177,38.7666,10.0,1685383739.0
228,Leonidovo,39.81,85.0,5.88,2123805.0,RU,142.8667,49.2833,100.0,1685383741.0
229,Chicama,75.74,61.0,9.33,3698359.0,PE,-79.1469,-7.8447,69.0,1685383608.0
230,Umluj,83.26,78.0,4.03,100926.0,SA,37.2685,25.0213,52.0,1685383745.0
231,Acapulco de Juárez,93.02,49.0,9.22,3533462.0,MX,-99.8901,16.8634,0.0,1685383662.0
232,Santa Maria,60.1,72.0,9.22,3450083.0,BR,-53.8069,-29.6842,75.0,1685383575.0
233,Ubinskoye,47.28,83.0,6.31,1488708.0,RU,79.6802,55.3068,73.0,1685383751.0
234,Flinders,54.77,68.0,4.0,6255012.0,AU,150.8552,-34.5833,92.0,1685383754.0
235,Broome,85.35,33.0,8.05,5110365.0,US,-75.833,42.2506,0.0,1685383756.0
236,Mossamedes,67.86,57.0,13.91,3347019.0,AO,12.1522,-15.1961,16.0,1685383458.0
237,Orange Cove,74.12,51.0,6.91,5379533.0,US,-119.3137,36.6244,0.0,1685383760.0
238,Barra Patuca,89.15,60.0,9.62,3614835.0,HN,-84.2833,15.8,56.0,1685383762.0
239,Arlit,99.28,10.0,7.23,2447513.0,NE,7.3853,18.7369,21.0,1685383764.0
240,Chilia Veche,65.82,77.0,7.63,682117.0,RO,29.2833,45.4167,84.0,1685383767.0
241,Conde,76.46,100.0,4.61,3385077.0,BR,-34.9075,-7.2597,100.0,1685383569.0
242,Bulungu,78.78,72.0,2.24,2316259.0,CD,18.6,-4.55,82.0,1685383771.0
243,Baker City,69.82,65.0,4.61,5712169.0,US,-117.8344,44.7749,0.0,1685383499.0
244,Rājākhera,88.97,40.0,5.61,1258930.0,IN,78.1714,26.8961,47.0,1685383776.0
245,Portland,63.66,65.0,5.01,5746545.0,US,-122.6762,45.5234,40.0,1685383600.0
246,Birkeland,58.71,49.0,6.91,3161532.0,NO,8.2323,58.3309,90.0,1685383780.0
247,Dvinskoy Bereznik,57.81,50.0,7.05,577240.0,RU,42.7072,62.8551,69.0,1685383782.0
248,Jalingo,89.51,46.0,6.71,2336589.0,NG,11.3667,8.8833,99.0,1685383784.0
249,Yar-Sale,47.26,84.0,13.71,1486321.0,RU,70.8333,66.8333,100.0,1685383786.0
250,Tafresh,70.68,40.0,4.59,113636.0,IR,50.013,34.692,87.0,1685383789.0
251,Homer,46.47,77.0,4.61,5864145.0,US,-151.5483,59.6425,40.0,1685383791.0
252,Mandalgovi,50.81,73.0,17.92,2030065.0,MN,106.2708,45.7625,100.0,1685383793.0
253,Kibala,81.19,58.0,5.23,2425791.0,TD,18.3463,9.1104,69.0,1685383795.0
254,Ulladulla,52.03,69.0,7.94,2145554.0,AU,150.4667,-35.35,71.0,1685383797.0
255,Sitka,44.49,76.0,5.75,5557293.0,US,-135.33,57.0531,100.0,1685383799.0
256,Leningradskiy,30.04,95.0,31.12,2123814.0,RU,178.4167,69.3833,100.0,1685383802.0
257,Takāb,64.33,57.0,1.9,113508.0,IR,47.1133,36.4009,100.0,1685383804.0
258,Tarancón,64.63,59.0,2.35,3108317.0,ES,-3.0073,40.0085,100.0,1685383806.0
259,Goderich,62.91,76.0,8.97,5962442.0,CA,-81.7165,43.7501,3.0,1685383808.0
260,Rosa Zarate,83.35,78.0,3.53,3652257.0,EC,-79.4667,0.3333,83.0,1685383811.0
261,Luganville,75.52,79.0,5.66,2136150.0,VU,167.1667,-15.5333,96.0,1685383813.0
262,Druzhba,54.84,70.0,4.92,709584.0,UA,33.9453,52.0428,2.0,1685383815.0
263,Valea lui Mihai,71.31,79.0,6.96,663692.0,RO,22.15,47.5167,90.0,1685383817.0
264,Ancud,44.71,82.0,5.53,3899695.0,CL,-73.8203,-41.8697,100.0,1685383819.0
265,Matagami,72.21,22.0,6.6,6067747.0,CA,-77.6328,49.7502,64.0,1685383821.0
266,Peniche,64.11,88.0,7.29,2264923.0,PT,-9.3811,39.3558,100.0,1685383824.0
267,Miraflores,74.05,37.0,4.12,3761194.0,MX,-98.8083,19.2167,3.0,1685383826.0
268,Lebu,54.28,54.0,7.09,3883457.0,CL,-73.65,-37.6167,51.0,1685383828.0
269,Crawley,57.97,55.0,14.97,2652053.0,GB,-0.1831,51.113,0.0,1685383830.0
270,Khonsa,69.53,79.0,4.03,1266668.0,IN,95.5667,27.0167,4.0,1685383832.0
271,Yumen,55.9,60.0,12.17,1528998.0,CN,97.2,40.2833,1.0,1685383834.0
272,Bubaque,81.79,82.0,16.73,2374583.0,GW,-15.8333,11.2833,100.0,1685383836.0
273,Ribas do Rio Pardo,77.95,59.0,6.2,3451399.0,BR,-53.7592,-20.4431,99.0,1685383839.0
274,Malbork,56.86,78.0,6.89,3092472.0,PL,19.0266,54.0359,78.0,1685383841.0
275,Saint-Leu,69.87,94.0,7.74,6690297.0,RE,55.2833,-21.15,55.0,1685383843.0
276,Arkhara,43.5,70.0,6.31,2027487.0,RU,130.0842,49.4212,50.0,1685383845.0
277,Tura,76.8,64.0,2.86,1254046.0,IN,90.2201,25.5198,0.0,1685383847.0
278,Ingham,83.14,20.0,6.91,4997130.0,US,-84.3833,42.6,0.0,1685383849.0
279,Sarandi,69.98,70.0,7.25,3447998.0,BR,-51.8739,-23.4436,92.0,1685383851.0
280,Biak,76.26,85.0,5.84,1637001.0,ID,122.8766,-0.9131,9.0,1685383853.0
281,Nieuw Amsterdam,78.91,92.0,9.22,3383434.0,SR,-55.0833,5.8833,75.0,1685383856.0
282,Boundiali,93.25,38.0,5.86,2290836.0,CI,-6.4869,9.5217,68.0,1685383858.0
283,Aitape,78.06,83.0,4.05,2101169.0,PG,142.3475,-3.1374,99.0,1685383860.0
284,Manadhoo,83.84,76.0,8.55,1337618.0,MV,73.3833,5.7667,97.0,1685383862.0
285,Ca Mau,78.69,89.0,4.5,1586443.0,VN,105.15,9.1769,99.0,1685383869.0
286,San Patricio,85.64,57.0,7.4,4726521.0,US,-97.5169,28.017,99.0,1685383872.0
287,Portree,55.53,72.0,6.67,2640006.0,GB,-6.1942,57.4129,30.0,1685383874.0
288,Srednekolymsk,44.17,56.0,2.51,2121025.0,RU,153.6833,67.45,23.0,1685383876.0
289,Zhangaözen,86.2,25.0,11.21,607610.0,KZ,52.8,43.3,86.0,1685383879.0
290,Mayo,69.55,87.0,7.0,4362001.0,US,-76.5119,38.8876,100.0,1685383881.0
291,Hualmay,74.52,72.0,11.83,3939761.0,PE,-77.6139,-11.0964,63.0,1685383884.0
292,Púchov,68.49,71.0,5.73,3057963.0,SK,18.326,49.1249,79.0,1685383886.0
293,Hong Kong,85.01,85.0,8.01,1819729.0,HK,114.1577,22.2855,68.0,1685383695.0
294,Dzilam González,93.13,44.0,0.45,3529654.0,MX,-88.9333,21.2833,100.0,1685383891.0
295,Sistranda,48.16,84.0,14.56,3139597.0,NO,8.834,63.7256,42.0,1685383893.0
296,Ondjiva,77.85,23.0,9.73,3346821.0,AO,15.7333,-17.0667,35.0,1685383895.0
297,Taguatinga,94.3,25.0,4.47,6319623.0,BR,-46.5711,-12.3857,7.0,1685383664.0
298,Evensk,47.19,73.0,9.66,2125693.0,RU,159.2333,61.95,51.0,1685383899.0
299,Katsuura,69.13,97.0,4.68,2112309.0,JP,140.3,35.1333,100.0,1685383901.0
300,Ambovombe,70.05,82.0,10.76,1079048.0,MG,46.0833,-25.1667,0.0,1685383904.0
301,Pisco,73.45,68.0,11.5,3932145.0,PE,-76.2167,-13.7,20.0,1685383906.0
302,Lala,75.61,96.0,2.3,1707944.0,PH,123.7458,7.9745,100.0,1685383909.0
303,East London,65.95,89.0,16.62,1006984.0,ZA,27.9116,-33.0153,100.0,1685383821.0
304,Nyurba,43.95,86.0,4.07,2018735.0,RU,118.3319,63.2842,35.0,1685383913.0
305,Baykit,52.48,64.0,5.26,1510689.0,RU,96.37,61.67,94.0,1685383915.0
306,Muyezerskiy,48.56,57.0,8.9,524100.0,RU,31.65,63.9333,95.0,1685383917.0
307,Umarkot,91.45,50.0,16.06,1162959.0,PK,69.7362,25.3616,15.0,1685383919.0
308,Paamiut,33.12,83.0,17.02,3421193.0,GL,-49.6678,61.994,7.0,1685383921.0
309,Gberia Fotombu,79.7,76.0,5.59,2409019.0,SL,-11.1667,9.8833,58.0,1685383923.0
310,Auki,77.74,89.0,4.92,2109701.0,SB,160.7034,-8.7676,98.0,1685383926.0
311,Timmins,78.67,37.0,4.94,6166739.0,CA,-81.3331,48.4669,8.0,1685383681.0
312,Pachino,67.64,74.0,7.67,6539213.0,IT,15.0907,36.7186,99.0,1685383930.0
313,Arrondissement d'Arcachon,71.69,68.0,5.75,6621469.0,FR,-1.0519,44.5875,0.0,1685383932.0
314,Avera,77.07,48.0,6.15,4231997.0,US,-82.5271,33.194,23.0,1685383935.0
315,Bonthe,83.48,76.0,6.71,2409914.0,SL,-12.505,7.5264,54.0,1685383937.0
316,Songjianghe,44.06,71.0,4.16,2034691.0,CN,127.479,42.1859,61.0,1685383939.0
317,Salisbury,62.94,47.0,14.97,2638664.0,GB,-1.7957,51.0693,88.0,1685383941.0
318,Xi'an,62.92,98.0,3.58,1790630.0,CN,108.9286,34.2583,99.0,1685383943.0
319,Touros,83.57,68.0,11.39,3386213.0,BR,-35.4608,-5.1989,33.0,1685383946.0
320,Boda,72.27,79.0,2.04,2388614.0,CF,17.4695,4.3189,63.0,1685383948.0
321,Mayumba,76.15,87.0,7.43,2399001.0,GA,10.6554,-3.432,18.0,1685383950.0
322,Chul'man,38.97,87.0,2.1,2025261.0,RU,124.9104,56.8479,95.0,1685383952.0
323,Tambacounda,107.65,26.0,6.91,2244991.0,SN,-13.7586,13.7539,0.0,1685383955.0
324,Bushehr,86.09,54.0,6.91,139817.0,IR,50.8385,28.9684,0.0,1685383957.0
325,Port Hardy,53.78,62.0,16.11,6111862.0,CA,-127.4199,50.6996,75.0,1685383959.0
326,Shashi,70.7,86.0,9.89,1795816.0,CN,112.2447,30.3072,100.0,1685383961.0
327,Grand-Lahou,81.93,81.0,8.28,2288105.0,CI,-5.0242,5.1367,65.0,1685383963.0
328,State College,83.66,36.0,11.99,5213681.0,US,-77.86,40.7934,40.0,1685383966.0
329,Teguise,71.82,53.0,12.66,2510573.0,ES,-13.564,29.0605,40.0,1685383968.0
330,Magdagachi,42.12,78.0,1.83,2020591.0,RU,125.8,53.45,99.0,1685383971.0
331,Gaozhou,77.5,84.0,2.73,1810295.0,CN,110.8461,21.9392,0.0,1685383973.0
332,Meulaboh,76.91,88.0,3.13,1214488.0,ID,96.1285,4.1363,74.0,1685383975.0
333,Río Gallegos,51.85,62.0,9.22,3838859.0,AR,-69.2181,-51.6226,0.0,1685383953.0
334,Chaihe,48.04,72.0,3.13,2038198.0,CN,129.7,44.7667,65.0,1685383979.0
335,Nikel,42.98,80.0,10.58,522260.0,RU,30.222,69.4128,99.0,1685383981.0
336,Beringovskiy,35.73,71.0,30.98,2126710.0,RU,179.3167,63.05,70.0,1685383983.0
337,Coyhaique,46.35,61.0,10.36,3894426.0,CL,-72.0662,-45.5752,75.0,1685383985.0
338,Vardø,44.58,81.0,6.91,777019.0,NO,31.1107,70.3705,75.0,1685383988.0
339,Talnakh,32.45,80.0,4.18,1490256.0,RU,88.3972,69.4865,2.0,1685383990.0
340,Faya,59.52,82.0,10.58,110690.0,SA,42.4509,18.3851,98.0,1685383992.0
341,Znamenskoye,57.2,89.0,3.33,1485020.0,RU,73.8282,57.1281,99.0,1685383994.0
342,Manavgat,65.08,81.0,1.1,304854.0,TR,31.4431,36.7867,100.0,1685383996.0
343,Cairns,58.95,77.0,13.8,2172797.0,AU,145.7667,-16.9167,85.0,1685383999.0
344,Klaksvík,52.72,81.0,15.39,2618795.0,FO,-6.589,62.2266,69.0,1685384001.0
345,Fonte Boa,90.48,56.0,1.88,6319315.0,BR,-66.2662,-2.4959,80.0,1685384003.0
346,Piaçabuçu,81.1,68.0,7.72,3454005.0,BR,-36.4344,-10.4056,20.0,1685384005.0
347,Havøysund,43.03,81.0,29.06,779622.0,NO,24.6622,70.9963,100.0,1685384007.0
348,Boden,46.4,51.0,5.39,606531.0,SE,21.6886,65.8252,87.0,1685384009.0
349,Nhulunbuy,74.01,78.0,10.36,2064735.0,AU,136.7667,-12.2333,40.0,1685384011.0
350,Kamenka,58.35,78.0,9.35,553766.0,RU,42.7678,51.3223,58.0,1685384013.0
351,Kazachinskoye,55.27,52.0,2.26,1504075.0,RU,93.2761,57.6953,100.0,1685384016.0
352,Geraldton,64.81,42.0,12.66,2070998.0,AU,114.6,-28.7667,100.0,1685384018.0
353,Maxixe,71.42,88.0,3.44,1039536.0,MZ,35.3472,-23.8597,20.0,1685384020.0
354,Leon Valley,83.28,60.0,9.22,4705923.0,US,-98.6186,29.4952,75.0,1685384022.0
355,Nome,30.27,100.0,9.22,5870133.0,US,-165.4064,64.5011,100.0,1685384024.0
356,Manokwari,79.25,81.0,5.99,1636308.0,ID,134.0833,-0.8667,26.0,1685384026.0
357,Grand-Santi,85.08,75.0,3.56,3381538.0,GF,-54.3833,4.25,69.0,1685384028.0
358,Faanui,80.6,81.0,12.01,4034551.0,PF,-151.75,-16.4833,54.0,1685384030.0
359,Clyde River,27.84,94.0,4.05,5924351.0,CA,-68.5914,70.4692,100.0,1685383840.0
360,Kosa,53.87,78.0,8.25,544318.0,RU,54.9977,59.9445,49.0,1685384035.0
361,Blackwater,48.0,56.0,7.4,2175403.0,AU,148.8833,-23.5833,0.0,1685384037.0
362,Assiniboia,71.42,43.0,9.22,5887798.0,CA,-105.9845,49.6334,100.0,1685384039.0
363,Bambous Virieux,75.45,78.0,5.75,1106677.0,MU,57.7575,-20.3428,20.0,1685384041.0
364,Arona,68.22,83.0,11.5,2521582.0,ES,-16.681,28.0996,20.0,1685384043.0
365,Belyy Yar,48.09,93.0,8.95,1510377.0,RU,91.3903,53.6039,75.0,1685384047.0
366,San Miguel,97.21,41.0,0.65,3583446.0,SV,-88.1833,13.4833,75.0,1685383819.0
367,Maniitsoq,31.08,63.0,3.85,3421982.0,GL,-52.9,65.4167,55.0,1685384051.0
368,Freeport,73.94,45.0,20.71,5117949.0,US,-73.5832,40.6576,0.0,1685383958.0
369,Constitución,61.57,45.0,7.31,3893726.0,CL,-72.4167,-35.3333,13.0,1685384055.0
370,Tarakan,81.73,81.0,6.89,1624725.0,ID,117.6333,3.3,87.0,1685384057.0
371,Nirmal,94.39,31.0,5.41,1261288.0,IN,78.35,19.1,85.0,1685384059.0
372,Zmeinogorsk,49.69,67.0,6.38,1485042.0,RU,82.195,51.1567,91.0,1685384062.0
373,Valparaíso,70.39,57.0,4.61,3868626.0,CL,-71.6273,-33.0393,0.0,1685384064.0
374,Caravelas,79.59,67.0,7.38,3466980.0,BR,-39.2481,-17.7125,53.0,1685384066.0
375,Torbay,42.57,80.0,18.99,6167817.0,CA,-52.7314,47.6666,100.0,1685384068.0
376,Le Port,70.65,94.0,6.04,935616.0,RE,55.2919,-20.9373,42.0,1685384071.0
377,Kumul,60.94,40.0,11.97,1529484.0,CN,93.45,42.8,51.0,1685384073.0
378,Inverell,39.85,91.0,2.8,2162662.0,AU,151.1167,-29.7833,0.0,1685384075.0
379,Tortolì,69.62,83.0,5.75,2522890.0,IT,9.6572,39.9256,0.0,1685384077.0
380,Beipiao,69.22,19.0,8.37,2038342.0,CN,120.7792,41.7919,100.0,1685384079.0
381,Novo Aripuanã,95.95,37.0,3.56,3663142.0,BR,-60.3797,-5.1206,88.0,1685384081.0
382,Akdepe,78.89,14.0,10.69,601551.0,TM,59.3788,42.0551,5.0,1685384083.0
383,Pangnirtung,33.8,75.0,4.61,6096551.0,CA,-65.7125,66.1451,100.0,1685384085.0
384,Komatipoort,66.06,60.0,2.15,988290.0,ZA,31.9548,-25.4332,64.0,1685384088.0
385,Kailua,77.2,74.0,12.66,5847486.0,US,-157.7394,21.4022,40.0,1685384090.0
386,Massakory,93.76,25.0,9.22,2428228.0,TD,15.7293,12.996,66.0,1685383830.0
387,Byron Bay,48.7,70.0,6.76,2172880.0,AU,153.6167,-28.65,0.0,1685384094.0
388,Dawson Creek,60.44,31.0,16.11,5935804.0,CA,-120.2362,55.7666,0.0,1685384096.0
389,Port-Gentil,79.45,77.0,16.78,2396518.0,GA,8.7815,-0.7193,75.0,1685384098.0
390,Augusto Corrêa,85.91,66.0,7.87,3406961.0,BR,-46.635,-1.0217,35.0,1685384100.0
391,Araouane,101.7,15.0,16.84,2460954.0,ML,-3.5265,18.9048,68.0,1685384103.0
392,Coahuayana Viejo,95.07,41.0,8.28,4013679.0,MX,-103.6833,18.7333,0.0,1685384105.0
393,Mount Gambier,57.15,91.0,9.17,2156643.0,AU,140.7667,-37.8333,100.0,1685384107.0
394,Swan River,73.29,56.0,8.05,6160362.0,CA,-101.2676,52.1058,95.0,1685384110.0
395,Bima,71.22,95.0,2.98,1648759.0,ID,118.7167,-8.4667,56.0,1685384112.0
396,Cherskiy,35.83,73.0,8.19,2126199.0,RU,161.3,68.75,100.0,1685383860.0
397,Adrar,95.94,18.0,15.23,2381972.0,MR,-10.0711,20.5022,38.0,1685384116.0
398,Egvekinot,32.16,78.0,7.09,4031742.0,RU,-179.1667,66.3167,95.0,1685384118.0
399,Comodoro Rivadavia,58.86,23.0,17.27,3860443.0,AR,-67.5,-45.8667,0.0,1685384120.0
400,Volchikha,54.54,77.0,4.61,1486983.0,RU,80.3833,52.0333,91.0,1685384122.0
401,Paita,78.84,71.0,14.81,3694112.0,PE,-81.1144,-5.0892,30.0,1685384125.0
402,Calama,72.09,8.0,13.8,3897347.0,CL,-68.9333,-22.4667,0.0,1685384127.0
403,Abalak,68.31,60.0,4.47,1512223.0,RU,68.5944,58.1286,84.0,1685384129.0
404,Atar,98.04,18.0,13.82,2381334.0,MR,-13.0499,20.5169,71.0,1685384131.0
405,Venado Tuerto,58.77,46.0,11.39,3833062.0,AR,-61.9688,-33.7456,100.0,1685384133.0
406,Ostrovnoy,51.57,57.0,10.0,556268.0,RU,39.5131,68.0531,100.0,1685384136.0
407,Praia,82.94,44.0,25.32,3374333.0,CV,-23.5087,14.9215,0.0,1685384138.0
408,Campoverde,78.49,80.0,2.98,3733380.0,PE,-74.8058,-8.4753,66.0,1685384140.0
409,Peebles,64.49,60.0,4.0,2640526.0,GB,-3.1888,55.6519,100.0,1685384143.0
410,Ngunguru,58.06,91.0,4.9,2186111.0,NZ,174.5,-35.6167,83.0,1685384145.0
411,Haines Junction,48.15,37.0,10.36,5969025.0,CA,-137.5108,60.7522,100.0,1685384147.0
412,Chernyshevsk,44.8,75.0,4.79,2025458.0,RU,117.0174,52.5243,64.0,1685384149.0
413,Makiyivka,62.13,94.0,7.92,702320.0,UA,37.9258,48.0478,100.0,1685384151.0
414,Petropavlovsk-Kamchatskiy,41.59,100.0,4.47,2122104.0,RU,158.6483,53.0452,100.0,1685384153.0
415,Los Llanos de Aridane,67.12,78.0,7.0,2514651.0,ES,-17.9182,28.6585,40.0,1685384156.0
416,Nuevo Progreso,86.9,55.0,8.01,3522526.0,MX,-97.95,23.1667,1.0,1685384158.0
417,Norsup,75.09,78.0,8.3,2135517.0,VU,167.3833,-16.0667,84.0,1685384160.0
418,Yulara,50.38,51.0,9.89,6355222.0,AU,130.9889,-25.2406,56.0,1685384162.0
419,Hohhot,59.29,88.0,2.24,2036892.0,CN,111.6522,40.8106,75.0,1685384165.0
420,Bowen,57.07,60.0,8.84,2174444.0,AU,148.2333,-20.0167,1.0,1685384167.0
421,Smoky Lake,70.12,40.0,10.36,6150293.0,CA,-112.4686,54.1169,2.0,1685384169.0
422,Angoram,74.21,98.0,2.59,2100765.0,PG,144.0661,-4.0625,97.0,1685384172.0
423,Itarema,82.72,74.0,12.73,3393692.0,BR,-39.9167,-2.9248,72.0,1685384141.0
424,La Asuncion,87.53,66.0,18.41,3480908.0,VE,-63.8628,11.0333,88.0,1685384176.0
425,Berlevåg,42.87,65.0,24.16,780687.0,NO,29.0864,70.8578,78.0,1685384178.0
426,Ambilobe,73.15,80.0,2.84,1082243.0,MG,49.05,-13.2,7.0,1685384180.0
427,Teya,49.03,69.0,3.09,1489656.0,RU,92.6267,60.3778,21.0,1685384182.0
428,Máncora,82.62,65.0,9.06,3695000.0,PE,-81.0475,-4.1078,18.0,1685384184.0
429,Crotone,69.75,73.0,5.75,2524881.0,IT,17.1178,39.0851,0.0,1685384069.0
430,Sechura,82.65,59.0,13.27,3691954.0,PE,-80.8222,-5.5569,40.0,1685384189.0
431,Tarko-Sale,51.48,74.0,10.71,1490085.0,RU,77.785,64.9225,100.0,1685384191.0
432,Yerofey Pavlovich,41.04,88.0,0.87,2012938.0,RU,121.9667,53.9667,59.0,1685384193.0
433,Doha,89.55,57.0,9.22,290030.0,QA,51.5333,25.2867,0.0,1685384134.0
434,Palmer,74.89,36.0,8.05,4946620.0,US,-72.3287,42.1584,20.0,1685384198.0
435,Darhan,61.3,39.0,2.21,2031964.0,MN,105.9228,49.4867,100.0,1685384200.0
436,Rantauprapat,73.96,91.0,2.62,1214073.0,ID,99.8333,2.1,23.0,1685384202.0
437,Arroyo de la Encomienda,70.11,54.0,12.66,3129371.0,ES,-4.7969,41.6096,0.0,1685384204.0
438,Keetmanshoop,53.29,48.0,10.83,3356264.0,NA,18.1333,-26.5833,40.0,1685384206.0
439,Staryy Nadym,55.22,77.0,14.54,1490918.0,RU,72.6842,65.6118,100.0,1685384209.0
440,Beloha,68.59,85.0,9.91,1067565.0,MG,45.05,-25.1667,0.0,1685384211.0
441,Kelvington,71.33,55.0,5.82,5990669.0,CA,-103.5343,52.1667,76.0,1685384213.0
442,Munger,91.06,38.0,4.45,1262482.0,IN,86.4667,25.3833,0.0,1685384215.0
443,Grindavik,48.67,93.0,28.77,3416888.0,IS,-22.4338,63.8424,100.0,1685384217.0
444,Kangaatsiaq,27.97,66.0,8.93,3422683.0,GL,-53.4641,68.3065,76.0,1685384219.0
445,Omsukchan,40.3,89.0,6.29,2122493.0,RU,155.8,62.5333,98.0,1685384221.0
446,Quzhou,77.65,90.0,3.78,1797264.0,CN,118.8686,28.9594,84.0,1685384224.0
447,Neijiang,77.41,85.0,3.85,1799491.0,CN,105.0622,29.5835,81.0,1685384226.0
448,Bonavista,37.11,88.0,21.99,5905393.0,CA,-53.1147,48.6499,100.0,1685384228.0
449,Pauini,87.94,59.0,3.6,3662927.0,BR,-66.9764,-7.7136,79.0,1685384230.0
450,Poso,76.59,87.0,4.94,1630723.0,ID,120.7524,-1.3959,15.0,1685384232.0
451,Hervey Bay,55.67,63.0,7.0,2146219.0,AU,152.8535,-25.2986,0.0,1685384235.0
452,Gambēla,73.56,83.0,5.01,337405.0,ET,34.5833,8.25,75.0,1685384179.0
453,Hede,64.22,97.0,4.41,1808744.0,CN,120.2517,33.7681,96.0,1685384239.0
454,Alice Springs,36.95,81.0,6.98,2077895.0,AU,133.8833,-23.7,1.0,1685384241.0
455,Tazmalt,68.94,67.0,6.4,2477537.0,DZ,4.3989,36.3868,57.0,1685384243.0
456,Mangaratiba,70.66,88.0,6.02,3457991.0,BR,-44.0406,-22.9597,100.0,1685384245.0
457,Porto-Novo,81.12,80.0,5.39,2392087.0,BJ,2.6036,6.4965,100.0,1685384198.0
458,Sabha,91.36,12.0,10.18,2212775.0,LY,14.4283,27.0377,43.0,1685384250.0
459,Salinópolis,84.69,71.0,12.75,3389822.0,BR,-47.3561,-0.6136,59.0,1685384252.0
460,Riyadh,93.34,26.0,5.35,108410.0,SA,46.7219,24.6877,84.0,1685384100.0
461,Jönköping,62.31,36.0,11.5,2702979.0,SE,14.1562,57.7814,0.0,1685384257.0
462,Yatou,63.21,80.0,6.98,1786855.0,CN,122.3833,37.15,18.0,1685384259.0
463,Jaru,82.62,71.0,4.56,3925040.0,BR,-62.4664,-10.4389,100.0,1685384159.0
464,Yashan,78.91,87.0,2.71,1786867.0,CN,109.9419,22.1975,0.0,1685384263.0
465,Bamiantong,48.04,81.0,3.38,2038482.0,CN,130.5333,44.9333,52.0,1685384265.0
466,Boa Vista,76.98,88.0,10.36,3664980.0,BR,-60.6733,2.8197,40.0,1685384267.0
467,Barra do Bugres,72.27,82.0,2.46,3470718.0,BR,-57.1811,-15.0725,99.0,1685384270.0
468,Butembo,58.39,94.0,3.18,217562.0,CD,29.2833,0.15,80.0,1685384272.0
469,Talaya,42.22,95.0,6.22,2120769.0,RU,152.75,61.3833,100.0,1685384274.0
470,Vengurla,82.72,82.0,9.48,1253257.0,IN,73.6333,15.8667,1.0,1685384035.0
471,Maracaçumé,87.1,62.0,5.32,3395497.0,BR,-45.9592,-2.0428,82.0,1685384278.0
472,Nouadhibou,67.87,76.0,22.15,2377457.0,MR,-17.0347,20.931,73.0,1685384280.0
473,La Celia,71.19,74.0,1.81,3679542.0,CO,-76.0167,5.0433,99.0,1685384282.0
474,Lüderitz,53.42,88.0,2.55,3355672.0,NA,15.1594,-26.6481,1.0,1685384284.0
475,Carutapera,84.29,70.0,9.4,3402648.0,BR,-46.02,-1.195,58.0,1685384287.0
476,Yauya,60.8,52.0,3.31,3690733.0,PE,-77.3,-8.9833,56.0,1685384289.0
477,Port Said,70.03,78.0,10.25,358619.0,EG,32.2841,31.2565,1.0,1685384291.0
478,Sambava,75.31,87.0,12.03,1056899.0,MG,50.1667,-14.2667,2.0,1685384293.0
479,Kafanchan,75.06,84.0,4.52,2335713.0,NG,8.3,9.5833,99.0,1685384295.0
480,Neftçala,72.75,70.0,3.15,147425.0,AZ,49.2472,39.3742,85.0,1685384297.0
481,Yhú,73.99,63.0,2.53,3436595.0,PY,-55.9167,-25.05,22.0,1685384300.0
482,Necochea,55.89,56.0,9.95,3430443.0,AR,-58.7368,-38.5473,100.0,1685384302.0
483,Muros,60.84,93.0,1.32,3115824.0,ES,-9.0603,42.7762,97.0,1685384272.0
484,Linxia Chengguanzhen,58.3,74.0,1.01,1803331.0,CN,103.2064,35.6003,82.0,1685384306.0
485,Tripoli,71.62,65.0,28.9,2210247.0,LY,13.1875,32.8752,68.0,1685384309.0
486,Ixtapa,85.23,66.0,11.5,4004293.0,MX,-105.2,20.7,20.0,1685384311.0
487,Santiago del Estero,60.37,53.0,7.23,3835869.0,AR,-64.2615,-27.7951,100.0,1685384168.0
488,Uribia,90.23,56.0,6.15,3666409.0,CO,-72.266,11.7139,75.0,1685384315.0
489,Rome,82.54,28.0,5.75,5134295.0,US,-75.4557,43.2128,0.0,1685384163.0
490,Xuanzhou,74.19,96.0,4.34,1788081.0,CN,118.7553,30.9525,79.0,1685384320.0
491,Arrondissement de Muret,71.44,79.0,13.22,2991152.0,FR,1.25,43.3333,13.0,1685384322.0
492,Orlik,49.12,79.0,3.31,1496073.0,RU,99.825,52.5178,100.0,1685384324.0
493,Toyoake,68.88,92.0,4.79,1856057.0,JP,137.0137,35.0594,100.0,1685384326.0
494,Ibrā’,89.6,35.0,12.71,287832.0,OM,58.5334,22.6906,2.0,1685384328.0
495,Ayagoz,55.22,33.0,9.15,1525988.0,KZ,80.4392,47.9714,100.0,1685384330.0
496,Deputatsky,33.08,96.0,5.55,2028164.0,RU,139.9,69.3,55.0,1685384333.0
497,Moyale,68.29,54.0,3.65,186180.0,KE,39.0584,3.5167,43.0,1685384335.0
498,Gresik,82.98,79.0,6.31,1643776.0,ID,112.6561,-7.1539,88.0,1685384337.0
499,Tsushima,69.1,96.0,4.05,1849539.0,JP,136.7167,35.1667,100.0,1685384339.0
500,Boralday,51.66,62.0,4.47,1526384.0,KZ,76.8594,43.3578,20.0,1685384341.0
501,Mahina,82.17,65.0,3.44,4034307.0,PF,-149.489,-17.5065,75.0,1685384343.0
502,Ust-Maya,43.77,69.0,2.48,2013918.0,RU,134.5333,60.4167,70.0,1685384346.0
503,General Pico,60.85,38.0,11.14,3855075.0,AR,-63.7568,-35.6566,100.0,1685384348.0
504,Labuan,79.16,94.0,0.0,1733782.0,MY,115.2417,5.2767,20.0,1685384351.0
505,Saint Anthony,83.17,26.0,14.97,5044290.0,US,-93.218,45.0205,0.0,1685384353.0
506,Iqaluit,36.7,69.0,17.0,5983720.0,CA,-68.5145,63.7506,100.0,1685384356.0
507,Haapiti,76.71,72.0,14.2,4034438.0,PF,-149.8667,-17.5667,72.0,1685384358.0
508,Sarankhola,83.23,75.0,4.52,1185239.0,BD,89.7897,22.3082,52.0,1685384360.0
509,Odienné,91.0,42.0,4.74,2283016.0,CI,-7.5692,9.51,65.0,1685384362.0
510,Miles City,70.77,52.0,5.75,5666176.0,US,-105.8406,46.4083,0.0,1685384364.0
511,Daru,77.43,87.0,12.77,2098329.0,PG,143.2092,-9.0763,96.0,1685384366.0
512,Umm Kaddadah,90.3,36.0,11.88,364933.0,SD,26.6876,13.6017,2.0,1685384369.0
513,Skegness,55.09,75.0,13.56,2637762.0,GB,0.3363,53.1436,65.0,1685384372.0
514,Saint-François,75.85,42.0,5.75,2980080.0,FR,3.9054,46.4154,0.0,1685384374.0
515,Semey,63.0,47.0,12.73,1519422.0,KZ,80.2275,50.4111,100.0,1685384376.0
516,Esperance,63.3,38.0,11.05,2071860.0,AU,121.9,-33.8667,100.0,1685384378.0
517,Selkirk,83.3,39.0,11.99,6144054.0,CA,-96.8845,50.1436,32.0,1685384380.0
518,Mahajanga,81.72,57.0,11.23,1062663.0,MG,46.3167,-15.7167,27.0,1685384382.0
519,Ruwi,92.89,46.0,7.31,287286.0,OM,58.5507,23.5996,0.0,1685384385.0
520,Pucallpa,78.84,94.0,3.44,3693345.0,PE,-74.5539,-8.3791,40.0,1685384387.0
521,Ginda,61.92,75.0,3.53,1253628.0,IN,78.4932,30.6945,100.0,1685384389.0
522,Hare Bay,37.0,81.0,15.3,5970873.0,CA,-54.0148,48.8499,100.0,1685384118.0
523,Kabalo,79.56,51.0,5.73,215668.0,CD,26.9167,-6.05,29.0,1685384393.0
524,Cockburn Town,81.75,81.0,17.36,3576994.0,TC,-71.1419,21.4612,92.0,1685384395.0
525,Kolomyia,58.86,77.0,3.69,705392.0,UA,25.0403,48.5306,19.0,1685384397.0
526,Odawara,65.75,94.0,3.06,1854747.0,JP,139.1597,35.2556,100.0,1685384333.0
527,Santa Cruz de la Sierra,66.25,72.0,13.8,3904906.0,BO,-63.1667,-17.8,75.0,1685384188.0
528,Derzhavīnsk,75.69,36.0,5.28,1524606.0,KZ,66.3167,51.1,80.0,1685384404.0
529,Raduzhny,55.62,52.0,6.67,1540356.0,RU,77.475,62.0961,43.0,1685384406.0
530,Gulariyā,82.18,38.0,4.79,1283368.0,NP,81.3333,28.2333,14.0,1685384409.0
531,Oudtshoorn,57.56,93.0,6.31,967106.0,ZA,22.2014,-33.5907,89.0,1685384411.0
532,Ruteng,59.56,92.0,2.73,1629380.0,ID,120.4721,-8.6136,94.0,1685384413.0
533,Sokolac,61.77,96.0,3.24,3190385.0,BA,18.8017,43.9397,82.0,1685384415.0
534,Jieshi,79.88,88.0,5.14,1805857.0,CN,115.8257,22.8134,16.0,1685384418.0
535,Porto Velho,84.25,74.0,2.3,3662762.0,BR,-63.9039,-8.7619,75.0,1685384420.0
536,Olinda,82.13,69.0,14.97,3393536.0,BR,-34.8553,-8.0089,75.0,1685384422.0
537,Vallenar,78.91,24.0,6.2,3868633.0,CL,-70.7581,-28.5708,3.0,1685384424.0
538,Bud,82.58,36.0,7.47,4255151.0,US,-86.1758,39.447,81.0,1685384426.0
539,Dhārchula,69.31,69.0,3.11,1272864.0,IN,80.5333,29.85,99.0,1685384428.0
540,Mabaruma,82.18,86.0,5.48,3377301.0,GY,-59.7833,8.2,100.0,1685384431.0
541,Nemuro,43.68,96.0,3.56,2128975.0,JP,145.575,43.3236,100.0,1685384434.0
542,Caucayá,84.54,72.0,1.59,3671437.0,CO,-74.7819,-0.1934,47.0,1685384436.0
543,Vanderhoof,60.03,28.0,8.63,6173361.0,CA,-124.0198,54.0166,0.0,1685384439.0
544,Maravilha,66.61,82.0,1.43,3457809.0,BR,-53.1725,-26.7608,87.0,1685384441.0
545,Nanlong,74.66,87.0,5.86,1799908.0,CN,106.0631,31.3533,8.0,1685384443.0
546,Seryshevo,43.77,69.0,7.07,2016942.0,RU,128.3786,51.0933,82.0,1685384445.0
547,Les Cayes,86.31,68.0,11.18,3728097.0,HT,-73.75,18.2,92.0,1685384447.0
548,Lagoa,63.54,76.0,10.36,3372964.0,PT,-27.9833,39.05,5.0,1685384361.0
549,Pacifica,62.28,70.0,11.5,5380420.0,US,-122.4869,37.6138,75.0,1685384427.0
550,Northam,62.55,61.0,14.0,2641434.0,GB,-4.2167,51.0333,93.0,1685384454.0
551,Rio Grande,68.11,62.0,7.31,3451138.0,BR,-52.0986,-32.035,87.0,1685384456.0
552,Gejiu,60.62,92.0,2.46,1810240.0,CN,103.1635,23.306,0.0,1685384458.0
553,Opuwo,62.92,20.0,7.63,3354077.0,NA,13.84,-18.0607,1.0,1685384460.0
554,La Ronge,73.65,27.0,8.05,6050066.0,CA,-105.2842,55.1001,68.0,1685384462.0
555,Yazykovo,61.36,87.0,3.33,468483.0,RU,56.1353,55.2199,35.0,1685384465.0
556,Batticaloa,80.02,82.0,6.71,1250161.0,LK,81.6924,7.7102,100.0,1685384467.0
557,Khasan,53.11,72.0,4.41,2039557.0,RU,130.6434,42.4308,19.0,1685384470.0
558,Kattivākkam,86.07,91.0,12.88,1267433.0,IN,80.3167,13.2167,37.0,1685384472.0
559,Arrondissement de Saint-Denis,70.5,55.0,17.27,2980915.0,FR,2.3333,48.9167,0.0,1685384474.0
560,Ende,72.63,85.0,4.74,1644932.0,ID,121.6623,-8.8432,85.0,1685384477.0
561,Harlingen,86.45,78.0,6.91,4696233.0,US,-97.6961,26.1906,100.0,1685384479.0
562,Zhicheng,72.18,84.0,2.13,1784554.0,CN,111.5047,30.2956,100.0,1685384481.0
563,Havelock,72.86,78.0,9.22,4470244.0,US,-76.9013,34.8791,100.0,1685384483.0
564,Madimba,75.18,84.0,9.86,878141.0,TZ,40.3333,-10.4,2.0,1685384486.0
565,Pacific Grove,58.82,77.0,11.01,5380437.0,US,-121.9166,36.6177,100.0,1685384460.0
566,Esim,80.96,81.0,6.76,2303611.0,GH,-2.2405,4.8699,98.0,1685384491.0
567,Gorontalo,75.02,93.0,2.28,1643837.0,ID,123.0595,0.5412,4.0,1685384493.0
568,Vaitape,80.58,81.0,12.01,4033077.0,PF,-151.75,-16.5167,53.0,1685384495.0
569,Ottawa,72.63,30.0,17.27,6094817.0,CA,-75.6981,45.4112,20.0,1685384496.0
570,Petropavl,63.46,84.0,9.66,1520172.0,KZ,69.1628,54.8753,90.0,1685384499.0
571,Bossangoa,80.22,61.0,3.47,2388036.0,CF,17.4552,6.4926,46.0,1685384502.0
572,Lavrentiya,33.66,93.0,5.26,4031637.0,RU,-171.0,65.5833,93.0,1685384504.0
573,Muskegon,81.88,31.0,8.05,5003136.0,US,-86.1334,43.3,20.0,1685384224.0
574,Lālmohan,84.96,74.0,7.74,1185251.0,BD,90.7419,22.3384,55.0,1685384509.0
575,Gainesville,83.93,45.0,5.75,4156404.0,US,-82.3248,29.6516,20.0,1685384304.0
