,City,Temp_max,Humidity,wind_speed,city_id,country_code,long,lat,Cloudiness,datetime
0,Flin Flon,58.14,73.0,5.37,5954718.0,CA,-101.865,54.7682,21.0,1685433602.0
1,Severo-Kuril'sk,42.31,96.0,12.59,2121385.0,RU,156.125,50.6789,94.0,1685433605.0
2,Codrington,59.5,81.0,12.93,2171099.0,AU,141.9667,-38.2667,100.0,1685433608.0
3,Bredasdorp,59.47,78.0,4.81,1015776.0,ZA,20.0403,-34.5322,6.0,1685433610.0
4,Kindersley,64.42,52.0,6.91,5992154.0,CA,-109.1682,51.4668,100.0,1685433613.0
5,Kavieng,84.78,74.0,9.57,2094342.0,PG,150.7967,-2.5744,6.0,1685433616.0
6,Brae,49.19,92.0,14.99,2654970.0,GB,-1.353,60.3964,5.0,1685433619.0
7,Hithadhoo,83.97,69.0,9.35,1282256.0,MV,73.0833,-0.6,23.0,1685433622.0
8,Ponta Delgada,65.12,82.0,3.44,3372783.0,PT,-25.6667,37.7333,20.0,1685433625.0
9,Kaitangata,43.86,93.0,5.84,2208248.0,NZ,169.8464,-46.2817,8.0,1685433627.0
10,Neiafu,79.02,87.0,20.78,4032420.0,TO,-173.9833,-18.65,52.0,1685433629.0
11,Busselton,68.14,81.0,19.39,2075265.0,AU,115.3333,-33.65,6.0,1685433631.0
12,Kudahuvadhoo,83.93,73.0,13.98,1337607.0,MV,72.8944,2.6708,22.0,1685433634.0
13,Port Macquarie,55.89,66.0,3.31,2152659.0,AU,152.9167,-31.4333,22.0,1685433510.0
14,Jamestown,64.0,67.0,5.75,5122534.0,US,-79.2353,42.097,0.0,1685433471.0
15,Nantucket,50.14,87.0,12.06,4944903.0,US,-70.0995,41.2835,0.0,1685433628.0
16,São João da Barra,64.8,90.0,4.79,3448903.0,BR,-41.0511,-21.6403,41.0,1685433644.0
17,Castlebar,57.07,65.0,3.36,2965654.0,IE,-9.3,53.85,18.0,1685433646.0
18,Katobu,80.64,80.0,6.04,1640972.0,ID,122.5276,-4.9408,100.0,1685433648.0
19,Port Lincoln,61.47,87.0,11.07,2063036.0,AU,135.8667,-34.7333,100.0,1685433650.0
20,Padampur,91.4,31.0,5.14,1260938.0,IN,73.6167,29.6833,52.0,1685433652.0
21,Cayenne,75.24,100.0,0.0,3382160.0,GF,-52.3333,4.9333,100.0,1685433654.0
22,Norman Wells,50.04,76.0,4.61,6089245.0,CA,-126.8329,65.282,75.0,1685433656.0
23,Upernavik,23.76,92.0,7.34,3418910.0,GL,-56.1549,72.7868,100.0,1685433658.0
24,Ushuaia,44.26,87.0,2.3,3833367.0,AR,-68.3,-54.8,75.0,1685433598.0
25,Tasiilaq,35.76,65.0,8.34,3424607.0,GL,-37.6368,65.6145,78.0,1685433663.0
26,Thunder Bay,46.31,81.0,2.3,6166142.0,CA,-89.3168,48.4001,20.0,1685433414.0
27,Provideniya,34.86,61.0,14.65,4031574.0,RU,-173.3,64.3833,77.0,1685433667.0
28,Cap Malheureux,80.47,61.0,3.0,934649.0,MU,57.6142,-19.9842,0.0,1685433669.0
29,West Wendover,65.41,39.0,9.22,5710035.0,US,-114.0733,40.7391,0.0,1685433672.0
30,Tautira,79.41,79.0,4.45,4033557.0,PF,-149.15,-17.7333,3.0,1685433674.0
31,Avarua,71.65,78.0,10.36,4035715.0,CK,-159.775,-21.2078,75.0,1685433677.0
32,Punta Arenas,44.71,87.0,3.44,3874787.0,CL,-70.9167,-53.15,100.0,1685433616.0
33,Ozernovskiy,44.71,86.0,13.0,2122293.0,RU,156.5167,51.5,100.0,1685433681.0
34,Aksu,78.85,15.0,4.34,1529660.0,CN,80.2644,41.1231,0.0,1685433683.0
35,Arrondissement d'Ajaccio,70.07,53.0,2.3,3038333.0,FR,8.9167,42.0,0.0,1685433499.0
36,Cabedelo,74.07,85.0,11.01,3404558.0,BR,-34.8339,-6.9811,50.0,1685433687.0
37,Dikson,35.35,83.0,18.63,1507390.0,RU,80.5464,73.5069,92.0,1685433689.0
38,Hobart,57.7,74.0,14.97,2163355.0,AU,147.3294,-42.8794,75.0,1685433603.0
39,Vestmannaeyjar,45.59,93.0,21.85,3412093.0,IS,-20.2734,63.4427,100.0,1685433695.0
40,Alofi,75.09,94.0,12.66,4036284.0,NU,-169.9187,-19.0595,96.0,1685433697.0
41,Carnarvon,77.9,43.0,7.23,2074865.0,AU,113.6333,-24.8667,6.0,1685433699.0
42,Saint-Philippe,80.19,61.0,7.7,935215.0,RE,55.7679,-21.3585,35.0,1685433702.0
43,Cabra,62.26,74.0,4.68,2520645.0,ES,-4.4421,37.4725,70.0,1685433704.0
44,Feldbach,70.9,46.0,6.51,2779685.0,AT,15.8883,46.9531,97.0,1685433706.0
45,Tual,81.84,79.0,23.8,1623197.0,ID,132.75,-5.6667,50.0,1685433708.0
46,Longyearbyen,37.24,81.0,12.66,2729907.0,SJ,15.6401,78.2186,75.0,1685433710.0
47,Dukat,54.01,41.0,5.08,2125906.0,RU,155.55,62.55,74.0,1685433712.0
48,Jalu,87.84,18.0,16.69,86049.0,LY,21.5482,29.0331,68.0,1685433715.0
49,Vaini,77.16,88.0,13.8,4032243.0,TO,-175.2,-21.2,40.0,1685433717.0
50,Albany,53.11,68.0,4.74,5106841.0,US,-73.9662,42.6001,5.0,1685433602.0
51,Karaton,84.09,70.0,3.98,1630058.0,ID,106.1045,-6.3424,95.0,1685433721.0
52,Saldanha,55.45,88.0,15.28,3361934.0,ZA,17.9442,-33.0117,100.0,1685433723.0
53,Castro,52.7,95.0,6.13,3466704.0,BR,-50.0119,-24.7911,100.0,1685433725.0
54,Inhambane,77.0,73.0,5.01,1045114.0,MZ,35.3833,-23.865,40.0,1685433727.0
55,Mataura,41.07,96.0,3.33,6201424.0,NZ,168.8643,-46.1927,9.0,1685433730.0
56,Puerto Ayora,75.54,99.0,4.0,3652764.0,EC,-90.3518,-0.7393,18.0,1685433732.0
57,Arraial do Cabo,71.19,69.0,12.46,3471451.0,BR,-42.0278,-22.9661,98.0,1685433564.0
58,Obihiro,60.21,73.0,8.72,2128815.0,JP,143.2044,42.9172,59.0,1685433736.0
59,Penzance,55.99,62.0,19.57,2640377.0,GB,-5.5371,50.1186,0.0,1685433738.0
60,Butaritari,83.57,71.0,6.35,2110227.0,KI,172.7902,3.0707,100.0,1685433740.0
61,Rikitea,75.13,63.0,10.29,4030556.0,PF,-134.9692,-23.1203,97.0,1685433676.0
62,Namatanai,81.63,82.0,7.94,2090021.0,PG,152.4333,-3.6667,100.0,1685433745.0
63,Isangel,74.95,76.0,14.58,2136825.0,VU,169.2667,-19.55,100.0,1685433747.0
64,Saint George,71.37,20.0,10.36,5546220.0,US,-113.5841,37.1041,0.0,1685433547.0
65,Kruisfontein,60.89,88.0,5.57,986717.0,ZA,24.7314,-34.0033,100.0,1685433751.0
66,Mwinilunga,76.91,41.0,5.44,902620.0,ZM,24.4293,-11.7358,27.0,1685433753.0
67,Port Alfred,62.19,96.0,9.44,964432.0,ZA,26.891,-33.5906,100.0,1685433755.0
68,Marzuq,86.97,37.0,5.19,72181.0,YE,46.4667,14.4,89.0,1685433757.0
69,Puerto Escondido,82.08,80.0,5.57,3520994.0,MX,-97.0667,15.85,8.0,1685433760.0
70,Sivaki,65.05,29.0,3.8,2016477.0,RU,126.75,52.6333,41.0,1685433762.0
71,Yellowknife,46.92,87.0,8.05,6185377.0,CA,-114.3525,62.456,75.0,1685433764.0
72,Canchungo,80.73,77.0,8.59,2373951.0,GW,-16.0333,12.0672,100.0,1685433766.0
73,Östersund,46.85,36.0,32.99,2685750.0,SE,14.6357,63.1792,0.0,1685433768.0
74,Fort Nelson,40.95,59.0,0.0,5955902.0,CA,-122.7002,58.8053,20.0,1685433770.0
75,Castelo Branco,61.21,88.0,1.07,2269514.0,PT,-7.4909,39.8222,100.0,1685433622.0
76,Black River,77.88,89.0,3.78,3491355.0,JM,-77.8487,18.0264,87.0,1685433775.0
77,Atuona,81.36,67.0,15.68,4020109.0,PF,-139.0333,-9.8,26.0,1685433777.0
78,Birao,83.64,56.0,3.22,240210.0,CF,22.7882,10.2849,96.0,1685433779.0
79,Ekhabi,35.6,96.0,14.63,2122614.0,RU,142.9671,53.5102,100.0,1685433781.0
80,Barrow,35.62,87.0,4.61,5880054.0,US,-156.7887,71.2906,100.0,1685433546.0
81,Hilo,69.84,89.0,5.75,5855927.0,US,-155.09,19.7297,20.0,1685433555.0
82,Mehamn,37.35,87.0,18.41,778707.0,NO,27.8492,71.0357,75.0,1685433789.0
83,Shingū,70.83,98.0,0.85,1847947.0,JP,135.9833,33.7333,100.0,1685433791.0
84,George Town,91.11,63.0,9.22,1735106.0,MY,100.3354,5.4112,20.0,1685433794.0
85,Russell,57.45,94.0,0.0,4047434.0,US,-85.1999,32.3502,0.0,1685433796.0
86,Sidhi,106.54,16.0,8.1,1256369.0,IN,81.8833,24.4167,1.0,1685433798.0
87,Laramie,45.59,67.0,9.22,5830062.0,US,-105.5911,41.3114,40.0,1685433570.0
88,Bluff,49.12,73.0,20.85,2206939.0,NZ,168.3333,-46.6,9.0,1685433802.0
89,Bayir,70.32,68.0,6.53,304183.0,TR,28.2167,37.2687,88.0,1685433804.0
90,Vila Velha,69.75,78.0,5.75,3445026.0,BR,-40.2925,-20.3297,40.0,1685433620.0
91,Kapaa,72.48,87.0,5.01,5848280.0,US,-159.319,22.0752,15.0,1685433810.0
92,Margate,52.84,73.0,8.99,2643044.0,GB,1.3862,51.3813,42.0,1685433721.0
93,Kamaishi,60.3,71.0,3.6,2112444.0,JP,141.8833,39.2667,95.0,1685433814.0
94,Stăncuţa,72.68,48.0,11.52,666309.0,RO,27.8333,44.9,100.0,1685433816.0
95,Ankang,87.49,57.0,5.5,1789065.0,CN,109.0172,32.68,10.0,1685433818.0
96,Port Elizabeth,61.7,99.0,8.05,964420.0,ZA,25.5701,-33.918,75.0,1685433820.0
97,Morant Bay,82.02,87.0,4.85,3489440.0,JM,-76.4093,17.8815,100.0,1685433823.0
98,São Miguel,75.97,92.0,9.44,3388304.0,BR,-35.3667,-5.4667,62.0,1685433825.0
99,Guerrero Negro,59.02,81.0,12.17,4021858.0,MX,-114.0611,27.9769,0.0,1685433827.0
100,Husavik,50.72,63.0,6.44,2629833.0,IS,-17.3389,66.0449,19.0,1685433829.0
101,Ahipara,55.81,89.0,3.91,2194098.0,NZ,173.1667,-35.1667,1.0,1685433831.0
102,Saint Paul Harbor,43.16,86.0,1.14,5866583.0,US,-152.4072,57.79,55.0,1685433833.0
103,Mahébourg,79.09,65.0,8.05,934322.0,MU,57.7,-20.4081,20.0,1685433666.0
104,Mount Isa,74.97,15.0,10.36,2065594.0,AU,139.5,-20.7333,0.0,1685433610.0
105,Te Anau,42.64,86.0,5.68,2181625.0,NZ,167.7167,-45.4167,82.0,1685433840.0
106,Alenquer,72.88,96.0,2.66,3407980.0,BR,-54.7383,-1.9417,100.0,1685433842.0
107,São Miguel do Araguaia,72.66,57.0,1.48,3448455.0,BR,-50.1628,-13.275,30.0,1685433769.0
108,Kriel,58.8,57.0,15.26,987202.0,ZA,29.2253,-26.2739,83.0,1685433846.0
109,Marsh Harbour,79.32,77.0,5.64,3571913.0,BS,-77.0636,26.5412,100.0,1685433848.0
110,Souillac,79.18,65.0,8.05,933995.0,MU,57.5167,-20.5167,20.0,1685433850.0
111,Tigil',60.24,56.0,17.43,2120612.0,RU,158.6667,57.8,60.0,1685433853.0
112,Kaeo,55.78,94.0,4.27,2189343.0,NZ,173.7833,-35.1,9.0,1685433856.0
113,Cape Town,56.17,86.0,11.5,3369157.0,ZA,18.4232,-33.9258,75.0,1685433858.0
114,Cidreira,63.0,73.0,12.21,3466165.0,BR,-50.2056,-30.1811,100.0,1685433725.0
115,Khatanga,36.34,80.0,3.94,2022572.0,RU,102.5,71.9667,49.0,1685433862.0
116,Karlshamn,63.09,37.0,5.03,2701727.0,SE,14.8619,56.1706,61.0,1685433864.0
117,Pevek,34.03,87.0,16.08,2122090.0,RU,170.3133,69.7008,100.0,1685433866.0
118,Mar del Plata,50.18,82.0,10.36,3430863.0,AR,-57.5575,-38.0023,0.0,1685433868.0
119,Gobabis,56.39,32.0,8.59,3357247.0,NA,18.9667,-22.45,73.0,1685433870.0
120,Gaoyou,76.19,77.0,4.92,1810309.0,CN,119.4278,32.7858,97.0,1685433873.0
121,Bethel,47.79,85.0,0.0,5282297.0,US,-73.414,41.3712,0.0,1685433875.0
122,Santa Maria da Vitória,71.19,50.0,3.18,3450063.0,BR,-44.1886,-13.3947,86.0,1685433877.0
123,Banda Aceh,87.3,63.0,18.75,1215502.0,ID,95.3222,5.5577,99.0,1685433879.0
124,Georgiyevka,82.44,17.0,11.18,1524243.0,KZ,74.7114,43.0369,0.0,1685433881.0
125,Zonguldak,58.05,84.0,2.62,737021.0,TR,31.8333,41.25,100.0,1685433883.0
126,Booué,78.98,86.0,1.23,2401495.0,GA,11.9385,-0.0921,82.0,1685433885.0
127,Siyabuswa,66.97,57.0,15.43,955313.0,ZA,29.0445,-25.1132,1.0,1685433888.0
128,Dunedin,49.8,79.0,3.0,2191562.0,NZ,170.5036,-45.8742,99.0,1685433669.0
129,Roald,51.04,81.0,20.71,3141667.0,NO,6.1333,62.5833,75.0,1685433892.0
130,Tweed,54.18,85.0,5.5,6170799.0,CA,-77.3162,44.4751,80.0,1685433894.0
131,Nanortalik,39.79,62.0,5.68,3421765.0,GL,-45.2371,60.1432,99.0,1685433896.0
132,Port Blair,88.11,65.0,12.19,1259385.0,IN,92.75,11.6667,100.0,1685433898.0
133,Lubango,68.81,41.0,6.85,3347762.0,AO,13.4925,-14.9172,94.0,1685433900.0
134,Shumskiy,47.98,94.0,4.36,1491977.0,RU,99.1328,54.8318,100.0,1685433902.0
135,San Cristobal,66.79,98.0,1.54,3628473.0,VE,-72.225,7.7669,100.0,1685433905.0
136,Nioro,81.93,69.0,10.76,2412408.0,GM,-15.75,13.35,79.0,1685433907.0
137,Thompson,59.16,100.0,0.0,6165406.0,CA,-97.8558,55.7435,75.0,1685433909.0
138,Manaus,79.29,83.0,2.3,3663517.0,BR,-60.025,-3.1019,0.0,1685433911.0
139,Laguna,56.8,74.0,4.61,5364271.0,US,-121.4238,38.421,0.0,1685433913.0
140,Hermanus,59.81,75.0,6.49,3366880.0,ZA,19.2345,-34.4187,31.0,1685433916.0
141,Westport,50.32,82.0,6.91,4845585.0,US,-73.3579,41.1415,0.0,1685433832.0
142,Dicabisagan,86.0,66.0,4.34,1715015.0,PH,122.4157,17.0818,100.0,1685433920.0
143,Newport,53.62,76.0,17.98,2641598.0,GB,-2.9984,51.5877,48.0,1685433922.0
144,Tateyama,69.73,88.0,4.61,1850523.0,JP,139.8667,34.9833,75.0,1685433924.0
145,Kuznechikha,68.02,48.0,5.53,537760.0,RU,42.3348,57.2161,72.0,1685433926.0
146,Poum,73.15,75.0,17.13,2138555.0,NC,164.0167,-20.2333,100.0,1685433929.0
147,Chokurdakh,46.53,81.0,11.01,2126123.0,RU,147.9167,70.6333,87.0,1685433931.0
148,Coquimbo,56.93,88.0,5.75,3893629.0,CL,-71.3436,-29.9533,100.0,1685433674.0
149,Ust-Nera,62.98,47.0,2.64,2120048.0,RU,143.2,64.5667,72.0,1685433935.0
150,Kavaratti,86.22,70.0,9.62,1267390.0,IN,72.642,10.5669,76.0,1685433937.0
151,Eruwa,80.53,76.0,4.41,2338669.0,NG,3.4167,7.5333,94.0,1685433939.0
152,Polyarny,46.27,58.0,10.98,506763.0,RU,33.4478,69.1989,95.0,1685433941.0
153,Ribeira Grande,61.2,82.0,5.99,3372707.0,PT,-28.7,38.5167,20.0,1685433943.0
154,Kalemie,79.48,55.0,12.01,214974.0,CD,29.1947,-5.9475,5.0,1685433945.0
155,Tuktoyaktuk,37.69,81.0,6.58,6170031.0,CA,-133.0374,69.4541,86.0,1685433948.0
156,Tomatlán,71.87,94.0,2.3,3981391.0,MX,-105.25,19.9333,0.0,1685433950.0
157,Bratca,68.4,65.0,3.13,683837.0,RO,22.6167,46.9333,60.0,1685433952.0
158,Chiang Khong,100.53,33.0,4.99,1611197.0,TH,100.4046,20.2613,82.0,1685433954.0
159,Gijang,71.33,83.0,13.47,1842966.0,KR,129.2139,35.2442,95.0,1685433956.0
160,Vao,71.33,66.0,13.89,2137773.0,NC,167.4833,-22.6667,100.0,1685433958.0
161,Marawi,79.66,69.0,8.43,1701054.0,PH,124.2928,7.9986,100.0,1685433960.0
162,Kununurra,80.58,21.0,9.22,2068110.0,AU,128.7333,-15.7667,86.0,1685433962.0
163,Ponta do Sol,68.52,72.0,4.43,2264557.0,PT,-17.1,32.6667,35.0,1685433964.0
164,Vanimo,82.72,76.0,5.46,2084442.0,PG,141.3028,-2.6741,81.0,1685433967.0
165,Kenai,44.17,83.0,3.44,5866063.0,US,-151.2583,60.5544,75.0,1685433673.0
166,Tarnogskiy Gorodok,65.7,45.0,6.58,484314.0,RU,43.5761,60.4997,70.0,1685433971.0
167,Tottori-shi,68.07,77.0,13.8,1849892.0,JP,134.2333,35.5,75.0,1685433869.0
168,Baracoa,76.51,87.0,5.03,3567834.0,CU,-74.4958,20.3467,100.0,1685433975.0
169,Krasnyy Kholm,62.71,60.0,6.55,541704.0,RU,37.1203,58.0607,50.0,1685433977.0
170,Nabire,85.24,74.0,4.52,1634614.0,ID,135.4833,-3.3667,9.0,1685433980.0
171,Zaysan,58.89,50.0,12.84,1517060.0,KZ,84.8667,47.4667,100.0,1685433982.0
172,New Norfolk,53.19,76.0,1.99,2155415.0,AU,147.0587,-42.7826,100.0,1685433984.0
173,Muhos,49.78,59.0,5.06,645765.0,FI,25.9931,64.808,42.0,1685433986.0
174,Sabzawār,88.88,14.0,9.22,118063.0,IR,57.6819,36.2126,0.0,1685433988.0
175,Catuday,84.13,72.0,19.46,1717787.0,PH,119.8062,16.2923,100.0,1685433990.0
176,Enshi,86.27,72.0,1.5,1811720.0,CN,109.4833,30.3,99.0,1685433992.0
177,Timiryazevskiy,76.59,23.0,10.65,1489597.0,RU,84.8769,56.49,100.0,1685433995.0
178,Aklavik,55.71,66.0,4.18,5882953.0,CA,-135.0107,68.2191,29.0,1685433997.0
179,Pochutla,78.82,78.0,3.44,3517970.0,MX,-96.4661,15.7432,1.0,1685433999.0
180,Bathsheba,81.21,83.0,10.36,3374083.0,BB,-59.5167,13.2167,20.0,1685434001.0
181,Salalah,91.49,62.0,14.97,286621.0,OM,54.0924,17.0151,20.0,1685434003.0
182,Airai,63.41,82.0,3.83,1651810.0,TL,125.4092,-8.9266,100.0,1685434005.0
183,Fuyang,76.06,69.0,7.02,1810845.0,CN,115.8167,32.9,88.0,1685434007.0
184,Makakilo City,73.11,71.0,10.36,5850554.0,US,-158.0858,21.3469,0.0,1685434009.0
185,Impfondo,84.0,62.0,2.01,2259655.0,CG,18.0667,1.6381,99.0,1685434012.0
186,Anloga,82.47,75.0,5.95,2304548.0,GH,0.8973,5.7947,100.0,1685434014.0
187,Chui,50.22,81.0,0.92,3443061.0,UY,-53.4616,-33.6971,100.0,1685434016.0
188,Nishihara,83.48,79.0,19.57,1855342.0,JP,127.7558,26.1842,75.0,1685434018.0
189,Bariloche,38.95,87.0,3.44,7647007.0,AR,-71.3082,-41.1456,75.0,1685433769.0
190,Kristianstad,62.74,39.0,4.61,2699310.0,SE,14.1524,56.0313,0.0,1685434022.0
191,Cabo San Lucas,73.47,63.0,15.84,3985710.0,MX,-109.9124,22.8909,0.0,1685434016.0
192,Hunchun,72.39,31.0,2.51,2036653.0,CN,130.3581,42.8675,81.0,1685434026.0
193,Aykhal,43.07,79.0,20.29,2027296.0,RU,111.5,66.0,100.0,1685434028.0
194,Nchelenge,77.74,50.0,4.07,175499.0,ZM,28.734,-9.3451,28.0,1685434031.0
195,Hobyo,88.52,56.0,15.88,57000.0,SO,48.5268,5.3505,68.0,1685433982.0
196,Pechenga,44.85,59.0,11.01,511865.0,RU,31.1703,69.5259,100.0,1685434035.0
197,Hambantota,91.74,79.0,9.22,1244926.0,LK,81.1185,6.1241,40.0,1685433980.0
198,Lompoc,56.68,89.0,3.44,5367788.0,US,-120.4579,34.6391,100.0,1685434039.0
199,Hasaki,75.6,85.0,6.73,2112802.0,JP,140.8333,35.7333,100.0,1685434042.0
200,Departamento de Maldonado,44.44,79.0,5.01,3441890.0,UY,-54.9167,-34.6667,100.0,1685434044.0
201,Naze,75.88,89.0,9.13,1855540.0,JP,129.4833,28.3667,61.0,1685434047.0
202,Nikolskoye,53.76,35.0,7.34,546105.0,RU,30.7861,59.7035,100.0,1685434049.0
203,Dul'durga,75.22,18.0,4.59,2024812.0,RU,113.5931,50.6761,100.0,1685434051.0
204,Leh,50.97,49.0,2.77,1264976.0,IN,77.5833,34.1667,100.0,1685434053.0
205,Lata,60.93,96.0,1.12,2738381.0,PT,-8.3327,40.1629,100.0,1685434055.0
206,Tiksi,34.47,88.0,10.09,2015306.0,RU,128.8694,71.6872,100.0,1685434057.0
207,Qaanaaq,12.83,65.0,7.85,3831208.0,GL,-69.3632,77.484,13.0,1685434059.0
208,Ilulissat,37.42,65.0,12.66,3423146.0,GL,-51.1,69.2167,100.0,1685434062.0
209,Saint-Augustin,38.25,58.0,3.58,6137462.0,CA,-58.6502,51.226,91.0,1685434064.0
210,Saskylakh,36.81,81.0,12.62,2017155.0,RU,114.0833,71.9167,88.0,1685434066.0
211,Tessalit,90.19,17.0,13.13,2449893.0,ML,1.0114,20.1986,30.0,1685434068.0
212,Rayong,94.82,64.0,7.87,1607016.0,TH,101.4333,12.8333,99.0,1685434070.0
213,Sur,99.99,37.0,7.61,286245.0,OM,59.5289,22.5667,0.0,1685433852.0
214,Bereket,102.09,6.0,22.12,161974.0,TM,55.5154,39.2446,95.0,1685434074.0
215,Staraya Kulatka,77.11,54.0,10.83,489164.0,RU,47.6167,52.7167,98.0,1685434077.0
216,Roswell,57.52,91.0,3.44,4219934.0,US,-84.3616,34.0232,0.0,1685433956.0
217,Santa Luzia,61.7,96.0,5.01,3450144.0,BR,-43.8514,-19.7697,33.0,1685434081.0
218,São Filipe,76.89,72.0,10.04,3374210.0,CV,-24.4956,14.8961,100.0,1685434083.0
219,San Luis,48.85,65.0,8.63,3837056.0,AR,-66.3356,-33.295,84.0,1685434085.0
220,Fairbanks,46.67,93.0,10.36,5861897.0,US,-147.7164,64.8378,100.0,1685433902.0
221,Sibolga,86.27,66.0,6.49,1213855.0,ID,98.7792,1.7427,100.0,1685434089.0
222,Pahrump,71.46,20.0,5.99,5509851.0,US,-115.9839,36.2083,99.0,1685434091.0
223,Narsaq,41.22,75.0,9.24,3421719.0,GL,-46.05,60.9167,80.0,1685434094.0
224,Hamilton,64.35,86.0,3.44,4513583.0,US,-84.5333,39.1834,0.0,1685433857.0
225,Fortuna,50.72,96.0,0.0,5563839.0,US,-124.1573,40.5982,100.0,1685433833.0
226,Ayan,44.55,66.0,9.42,2027316.0,RU,138.1667,56.45,100.0,1685434100.0
227,El Dorado,51.4,89.0,1.01,5345659.0,US,-120.5177,38.7666,50.0,1685434102.0
228,Leonidovo,52.14,62.0,10.98,2123805.0,RU,142.8667,49.2833,100.0,1685434104.0
229,Chicama,72.14,85.0,4.76,3698359.0,PE,-79.1469,-7.8447,94.0,1685434106.0
230,Umluj,85.12,67.0,10.58,100926.0,SA,37.2685,25.0213,0.0,1685434109.0
231,Acapulco de Juárez,85.82,66.0,3.44,3533462.0,MX,-99.8901,16.8634,40.0,1685434111.0
232,Santa Maria,48.96,97.0,4.68,3450083.0,BR,-53.8069,-29.6842,100.0,1685433960.0
233,Ubinskoye,70.66,33.0,5.28,1488708.0,RU,79.6802,55.3068,0.0,1685434115.0
234,Flinders,62.76,63.0,5.01,6255012.0,AU,150.8552,-34.5833,39.0,1685434117.0
235,Broome,55.98,71.0,6.91,5110365.0,US,-75.833,42.2506,0.0,1685433846.0
236,Mossamedes,67.33,55.0,6.71,3347019.0,AO,12.1522,-15.1961,70.0,1685434121.0
237,Orange Cove,62.06,72.0,0.0,5379533.0,US,-119.3137,36.6244,0.0,1685434123.0
238,Barra Patuca,76.35,87.0,4.32,3614835.0,HN,-84.2833,15.8,100.0,1685434125.0
239,Arlit,96.55,10.0,7.58,2447513.0,NE,7.3853,18.7369,56.0,1685434128.0
240,Chilia Veche,73.99,49.0,12.73,682117.0,RO,29.2833,45.4167,97.0,1685434130.0
241,Conde,72.86,100.0,6.91,3385077.0,BR,-34.9075,-7.2597,20.0,1685434132.0
242,Bulungu,82.92,65.0,1.95,2316259.0,CD,18.6,-4.55,100.0,1685434134.0
243,Baker City,47.91,93.0,3.44,5712169.0,US,-117.8344,44.7749,20.0,1685434057.0
244,Rājākhera,100.35,24.0,5.75,1258930.0,IN,78.1714,26.8961,6.0,1685434138.0
245,Portland,51.69,76.0,6.91,5746545.0,US,-122.6762,45.5234,0.0,1685433916.0
246,Birkeland,62.53,40.0,10.36,3161532.0,NO,8.2323,58.3309,0.0,1685434142.0
247,Dvinskoy Bereznik,64.26,29.0,8.59,577240.0,RU,42.7072,62.8551,13.0,1685434145.0
248,Jalingo,86.77,56.0,6.58,2336589.0,NG,11.3667,8.8833,99.0,1685434147.0
249,Yar-Sale,67.15,52.0,19.55,1486321.0,RU,70.8333,66.8333,100.0,1685434149.0
250,Tafresh,80.47,26.0,3.98,113636.0,IR,50.013,34.692,63.0,1685434151.0
251,Homer,44.44,78.0,0.0,5864145.0,US,-151.5483,59.6425,0.0,1685434153.0
252,Mandalgovi,49.55,80.0,11.74,2030065.0,MN,106.2708,45.7625,100.0,1685434155.0
253,Kibala,86.18,53.0,7.45,2425791.0,TD,18.3463,9.1104,41.0,1685434157.0
254,Ulladulla,55.76,64.0,9.66,2145554.0,AU,150.4667,-35.35,52.0,1685434160.0
255,Sitka,44.49,81.0,4.61,5557293.0,US,-135.33,57.0531,100.0,1685434162.0
256,Leningradskiy,30.9,96.0,6.26,2123814.0,RU,178.4167,69.3833,100.0,1685434164.0
257,Takāb,77.04,32.0,13.58,113508.0,IR,47.1133,36.4009,78.0,1685434166.0
258,Tarancón,58.8,77.0,4.76,3108317.0,ES,-3.0073,40.0085,83.0,1685434168.0
259,Goderich,64.72,48.0,9.22,5962442.0,CA,-81.7165,43.7501,4.0,1685433965.0
260,Rosa Zarate,73.81,97.0,2.08,3652257.0,EC,-79.4667,0.3333,100.0,1685434172.0
261,Luganville,77.61,80.0,11.48,2136150.0,VU,167.1667,-15.5333,98.0,1685434174.0
262,Druzhba,66.04,55.0,6.93,709584.0,UA,33.9453,52.0428,100.0,1685434177.0
263,Valea lui Mihai,67.71,64.0,5.32,663692.0,RO,22.15,47.5167,16.0,1685434179.0
264,Ancud,48.04,92.0,9.84,3899695.0,CL,-73.8203,-41.8697,100.0,1685434181.0
265,Matagami,52.41,62.0,6.04,6067747.0,CA,-77.6328,49.7502,14.0,1685434183.0
266,Peniche,64.0,91.0,9.13,2264923.0,PT,-9.3811,39.3558,96.0,1685434185.0
267,Miraflores,56.95,77.0,3.04,3761194.0,MX,-98.8083,19.2167,2.0,1685434187.0
268,Lebu,50.47,69.0,1.45,3883457.0,CL,-73.65,-37.6167,91.0,1685433986.0
269,Crawley,53.73,74.0,17.27,2652053.0,GB,-0.1831,51.113,75.0,1685434191.0
270,Khonsa,89.67,40.0,4.74,1266668.0,IN,95.5667,27.0167,13.0,1685434193.0
271,Yumen,76.1,18.0,34.65,1528998.0,CN,97.2,40.2833,63.0,1685434196.0
272,Bubaque,81.77,83.0,15.41,2374583.0,GW,-15.8333,11.2833,80.0,1685434198.0
273,Ribas do Rio Pardo,64.78,90.0,5.77,3451399.0,BR,-53.7592,-20.4431,100.0,1685434117.0
274,Malbork,62.4,55.0,1.86,3092472.0,PL,19.0266,54.0359,3.0,1685434203.0
275,Saint-Leu,78.12,88.0,4.97,6690297.0,RE,55.2833,-21.15,1.0,1685434205.0
276,Arkhara,64.89,36.0,8.1,2027487.0,RU,130.0842,49.4212,85.0,1685434207.0
277,Tura,91.35,44.0,3.62,1254046.0,IN,90.2201,25.5198,98.0,1685434209.0
278,Ingham,57.88,73.0,0.0,4997130.0,US,-84.3833,42.6,0.0,1685434212.0
279,Sarandi,57.58,86.0,8.41,3447998.0,BR,-51.8739,-23.4436,100.0,1685434188.0
280,Biak,81.82,73.0,9.31,1637001.0,ID,122.8766,-0.9131,32.0,1685434216.0
281,Nieuw Amsterdam,76.01,94.0,3.91,3383434.0,SR,-55.0833,5.8833,100.0,1685434218.0
282,Boundiali,79.57,72.0,8.95,2290836.0,CI,-6.4869,9.5217,55.0,1685434220.0
283,Aitape,82.98,75.0,2.21,2101169.0,PG,142.3475,-3.1374,87.0,1685434222.0
284,Manadhoo,84.67,71.0,12.62,1337618.0,MV,73.3833,5.7667,52.0,1685434224.0
285,Ca Mau,90.61,56.0,13.27,1586443.0,VN,105.15,9.1769,45.0,1685434227.0
286,San Patricio,75.45,88.0,3.74,4726521.0,US,-97.5169,28.017,49.0,1685434229.0
287,Portree,53.53,87.0,3.36,2640006.0,GB,-6.1942,57.4129,15.0,1685434231.0
288,Srednekolymsk,66.54,21.0,11.14,2121025.0,RU,153.6833,67.45,22.0,1685434233.0
289,Zhangaözen,95.07,10.0,20.8,607610.0,KZ,52.8,43.3,98.0,1685434235.0
290,Mayo,57.72,89.0,15.99,4362001.0,US,-76.5119,38.8876,20.0,1685434237.0
291,Hualmay,69.21,84.0,6.46,3939761.0,PE,-77.6139,-11.0964,90.0,1685434239.0
292,Púchov,67.14,56.0,8.16,3057963.0,SK,18.326,49.1249,100.0,1685434241.0
293,Hong Kong,87.55,94.0,11.36,1819729.0,HK,114.1577,22.2855,15.0,1685434019.0
294,Dzilam González,74.23,92.0,4.99,3529654.0,MX,-88.9333,21.2833,2.0,1685434246.0
295,Sistranda,46.36,88.0,27.49,3139597.0,NO,8.834,63.7256,51.0,1685434248.0
296,Ondjiva,70.97,22.0,2.46,3346821.0,AO,15.7333,-17.0667,6.0,1685434250.0
297,Taguatinga,70.09,52.0,4.09,6319623.0,BR,-46.5711,-12.3857,14.0,1685434081.0
298,Evensk,54.1,43.0,16.22,2125693.0,RU,159.2333,61.95,21.0,1685434254.0
299,Katsuura,69.82,83.0,8.01,2112309.0,JP,140.3,35.1333,100.0,1685434256.0
300,Ambovombe,77.45,55.0,6.91,1079048.0,MG,46.0833,-25.1667,8.0,1685434258.0
301,Pisco,64.45,82.0,4.61,3932145.0,PE,-76.2167,-13.7,75.0,1685434261.0
302,Lala,84.4,76.0,6.6,1707944.0,PH,123.7458,7.9745,100.0,1685434263.0
303,East London,67.14,77.0,8.05,1006984.0,ZA,27.9116,-33.0153,0.0,1685434265.0
304,Nyurba,68.59,27.0,1.41,2018735.0,RU,118.3319,63.2842,58.0,1685434267.0
305,Baykit,69.85,31.0,8.84,1510689.0,RU,96.37,61.67,52.0,1685434269.0
306,Muyezerskiy,54.05,34.0,5.77,524100.0,RU,31.65,63.9333,44.0,1685434271.0
307,Umarkot,103.8,27.0,14.0,1162959.0,PK,69.7362,25.3616,9.0,1685434273.0
308,Paamiut,35.82,75.0,2.8,3421193.0,GL,-49.6678,61.994,10.0,1685434276.0
309,Gberia Fotombu,75.02,89.0,7.34,2409019.0,SL,-11.1667,9.8833,95.0,1685434278.0
310,Auki,76.98,92.0,4.9,2109701.0,SB,160.7034,-8.7676,100.0,1685434280.0
311,Timmins,58.42,78.0,5.73,6166739.0,CA,-81.3331,48.4669,10.0,1685434282.0
312,Pachino,69.4,61.0,4.56,6539213.0,IT,15.0907,36.7186,10.0,1685434284.0
313,Arrondissement d'Arcachon,68.05,83.0,0.0,6621469.0,FR,-1.0519,44.5875,0.0,1685434286.0
314,Avera,57.92,81.0,4.5,4231997.0,US,-82.5271,33.194,38.0,1685434288.0
315,Bonthe,82.44,79.0,6.76,2409914.0,SL,-12.505,7.5264,94.0,1685434290.0
316,Songjianghe,67.75,29.0,7.34,2034691.0,CN,127.479,42.1859,100.0,1685434293.0
317,Salisbury,53.8,71.0,16.11,2638664.0,GB,-1.7957,51.0693,75.0,1685434295.0
318,Xi'an,88.12,35.0,5.35,1790630.0,CN,108.9286,34.2583,10.0,1685434101.0
319,Touros,74.68,92.0,9.37,3386213.0,BR,-35.4608,-5.1989,47.0,1685434299.0
320,Boda,79.07,65.0,1.03,2388614.0,CF,17.4695,4.3189,99.0,1685434039.0
321,Mayumba,77.76,82.0,8.99,2399001.0,GA,10.6554,-3.432,56.0,1685434303.0
322,Chul'man,58.82,32.0,7.18,2025261.0,RU,124.9104,56.8479,100.0,1685434305.0
323,Tambacounda,86.05,58.0,4.61,2244991.0,SN,-13.7586,13.7539,0.0,1685434307.0
324,Bushehr,92.77,49.0,14.47,139817.0,IR,50.8385,28.9684,95.0,1685434310.0
325,Port Hardy,48.2,85.0,9.73,6111862.0,CA,-127.4199,50.6996,12.0,1685434312.0
326,Shashi,81.88,71.0,11.23,1795816.0,CN,112.2447,30.3072,92.0,1685434314.0
327,Grand-Lahou,82.11,82.0,8.32,2288105.0,CI,-5.0242,5.1367,47.0,1685434316.0
328,State College,54.72,68.0,4.61,5213681.0,US,-77.86,40.7934,40.0,1685434318.0
329,Teguise,68.22,64.0,8.05,2510573.0,ES,-13.564,29.0605,20.0,1685434320.0
330,Magdagachi,63.03,37.0,5.53,2020591.0,RU,125.8,53.45,60.0,1685434322.0
331,Gaozhou,95.74,51.0,5.93,1810295.0,CN,110.8461,21.9392,43.0,1685434324.0
332,Meulaboh,86.04,63.0,7.16,1214488.0,ID,96.1285,4.1363,83.0,1685434327.0
333,Río Gallegos,51.85,66.0,20.71,3838859.0,AR,-69.2181,-51.6226,0.0,1685434285.0
334,Chaihe,65.17,42.0,3.83,2038198.0,CN,129.7,44.7667,77.0,1685434331.0
335,Nikel,44.78,59.0,9.48,522260.0,RU,30.222,69.4128,100.0,1685434333.0
336,Beringovskiy,38.46,69.0,19.44,2126710.0,RU,179.3167,63.05,14.0,1685434335.0
337,Coyhaique,42.75,87.0,6.91,3894426.0,CL,-72.0662,-45.5752,100.0,1685434337.0
338,Vardø,46.38,53.0,20.71,777019.0,NO,31.1107,70.3705,75.0,1685434339.0
339,Talnakh,43.21,74.0,9.28,1490256.0,RU,88.3972,69.4865,100.0,1685434071.0
340,Faya,70.32,55.0,0.29,110690.0,SA,42.4509,18.3851,100.0,1685434344.0
341,Znamenskoye,69.75,45.0,12.26,1485020.0,RU,73.8282,57.1281,100.0,1685434346.0
342,Manavgat,69.93,71.0,8.9,304854.0,TR,31.4431,36.7867,99.0,1685434348.0
343,Cairns,70.83,69.0,14.97,2172797.0,AU,145.7667,-16.9167,82.0,1685434350.0
344,Klaksvík,50.92,83.0,27.13,2618795.0,FO,-6.589,62.2266,71.0,1685434352.0
345,Fonte Boa,73.11,98.0,1.9,6319315.0,BR,-66.2662,-2.4959,100.0,1685434355.0
346,Piaçabuçu,75.16,80.0,6.6,3454005.0,BR,-36.4344,-10.4056,10.0,1685434073.0
347,Havøysund,43.03,74.0,23.38,779622.0,NO,24.6622,70.9963,87.0,1685434359.0
348,Boden,51.8,34.0,6.38,606531.0,SE,21.6886,65.8252,20.0,1685434361.0
349,Nhulunbuy,81.21,61.0,16.11,2064735.0,AU,136.7667,-12.2333,100.0,1685434363.0
350,Kamenka,67.91,70.0,12.33,553766.0,RU,42.7678,51.3223,85.0,1685434365.0
351,Kazachinskoye,65.19,51.0,11.52,1504075.0,RU,93.2761,57.6953,100.0,1685434367.0
352,Geraldton,77.41,65.0,12.66,2070998.0,AU,114.6,-28.7667,91.0,1685434369.0
353,Maxixe,77.49,58.0,6.11,1039536.0,MZ,35.3472,-23.8597,23.0,1685434371.0
354,Leon Valley,63.63,93.0,4.61,4705923.0,US,-98.6186,29.4952,0.0,1685434118.0
355,Nome,32.07,100.0,5.75,5870133.0,US,-165.4064,64.5011,100.0,1685434376.0
356,Manokwari,83.7,75.0,4.14,1636308.0,ID,134.0833,-0.8667,100.0,1685434378.0
357,Grand-Santi,73.27,100.0,1.95,3381538.0,GF,-54.3833,4.25,100.0,1685434380.0
358,Faanui,79.23,80.0,1.36,4034551.0,PF,-151.75,-16.4833,9.0,1685434382.0
359,Clyde River,25.03,93.0,14.97,5924351.0,CA,-68.5914,70.4692,100.0,1685434384.0
360,Kosa,69.51,33.0,5.66,544318.0,RU,54.9977,59.9445,18.0,1685434386.0
361,Blackwater,61.57,30.0,9.37,2175403.0,AU,148.8833,-23.5833,0.0,1685434388.0
362,Assiniboia,55.22,76.0,4.61,5887798.0,CA,-105.9845,49.6334,10.0,1685434391.0
363,Bambous Virieux,79.05,61.0,6.91,1106677.0,MU,57.7575,-20.3428,20.0,1685434393.0
364,Arona,63.73,87.0,1.14,2521582.0,ES,-16.681,28.0996,40.0,1685434395.0
365,Belyy Yar,49.89,81.0,2.24,1510377.0,RU,91.3903,53.6039,75.0,1685434397.0
366,San Miguel,75.04,96.0,2.15,3583446.0,SV,-88.1833,13.4833,99.0,1685434399.0
367,Maniitsoq,33.96,69.0,18.97,3421982.0,GL,-52.9,65.4167,100.0,1685434401.0
368,Freeport,52.81,81.0,8.05,5117949.0,US,-73.5832,40.6576,0.0,1685434404.0
369,Constitución,54.41,60.0,1.59,3893726.0,CL,-72.4167,-35.3333,100.0,1685434256.0
370,Tarakan,90.9,62.0,3.44,1624725.0,ID,117.6333,3.3,40.0,1685434408.0
371,Nirmal,98.65,25.0,2.04,1261288.0,IN,78.35,19.1,95.0,1685434410.0
372,Zmeinogorsk,60.12,64.0,9.19,1485042.0,RU,82.195,51.1567,24.0,1685434412.0
373,Valparaíso,59.0,63.0,3.44,3868626.0,CL,-71.6273,-33.0393,0.0,1685434414.0
374,Caravelas,71.29,89.0,9.69,3466980.0,BR,-39.2481,-17.7125,21.0,1685434416.0
375,Torbay,31.93,91.0,5.75,6167817.0,CA,-52.7314,47.6666,40.0,1685434419.0
376,Le Port,79.29,88.0,1.7,935616.0,RE,55.2919,-20.9373,2.0,1685434421.0
377,Kumul,76.1,9.0,25.61,1529484.0,CN,93.45,42.8,8.0,1685434423.0
378,Inverell,52.11,68.0,3.6,2162662.0,AU,151.1167,-29.7833,9.0,1685434425.0
379,Tortolì,67.82,77.0,12.66,2522890.0,IT,9.6572,39.9256,40.0,1685434427.0
380,Beipiao,78.31,13.0,5.39,2038342.0,CN,120.7792,41.7919,100.0,1685434429.0
381,Novo Aripuanã,72.95,96.0,2.64,3663142.0,BR,-60.3797,-5.1206,100.0,1685434431.0
382,Akdepe,92.39,8.0,14.43,601551.0,TM,59.3788,42.0551,0.0,1685434434.0
383,Pangnirtung,35.29,99.0,4.52,6096551.0,CA,-65.7125,66.1451,100.0,1685434436.0
384,Komatipoort,73.06,55.0,1.9,988290.0,ZA,31.9548,-25.4332,100.0,1685434438.0
385,Kailua,75.99,77.0,10.36,5847486.0,US,-157.7394,21.4022,0.0,1685434440.0
386,Massakory,94.17,36.0,11.83,2428228.0,TD,15.7293,12.996,56.0,1685434442.0
387,Byron Bay,57.7,64.0,6.06,2172880.0,AU,153.6167,-28.65,0.0,1685434444.0
388,Dawson Creek,40.64,70.0,2.3,5935804.0,CA,-120.2362,55.7666,0.0,1685434446.0
389,Port-Gentil,78.51,82.0,12.37,2396518.0,GA,8.7815,-0.7193,56.0,1685434450.0
390,Augusto Corrêa,75.52,92.0,2.98,3406961.0,BR,-46.635,-1.0217,69.0,1685434452.0
391,Araouane,91.69,16.0,14.45,2460954.0,ML,-3.5265,18.9048,54.0,1685434454.0
392,Coahuayana Viejo,77.18,88.0,1.12,4013679.0,MX,-103.6833,18.7333,52.0,1685434456.0
393,Mount Gambier,57.65,86.0,10.0,2156643.0,AU,140.7667,-37.8333,100.0,1685434458.0
394,Swan River,57.09,94.0,4.61,6160362.0,CA,-101.2676,52.1058,100.0,1685434460.0
395,Bima,85.26,61.0,5.93,1648759.0,ID,118.7167,-8.4667,25.0,1685434462.0
396,Cherskiy,59.9,32.0,17.29,2126199.0,RU,161.3,68.75,9.0,1685434465.0
397,Adrar,80.29,39.0,13.24,2381972.0,MR,-10.0711,20.5022,92.0,1685434467.0
398,Egvekinot,30.72,76.0,2.21,4031742.0,RU,-179.1667,66.3167,36.0,1685434469.0
399,Comodoro Rivadavia,58.86,44.0,8.05,3860443.0,AR,-67.5,-45.8667,0.0,1685434215.0
400,Volchikha,69.35,34.0,14.36,1486983.0,RU,80.3833,52.0333,18.0,1685434473.0
401,Paita,73.22,81.0,11.83,3694112.0,PE,-81.1144,-5.0892,16.0,1685434475.0
402,Calama,39.69,24.0,19.57,3897347.0,CL,-68.9333,-22.4667,0.0,1685434478.0
403,Abalak,80.96,31.0,10.31,1512223.0,RU,68.5944,58.1286,3.0,1685434480.0
404,Atar,81.7,29.0,12.64,2381334.0,MR,-13.0499,20.5169,100.0,1685434482.0
405,Venado Tuerto,51.76,63.0,7.54,3833062.0,AR,-61.9688,-33.7456,97.0,1685434484.0
406,Ostrovnoy,44.19,79.0,6.08,556268.0,RU,39.5131,68.0531,95.0,1685434486.0
407,Praia,77.54,61.0,18.41,3374333.0,CV,-23.5087,14.9215,0.0,1685434407.0
408,Campoverde,71.2,99.0,2.57,3733380.0,PE,-74.8058,-8.4753,40.0,1685434490.0
409,Peebles,56.32,71.0,3.0,2640526.0,GB,-3.1888,55.6519,8.0,1685434493.0
410,Ngunguru,58.15,89.0,4.74,2186111.0,NZ,174.5,-35.6167,4.0,1685434495.0
411,Haines Junction,33.75,64.0,1.14,5969025.0,CA,-137.5108,60.7522,100.0,1685434497.0
412,Chernyshevsk,67.96,17.0,10.22,2025458.0,RU,117.0174,52.5243,2.0,1685434499.0
413,Makiyivka,72.16,63.0,4.43,702320.0,UA,37.9258,48.0478,96.0,1685434501.0
414,Petropavlovsk-Kamchatskiy,43.39,100.0,13.42,2122104.0,RU,158.6483,53.0452,75.0,1685434504.0
415,Los Llanos de Aridane,64.13,66.0,4.0,2514651.0,ES,-17.9182,28.6585,0.0,1685434506.0
416,Nuevo Progreso,74.46,89.0,2.62,3522526.0,MX,-97.95,23.1667,7.0,1685434508.0
417,Norsup,77.27,75.0,12.26,2135517.0,VU,167.3833,-16.0667,100.0,1685434511.0
418,Yulara,67.39,30.0,5.59,6355222.0,AU,130.9889,-25.2406,100.0,1685434513.0
419,Hohhot,70.09,64.0,13.42,2036892.0,CN,111.6522,40.8106,40.0,1685434515.0
420,Bowen,66.4,66.0,15.82,2174444.0,AU,148.2333,-20.0167,0.0,1685434517.0
421,Smoky Lake,56.71,62.0,3.44,6150293.0,CA,-112.4686,54.1169,100.0,1685434519.0
422,Angoram,80.89,83.0,4.41,2100765.0,PG,144.0661,-4.0625,36.0,1685434521.0
423,Itarema,76.1,90.0,10.04,3393692.0,BR,-39.9167,-2.9248,99.0,1685434524.0
424,La Asuncion,80.33,83.0,13.8,3480908.0,VE,-63.8628,11.0333,52.0,1685434526.0
425,Berlevåg,39.54,81.0,23.02,780687.0,NO,29.0864,70.8578,75.0,1685434528.0
426,Ambilobe,88.48,48.0,1.57,1082243.0,MG,49.05,-13.2,7.0,1685434530.0
427,Teya,70.61,30.0,8.84,1489656.0,RU,92.6267,60.3778,100.0,1685434532.0
428,Máncora,77.94,73.0,7.34,3695000.0,PE,-81.0475,-4.1078,88.0,1685434534.0
429,Crotone,73.35,78.0,11.5,2524881.0,IT,17.1178,39.0851,0.0,1685434536.0
430,Sechura,74.25,75.0,10.94,3691954.0,PE,-80.8222,-5.5569,46.0,1685434539.0
431,Tarko-Sale,70.95,28.0,19.69,1490085.0,RU,77.785,64.9225,99.0,1685434541.0
432,Yerofey Pavlovich,49.77,71.0,5.73,2012938.0,RU,121.9667,53.9667,97.0,1685434543.0
433,Doha,103.98,25.0,12.66,290030.0,QA,51.5333,25.2867,0.0,1685434283.0
434,Palmer,42.76,84.0,0.0,4946620.0,US,-72.3287,42.1584,0.0,1685434547.0
435,Darhan,62.35,54.0,13.87,2031964.0,MN,105.9228,49.4867,100.0,1685434549.0
436,Rantauprapat,95.83,43.0,1.97,1214073.0,ID,99.8333,2.1,92.0,1685434551.0
437,Arroyo de la Encomienda,63.68,67.0,4.61,3129371.0,ES,-4.7969,41.6096,20.0,1685434314.0
438,Keetmanshoop,49.55,53.0,6.26,3356264.0,NA,18.1333,-26.5833,0.0,1685434556.0
439,Staryy Nadym,71.35,39.0,27.78,1490918.0,RU,72.6842,65.6118,88.0,1685434558.0
440,Beloha,80.26,40.0,9.53,1067565.0,MG,45.05,-25.1667,34.0,1685434560.0
441,Kelvington,58.51,82.0,6.06,5990669.0,CA,-103.5343,52.1667,47.0,1685434562.0
442,Munger,107.89,18.0,4.74,1262482.0,IN,86.4667,25.3833,23.0,1685434564.0
443,Grindavik,45.07,87.0,20.71,3416888.0,IS,-22.4338,63.8424,100.0,1685434566.0
444,Kangaatsiaq,33.55,74.0,16.13,3422683.0,GL,-53.4641,68.3065,99.0,1685434569.0
445,Omsukchan,55.24,45.0,5.97,2122493.0,RU,155.8,62.5333,75.0,1685434571.0
446,Quzhou,89.94,69.0,6.62,1797264.0,CN,118.8686,28.9594,12.0,1685434573.0
447,Neijiang,88.88,58.0,4.88,1799491.0,CN,105.0622,29.5835,89.0,1685434575.0
448,Bonavista,36.16,82.0,10.11,5905393.0,CA,-53.1147,48.6499,100.0,1685434577.0
449,Pauini,72.05,99.0,2.75,3662927.0,BR,-66.9764,-7.7136,100.0,1685434580.0
450,Poso,84.51,75.0,2.46,1630723.0,ID,120.7524,-1.3959,27.0,1685434582.0
451,Hervey Bay,65.12,68.0,10.04,2146219.0,AU,152.8535,-25.2986,0.0,1685434584.0
452,Gambēla,93.22,39.0,1.68,337405.0,ET,34.5833,8.25,16.0,1685434586.0
453,Hede,72.73,75.0,10.22,1808744.0,CN,120.2517,33.7681,56.0,1685434588.0
454,Alice Springs,65.75,32.0,9.69,2077895.0,AU,133.8833,-23.7,98.0,1685434590.0
455,Tazmalt,67.15,63.0,3.13,2477537.0,DZ,4.3989,36.3868,11.0,1685434593.0
456,Mangaratiba,63.46,87.0,1.77,3457991.0,BR,-44.0406,-22.9597,100.0,1685434595.0
457,Porto-Novo,84.02,70.0,5.55,2392087.0,BJ,2.6036,6.4965,92.0,1685434597.0
458,Sabha,88.95,7.0,10.47,2212775.0,LY,14.4283,27.0377,100.0,1685434599.0
459,Salinópolis,79.81,81.0,10.04,3389822.0,BR,-47.3561,-0.6136,96.0,1685434601.0
460,Riyadh,98.74,26.0,12.88,108410.0,SA,46.7219,24.6877,100.0,1685434603.0
461,Jönköping,55.11,62.0,9.22,2702979.0,SE,14.1562,57.7814,0.0,1685434605.0
462,Yatou,68.18,53.0,7.43,1786855.0,CN,122.3833,37.15,100.0,1685434607.0
463,Jaru,70.95,98.0,2.89,3925040.0,BR,-62.4664,-10.4389,97.0,1685434609.0
464,Yashan,94.51,53.0,2.64,1786867.0,CN,109.9419,22.1975,42.0,1685434612.0
465,Bamiantong,66.02,39.0,8.9,2038482.0,CN,130.5333,44.9333,68.0,1685434614.0
466,Boa Vista,73.38,94.0,2.3,3664980.0,BR,-60.6733,2.8197,75.0,1685434616.0
467,Barra do Bugres,66.4,96.0,0.34,3470718.0,BR,-57.1811,-15.0725,100.0,1685434618.0
468,Butembo,74.25,46.0,4.97,217562.0,CD,29.2833,0.15,2.0,1685434620.0
469,Talaya,55.67,52.0,5.1,2120769.0,RU,152.75,61.3833,21.0,1685434622.0
470,Vengurla,89.4,59.0,5.32,1253257.0,IN,73.6333,15.8667,56.0,1685434625.0
471,Maracaçumé,72.32,99.0,2.55,3395497.0,BR,-45.9592,-2.0428,100.0,1685434627.0
472,Nouadhibou,69.78,73.0,23.02,2377457.0,MR,-17.0347,20.931,54.0,1685434629.0
473,La Celia,59.14,99.0,1.12,3679542.0,CO,-76.0167,5.0433,100.0,1685434631.0
474,Lüderitz,57.83,59.0,4.23,3355672.0,NA,15.1594,-26.6481,0.0,1685434633.0
475,Carutapera,77.38,87.0,6.46,3402648.0,BR,-46.02,-1.195,92.0,1685434635.0
476,Yauya,46.06,93.0,0.63,3690733.0,PE,-77.3,-8.9833,62.0,1685434638.0
477,Port Said,71.17,76.0,4.59,358619.0,EG,32.2841,31.2565,0.0,1685434640.0
478,Sambava,80.47,71.0,14.29,1056899.0,MG,50.1667,-14.2667,22.0,1685434642.0
479,Kafanchan,79.74,67.0,2.77,2335713.0,NG,8.3,9.5833,90.0,1685434644.0
480,Neftçala,85.78,43.0,3.24,147425.0,AZ,49.2472,39.3742,93.0,1685434646.0
481,Yhú,64.13,90.0,3.02,3436595.0,PY,-55.9167,-25.05,100.0,1685434648.0
482,Necochea,49.28,68.0,12.03,3430443.0,AR,-58.7368,-38.5473,100.0,1685434387.0
483,Muros,63.91,85.0,4.45,3115824.0,ES,-9.0603,42.7762,94.0,1685434653.0
484,Linxia Chengguanzhen,75.36,49.0,14.12,1803331.0,CN,103.2064,35.6003,83.0,1685434655.0
485,Tripoli,71.17,69.0,19.26,2210247.0,LY,13.1875,32.8752,99.0,1685434657.0
486,Ixtapa,72.19,88.0,2.71,4004293.0,MX,-105.2,20.7,17.0,1685434659.0
487,Santiago del Estero,50.76,80.0,2.51,3835869.0,AR,-64.2615,-27.7951,0.0,1685434661.0
488,Uribia,81.66,74.0,5.82,3666409.0,CO,-72.266,11.7139,100.0,1685434663.0
489,Rome,56.07,80.0,5.75,5134295.0,US,-75.4557,43.2128,0.0,1685434665.0
490,Xuanzhou,79.27,81.0,3.89,1788081.0,CN,118.7553,30.9525,100.0,1685434667.0
491,Arrondissement de Muret,64.6,88.0,0.45,2991152.0,FR,1.25,43.3333,21.0,1685434670.0
492,Orlik,51.28,45.0,8.3,1496073.0,RU,99.825,52.5178,100.0,1685434672.0
493,Toyoake,76.37,60.0,7.54,1856057.0,JP,137.0137,35.0594,100.0,1685434674.0
494,Ibrā’,100.4,23.0,8.52,287832.0,OM,58.5334,22.6906,0.0,1685434676.0
495,Ayagoz,59.9,63.0,2.66,1525988.0,KZ,80.4392,47.9714,91.0,1685434678.0
496,Deputatsky,46.9,82.0,3.85,2028164.0,RU,139.9,69.3,43.0,1685434680.0
497,Moyale,72.66,70.0,11.74,186180.0,KE,39.0584,3.5167,86.0,1685434683.0
498,Gresik,80.98,54.0,8.59,1643776.0,ID,112.6561,-7.1539,97.0,1685434685.0
499,Tsushima,76.84,58.0,9.06,1849539.0,JP,136.7167,35.1667,100.0,1685434688.0
500,Boralday,75.06,23.0,6.71,1526384.0,KZ,76.8594,43.3578,0.0,1685434690.0
501,Mahina,78.57,78.0,2.3,4034307.0,PF,-149.489,-17.5065,75.0,1685434692.0
502,Ust-Maya,66.85,35.0,3.18,2013918.0,RU,134.5333,60.4167,97.0,1685434694.0
503,General Pico,44.17,71.0,7.63,3855075.0,AR,-63.7568,-35.6566,77.0,1685434696.0
504,Labuan,88.16,66.0,5.75,1733782.0,MY,115.2417,5.2767,20.0,1685434699.0
505,Saint Anthony,67.98,48.0,6.91,5044290.0,US,-93.218,45.0205,40.0,1685434701.0
506,Iqaluit,34.7,93.0,11.5,5983720.0,CA,-68.5145,63.7506,100.0,1685434703.0
507,Haapiti,76.71,79.0,4.23,4034438.0,PF,-149.8667,-17.5667,1.0,1685434705.0
508,Sarankhola,102.97,30.0,1.81,1185239.0,BD,89.7897,22.3082,6.0,1685434707.0
509,Odienné,80.94,68.0,5.26,2283016.0,CI,-7.5692,9.51,49.0,1685434710.0
510,Miles City,58.17,88.0,4.61,5666176.0,US,-105.8406,46.4083,0.0,1685434712.0
511,Daru,78.13,88.0,15.21,2098329.0,PG,143.2092,-9.0763,51.0,1685434714.0
512,Umm Kaddadah,89.92,34.0,7.43,364933.0,SD,26.6876,13.6017,5.0,1685434716.0
513,Skegness,54.23,79.0,15.35,2637762.0,GB,0.3363,53.1436,0.0,1685434718.0
514,Saint-François,67.44,56.0,5.75,2980080.0,FR,3.9054,46.4154,0.0,1685434720.0
515,Semey,75.42,25.0,15.66,1519422.0,KZ,80.2275,50.4111,0.0,1685434722.0
516,Esperance,69.85,39.0,2.8,2071860.0,AU,121.9,-33.8667,100.0,1685434724.0
517,Selkirk,65.21,80.0,8.99,6144054.0,CA,-96.8845,50.1436,100.0,1685434726.0
518,Mahajanga,85.12,52.0,10.07,1062663.0,MG,46.3167,-15.7167,0.0,1685434729.0
519,Ruwi,92.89,42.0,8.66,287286.0,OM,58.5507,23.5996,1.0,1685434731.0
520,Pucallpa,71.49,100.0,2.66,3693345.0,PE,-74.5539,-8.3791,41.0,1685434733.0
521,Ginda,76.86,35.0,1.77,1253628.0,IN,78.4932,30.6945,99.0,1685434735.0
522,Hare Bay,31.6,91.0,4.61,5970873.0,CA,-54.0148,48.8499,59.0,1685434737.0
523,Kabalo,85.53,48.0,5.23,215668.0,CD,26.9167,-6.05,39.0,1685434739.0
524,Cockburn Town,81.32,77.0,18.34,3576994.0,TC,-71.1419,21.4612,100.0,1685434565.0
525,Kolomyia,67.28,59.0,4.74,705392.0,UA,25.0403,48.5306,31.0,1685434743.0
526,Odawara,71.28,94.0,6.2,1854747.0,JP,139.1597,35.2556,100.0,1685434746.0
527,Santa Cruz de la Sierra,58.46,100.0,14.97,3904906.0,BO,-63.1667,-17.8,100.0,1685434475.0
528,Derzhavīnsk,88.52,17.0,12.86,1524606.0,KZ,66.3167,51.1,10.0,1685434750.0
529,Raduzhny,74.5,23.0,14.5,1540356.0,RU,77.475,62.0961,14.0,1685434752.0
530,Gulariyā,106.43,17.0,7.65,1283368.0,NP,81.3333,28.2333,1.0,1685434754.0
531,Oudtshoorn,57.56,70.0,5.99,967106.0,ZA,22.2014,-33.5907,0.0,1685434756.0
532,Ruteng,69.01,70.0,2.33,1629380.0,ID,120.4721,-8.6136,85.0,1685434758.0
533,Sokolac,57.58,65.0,3.0,3190385.0,BA,18.8017,43.9397,75.0,1685434761.0
534,Jieshi,85.24,78.0,10.8,1805857.0,CN,115.8257,22.8134,11.0,1685434763.0
535,Porto Velho,75.25,94.0,2.3,3662762.0,BR,-63.9039,-8.7619,0.0,1685434561.0
536,Olinda,74.93,83.0,3.44,3393536.0,BR,-34.8553,-8.0089,40.0,1685434767.0
537,Vallenar,56.93,65.0,1.03,3868633.0,CL,-70.7581,-28.5708,39.0,1685434769.0
538,Bud,62.44,61.0,4.88,4255151.0,US,-86.1758,39.447,11.0,1685434771.0
539,Dhārchula,86.9,33.0,7.54,1272864.0,IN,80.5333,29.85,33.0,1685434774.0
540,Mabaruma,72.57,100.0,3.0,3377301.0,GY,-59.7833,8.2,98.0,1685434776.0
541,Nemuro,47.35,79.0,10.31,2128975.0,JP,145.575,43.3236,15.0,1685434778.0
542,Caucayá,72.28,99.0,0.72,3671437.0,CO,-74.7819,-0.1934,82.0,1685434780.0
543,Vanderhoof,47.48,50.0,6.76,6173361.0,CA,-124.0198,54.0166,82.0,1685434782.0
544,Maravilha,54.61,96.0,3.04,3457809.0,BR,-53.1725,-26.7608,100.0,1685434784.0
545,Nanlong,93.02,48.0,6.22,1799908.0,CN,106.0631,31.3533,2.0,1685434787.0
546,Seryshevo,66.09,27.0,4.61,2016942.0,RU,128.3786,51.0933,47.0,1685434789.0
547,Les Cayes,77.49,87.0,2.82,3728097.0,HT,-73.75,18.2,98.0,1685434791.0
548,Lagoa,63.16,81.0,12.57,3372964.0,PT,-27.9833,39.05,14.0,1685434793.0
549,Pacifica,53.92,88.0,7.0,5380420.0,US,-122.4869,37.6138,20.0,1685434741.0
550,Northam,54.75,75.0,18.19,2641434.0,GB,-4.2167,51.0333,47.0,1685434797.0
551,Rio Grande,59.76,77.0,6.73,3451138.0,BR,-52.0986,-32.035,100.0,1685434799.0
552,Gejiu,82.69,36.0,7.65,1810240.0,CN,103.1635,23.306,67.0,1685434801.0
553,Opuwo,64.4,24.0,1.95,3354077.0,NA,13.84,-18.0607,0.0,1685434803.0
554,La Ronge,53.85,76.0,6.91,6050066.0,CA,-105.2842,55.1001,100.0,1685434806.0
555,Yazykovo,71.76,55.0,5.88,468483.0,RU,56.1353,55.2199,100.0,1685434808.0
556,Batticaloa,87.04,62.0,7.58,1250161.0,LK,81.6924,7.7102,100.0,1685434810.0
557,Khasan,59.58,64.0,9.51,2039557.0,RU,130.6434,42.4308,69.0,1685434812.0
558,Kattivākkam,92.07,77.0,18.45,1267433.0,IN,80.3167,13.2167,100.0,1685434814.0
559,Arrondissement de Saint-Denis,60.37,59.0,17.27,2980915.0,FR,2.3333,48.9167,0.0,1685434817.0
560,Ende,81.5,72.0,4.09,1644932.0,ID,121.6623,-8.8432,23.0,1685434819.0
561,Harlingen,74.32,96.0,5.75,4696233.0,US,-97.6961,26.1906,20.0,1685434800.0
562,Zhicheng,82.76,69.0,8.34,1784554.0,CN,111.5047,30.2956,100.0,1685434823.0
563,Havelock,63.77,89.0,0.0,4470244.0,US,-76.9013,34.8791,100.0,1685434825.0
564,Madimba,83.46,63.0,10.78,878141.0,TZ,40.3333,-10.4,11.0,1685434827.0
565,Pacific Grove,53.8,85.0,3.44,5380437.0,US,-121.9166,36.6177,100.0,1685434830.0
566,Esim,81.03,79.0,5.66,2303611.0,GH,-2.2405,4.8699,80.0,1685434581.0
567,Gorontalo,85.71,68.0,7.09,1643837.0,ID,123.0595,0.5412,15.0,1685434834.0
568,Vaitape,79.23,80.0,1.34,4033077.0,PF,-151.75,-16.5167,8.0,1685434836.0
569,Ottawa,49.48,58.0,10.36,6094817.0,CA,-75.6981,45.4112,20.0,1685434642.0
570,Petropavl,87.78,22.0,20.13,1520172.0,KZ,69.1628,54.8753,0.0,1685434840.0
571,Bossangoa,80.47,63.0,4.94,2388036.0,CF,17.4552,6.4926,96.0,1685434843.0
572,Lavrentiya,32.07,81.0,6.8,4031637.0,RU,-171.0,65.5833,100.0,1685434845.0
573,Muskegon,58.8,68.0,4.61,5003136.0,US,-86.1334,43.3,0.0,1685434668.0
574,Lālmohan,92.79,51.0,8.08,1185251.0,BD,90.7419,22.3384,0.0,1685434849.0
575,Gainesville,66.85,85.0,3.44,4156404.0,US,-82.3248,29.6516,0.0,1685434851.0
