,City,Temp_max,Humidity,wind_speed,city_id,country_code,long,lat,Cloudiness,datetime
0,Flin Flon,55.78,88.0,6.13,5954718.0,CA,-101.865,54.7682,4.0,1685527206.0
1,Severo-Kuril'sk,38.95,96.0,6.22,2121385.0,RU,156.125,50.6789,100.0,1685527213.0
2,Codrington,61.72,68.0,17.47,2171099.0,AU,141.9667,-38.2667,44.0,1685527216.0
3,Bredasdorp,59.9,88.0,3.31,1015776.0,ZA,20.0403,-34.5322,100.0,1685527219.0
4,Kindersley,55.42,76.0,5.75,5992154.0,CA,-109.1682,51.4668,0.0,1685527231.0
5,Kavieng,84.31,75.0,7.14,2094342.0,PG,150.7967,-2.5744,80.0,1685527233.0
6,Brae,49.24,85.0,12.91,2654970.0,GB,-1.353,60.3964,100.0,1685527235.0
7,Hithadhoo,83.5,77.0,13.4,1282256.0,MV,73.0833,-0.6,100.0,1685527238.0
8,Ponta Delgada,66.92,77.0,11.5,3372783.0,PT,-25.6667,37.7333,40.0,1685527240.0
9,Kaitangata,47.89,82.0,4.97,2208248.0,NZ,169.8464,-46.2817,52.0,1685527242.0
10,Neiafu,77.63,81.0,16.04,4032420.0,TO,-173.9833,-18.65,67.0,1685527244.0
11,Busselton,63.18,76.0,8.55,2075265.0,AU,115.3333,-33.65,100.0,1685527246.0
12,Kudahuvadhoo,84.52,70.0,13.09,1337607.0,MV,72.8944,2.6708,100.0,1685527248.0
13,Port Macquarie,55.89,59.0,2.46,2152659.0,AU,152.9167,-31.4333,100.0,1685527251.0
14,Jamestown,56.01,92.0,3.44,5122534.0,US,-79.2353,42.097,0.0,1685527253.0
15,Nantucket,52.14,93.0,3.87,4944903.0,US,-70.0995,41.2835,3.0,1685527253.0
16,São João da Barra,66.29,92.0,1.21,3448903.0,BR,-41.0511,-21.6403,95.0,1685527257.0
17,Castlebar,63.32,43.0,5.61,2965654.0,IE,-9.3,53.85,5.0,1685527259.0
18,Katobu,75.29,95.0,5.64,1640972.0,ID,122.5276,-4.9408,100.0,1685527261.0
19,Port Lincoln,61.79,76.0,11.86,2063036.0,AU,135.8667,-34.7333,77.0,1685527263.0
20,Padampur,90.16,36.0,11.07,1260938.0,IN,73.6167,29.6833,78.0,1685527266.0
21,Cayenne,73.44,100.0,0.0,3382160.0,GF,-52.3333,4.9333,40.0,1685527121.0
22,Norman Wells,44.64,93.0,3.44,6089245.0,CA,-126.8329,65.282,75.0,1685527270.0
23,Upernavik,32.54,99.0,4.25,3418910.0,GL,-56.1549,72.7868,100.0,1685526983.0
24,Ushuaia,46.06,76.0,11.5,3833367.0,AR,-68.3,-54.8,0.0,1685527115.0
25,Tasiilaq,37.56,94.0,3.56,3424607.0,GL,-37.6368,65.6145,99.0,1685527276.0
26,Thunder Bay,53.51,76.0,4.61,6166142.0,CA,-89.3168,48.4001,75.0,1685527086.0
27,Provideniya,40.69,74.0,4.23,4031574.0,RU,-173.3,64.3833,47.0,1685527282.0
28,Cap Malheureux,80.47,58.0,5.99,934649.0,MU,57.6142,-19.9842,0.0,1685527284.0
29,West Wendover,61.81,45.0,0.0,5710035.0,US,-114.0733,40.7391,0.0,1685527287.0
30,Tautira,76.82,81.0,20.22,4033557.0,PF,-149.15,-17.7333,97.0,1685527289.0
31,Avarua,66.25,68.0,3.44,4035715.0,CK,-159.775,-21.2078,40.0,1685527291.0
32,Punta Arenas,44.71,76.0,6.91,3874787.0,CL,-70.9167,-53.15,75.0,1685527089.0
33,Ozernovskiy,39.45,95.0,3.65,2122293.0,RU,156.5167,51.5,100.0,1685527295.0
34,Aksu,85.75,12.0,4.05,1529660.0,CN,80.2644,41.1231,100.0,1685527297.0
35,Arrondissement d'Ajaccio,66.18,73.0,8.05,3038333.0,FR,8.9167,42.0,75.0,1685527300.0
36,Cabedelo,75.87,84.0,8.88,3404558.0,BR,-34.8339,-6.9811,81.0,1685527302.0
37,Dikson,32.14,97.0,7.67,1507390.0,RU,80.5464,73.5069,100.0,1685527304.0
38,Hobart,52.9,93.0,6.91,2163355.0,AU,147.3294,-42.8794,75.0,1685527229.0
39,Vestmannaeyjar,47.39,81.0,16.11,3412093.0,IS,-20.2734,63.4427,75.0,1685527308.0
40,Alofi,66.09,100.0,1.14,4036284.0,NU,-169.9187,-19.0595,91.0,1685527279.0
41,Carnarvon,72.9,61.0,10.87,2074865.0,AU,113.6333,-24.8667,0.0,1685527312.0
42,Saint-Philippe,80.19,78.0,9.17,935215.0,RE,55.7679,-21.3585,41.0,1685527314.0
43,Cabra,69.62,51.0,5.61,2520645.0,ES,-4.4421,37.4725,2.0,1685527317.0
44,Feldbach,66.78,93.0,2.51,2779685.0,AT,15.8883,46.9531,100.0,1685527319.0
45,Tual,81.66,83.0,20.78,1623197.0,ID,132.75,-5.6667,33.0,1685527321.0
46,Longyearbyen,33.64,93.0,3.44,2729907.0,SJ,15.6401,78.2186,75.0,1685527299.0
47,Dukat,52.68,57.0,4.92,2125906.0,RU,155.55,62.55,47.0,1685527325.0
48,Jalu,101.77,11.0,4.99,86049.0,LY,21.5482,29.0331,79.0,1685527327.0
49,Vaini,77.16,88.0,10.36,4032243.0,TO,-175.2,-21.2,75.0,1685527330.0
50,Albany,50.09,74.0,1.99,5106841.0,US,-73.9662,42.6001,5.0,1685527230.0
51,Karaton,82.4,71.0,2.08,1630058.0,ID,106.1045,-6.3424,63.0,1685527334.0
52,Saldanha,60.85,84.0,4.72,3361934.0,ZA,17.9442,-33.0117,70.0,1685527336.0
53,Castro,54.82,97.0,3.71,3466704.0,BR,-50.0119,-24.7911,100.0,1685527249.0
54,Inhambane,82.0,58.0,11.99,1045114.0,MZ,35.3833,-23.865,40.0,1685527340.0
55,Mataura,48.38,84.0,4.38,6201424.0,NZ,168.8643,-46.1927,63.0,1685527343.0
56,Puerto Ayora,78.55,97.0,5.01,3652764.0,EC,-90.3518,-0.7393,100.0,1685527345.0
57,Arraial do Cabo,67.86,100.0,9.22,3471451.0,BR,-42.0278,-22.9661,100.0,1685527347.0
58,Obihiro,65.61,63.0,8.3,2128815.0,JP,143.2044,42.9172,10.0,1685527349.0
59,Penzance,56.43,71.0,11.5,2640377.0,GB,-5.5371,50.1186,75.0,1685527351.0
60,Butaritari,83.79,71.0,5.53,2110227.0,KI,172.7902,3.0707,24.0,1685527354.0
61,Rikitea,77.05,86.0,26.37,4030556.0,PF,-134.9692,-23.1203,100.0,1685527356.0
62,Namatanai,80.85,84.0,8.75,2090021.0,PG,152.4333,-3.6667,64.0,1685527358.0
63,Isangel,74.53,73.0,12.33,2136825.0,VU,169.2667,-19.55,99.0,1685527360.0
64,Saint George,65.07,23.0,3.44,5546220.0,US,-113.5841,37.1041,0.0,1685527232.0
65,Kruisfontein,63.88,78.0,7.58,986717.0,ZA,24.7314,-34.0033,97.0,1685527364.0
66,Mwinilunga,82.69,33.0,4.81,902620.0,ZM,24.4293,-11.7358,82.0,1685527366.0
67,Port Alfred,67.17,71.0,5.99,964432.0,ZA,26.891,-33.5906,59.0,1685527369.0
68,Marzuq,90.77,28.0,9.06,72181.0,YE,46.4667,14.4,35.0,1685527371.0
69,Puerto Escondido,82.26,79.0,7.27,3520994.0,MX,-97.0667,15.85,75.0,1685527373.0
70,Sivaki,55.9,66.0,2.86,2016477.0,RU,126.75,52.6333,90.0,1685527375.0
71,Yellowknife,50.52,57.0,6.91,6185377.0,CA,-114.3525,62.456,40.0,1685527248.0
72,Canchungo,78.93,67.0,7.7,2373951.0,GW,-16.0333,12.0672,100.0,1685527379.0
73,Östersund,45.05,36.0,34.0,2685750.0,SE,14.6357,63.1792,40.0,1685527381.0
74,Fort Nelson,43.95,65.0,3.44,5955902.0,CA,-122.7002,58.8053,40.0,1685527383.0
75,Castelo Branco,68.22,59.0,1.01,2269514.0,PT,-7.4909,39.8222,24.0,1685527386.0
76,Black River,77.63,90.0,4.81,3491355.0,JM,-77.8487,18.0264,100.0,1685527388.0
77,Atuona,80.55,78.0,13.73,4020109.0,PF,-139.0333,-9.8,40.0,1685527275.0
78,Birao,98.42,31.0,2.95,240210.0,CF,22.7882,10.2849,13.0,1685527392.0
79,Ekhabi,34.57,97.0,8.66,2122614.0,RU,142.9671,53.5102,100.0,1685527394.0
80,Barrow,32.02,93.0,6.91,5880054.0,US,-156.7887,71.2906,100.0,1685527397.0
81,Hilo,68.88,93.0,7.0,5855927.0,US,-155.09,19.7297,100.0,1685527357.0
82,Mehamn,42.75,87.0,6.91,778707.0,NO,27.8492,71.0357,75.0,1685527401.0
83,Shingū,66.36,79.0,1.21,1847947.0,JP,135.9833,33.7333,84.0,1685527403.0
84,George Town,91.35,62.0,8.05,1735106.0,MY,100.3354,5.4112,20.0,1685527126.0
85,Russell,63.79,100.0,0.0,4047434.0,US,-85.1999,32.3502,0.0,1685527407.0
86,Sidhi,105.22,14.0,11.56,1256369.0,IN,81.8833,24.4167,33.0,1685527410.0
87,Laramie,44.15,72.0,13.8,5830062.0,US,-105.5911,41.3114,0.0,1685527327.0
88,Bluff,53.01,80.0,11.56,2206939.0,NZ,168.3333,-46.6,97.0,1685527414.0
89,Bayir,73.92,50.0,5.82,304183.0,TR,28.2167,37.2687,12.0,1685527416.0
90,Vila Velha,67.95,95.0,1.14,3445026.0,BR,-40.2925,-20.3297,100.0,1685527265.0
91,Kapaa,71.11,89.0,11.88,5848280.0,US,-159.319,22.0752,8.0,1685527420.0
92,Margate,56.21,77.0,11.01,2643044.0,GB,1.3862,51.3813,42.0,1685527188.0
93,Kamaishi,57.52,76.0,8.03,2112444.0,JP,141.8833,39.2667,72.0,1685527368.0
94,Stăncuţa,78.46,35.0,12.77,666309.0,RO,27.8333,44.9,8.0,1685527426.0
95,Ankang,72.45,94.0,4.07,1789065.0,CN,109.0172,32.68,100.0,1685527429.0
96,Port Elizabeth,67.8,60.0,10.36,964420.0,ZA,25.5701,-33.918,0.0,1685527216.0
97,Morant Bay,80.22,85.0,6.91,3489440.0,JM,-76.4093,17.8815,100.0,1685527433.0
98,São Miguel,75.97,87.0,11.59,3388304.0,BR,-35.3667,-5.4667,66.0,1685527435.0
99,Guerrero Negro,58.12,80.0,17.49,4021858.0,MX,-114.0611,27.9769,12.0,1685527338.0
100,Husavik,49.48,62.0,1.63,2629833.0,IS,-17.3389,66.0449,7.0,1685527297.0
101,Ahipara,56.44,81.0,6.69,2194098.0,NZ,173.1667,-35.1667,22.0,1685527441.0
102,Saint Paul Harbor,42.31,81.0,5.75,5866583.0,US,-152.4072,57.79,100.0,1685527443.0
103,Mahébourg,80.89,61.0,9.22,934322.0,MU,57.7,-20.4081,40.0,1685527267.0
104,Mount Isa,55.17,44.0,0.0,2065594.0,AU,139.5,-20.7333,0.0,1685527262.0
105,Te Anau,51.22,94.0,4.61,2181625.0,NZ,167.7167,-45.4167,100.0,1685527450.0
106,Alenquer,72.66,96.0,3.36,3407980.0,BR,-54.7383,-1.9417,16.0,1685527279.0
107,São Miguel do Araguaia,72.66,64.0,1.48,3448455.0,BR,-50.1628,-13.275,87.0,1685527454.0
108,Kriel,62.82,54.0,15.95,987202.0,ZA,29.2253,-26.2739,75.0,1685527456.0
109,Marsh Harbour,79.38,77.0,7.14,3571913.0,BS,-77.0636,26.5412,100.0,1685527458.0
110,Souillac,80.98,61.0,9.22,933995.0,MU,57.5167,-20.5167,40.0,1685527460.0
111,Tigil',52.95,58.0,17.6,2120612.0,RU,158.6667,57.8,100.0,1685527463.0
112,Kaeo,48.33,92.0,4.61,2189343.0,NZ,173.7833,-35.1,15.0,1685527465.0
113,Cape Town,58.84,89.0,5.75,3369157.0,ZA,18.4232,-33.9258,100.0,1685527245.0
114,Cidreira,60.06,81.0,4.7,3466165.0,BR,-50.2056,-30.1811,42.0,1685527319.0
115,Khatanga,50.79,50.0,11.68,2022572.0,RU,102.5,71.9667,72.0,1685527471.0
116,Karlshamn,73.89,40.0,15.5,2701727.0,SE,14.8619,56.1706,17.0,1685527473.0
117,Pevek,30.88,85.0,5.57,2122090.0,RU,170.3133,69.7008,99.0,1685527475.0
118,Mar del Plata,54.18,91.0,4.61,3430863.0,AR,-57.5575,-38.0023,0.0,1685527477.0
119,Gobabis,66.22,18.0,2.62,3357247.0,NA,18.9667,-22.45,3.0,1685527480.0
120,Gaoyou,79.93,63.0,6.4,1810309.0,CN,119.4278,32.7858,67.0,1685527482.0
121,Bethel,43.18,90.0,0.0,5282297.0,US,-73.414,41.3712,20.0,1685527484.0
122,Santa Maria da Vitória,69.13,72.0,4.14,3450063.0,BR,-44.1886,-13.3947,20.0,1685527486.0
123,Banda Aceh,84.27,68.0,14.45,1215502.0,ID,95.3222,5.5577,100.0,1685527488.0
124,Georgiyevka,86.04,20.0,6.71,1524243.0,KZ,74.7114,43.0369,0.0,1685527490.0
125,Zonguldak,70.65,59.0,5.86,737021.0,TR,31.8333,41.25,69.0,1685527492.0
126,Booué,86.85,64.0,0.49,2401495.0,GA,11.9385,-0.0921,91.0,1685527494.0
127,Siyabuswa,72.32,47.0,12.82,955313.0,ZA,29.0445,-25.1132,29.0,1685527496.0
128,Dunedin,49.82,79.0,5.99,2191562.0,NZ,170.5036,-45.8742,87.0,1685527499.0
129,Roald,49.05,93.0,9.22,3141667.0,NO,6.1333,62.5833,75.0,1685527501.0
130,Tweed,55.22,82.0,1.61,6170799.0,CA,-77.3162,44.4751,0.0,1685527503.0
131,Nanortalik,39.52,99.0,14.97,3421765.0,GL,-45.2371,60.1432,100.0,1685527506.0
132,Port Blair,89.64,66.0,11.5,1259385.0,IN,92.75,11.6667,40.0,1685527508.0
133,Lubango,74.57,30.0,6.98,3347762.0,AO,13.4925,-14.9172,2.0,1685527510.0
134,Shumskiy,61.27,55.0,5.77,1491977.0,RU,99.1328,54.8318,100.0,1685527512.0
135,San Cristobal,66.38,99.0,4.25,3628473.0,VE,-72.225,7.7669,100.0,1685527514.0
136,Nioro,85.84,54.0,8.88,2412408.0,GM,-15.75,13.35,100.0,1685527517.0
137,Thompson,46.56,100.0,9.22,6165406.0,CA,-97.8558,55.7435,100.0,1685527310.0
138,Manaus,77.49,88.0,2.3,3663517.0,BR,-60.025,-3.1019,0.0,1685527521.0
139,Laguna,54.7,84.0,9.22,5364271.0,US,-121.4238,38.421,100.0,1685527523.0
140,Hermanus,60.8,82.0,3.98,3366880.0,ZA,19.2345,-34.4187,90.0,1685527525.0
141,Westport,46.87,92.0,5.75,4845585.0,US,-73.3579,41.1415,0.0,1685527527.0
142,Dicabisagan,87.01,65.0,5.97,1715015.0,PH,122.4157,17.0818,100.0,1685527529.0
143,Newport,55.98,77.0,19.24,2641598.0,GB,-2.9984,51.5877,100.0,1685527532.0
144,Tateyama,63.81,86.0,7.43,1850523.0,JP,139.8667,34.9833,100.0,1685527476.0
145,Kuznechikha,69.08,51.0,3.94,537760.0,RU,42.3348,57.2161,25.0,1685527536.0
146,Poum,74.93,68.0,17.16,2138555.0,NC,164.0167,-20.2333,87.0,1685527538.0
147,Chokurdakh,30.49,71.0,8.1,2126123.0,RU,147.9167,70.6333,9.0,1685527540.0
148,Coquimbo,53.33,93.0,6.91,3893629.0,CL,-71.3436,-29.9533,0.0,1685527346.0
149,Ust-Nera,61.79,38.0,7.61,2120048.0,RU,143.2,64.5667,22.0,1685527544.0
150,Kavaratti,85.89,68.0,5.17,1267390.0,IN,72.642,10.5669,100.0,1685527546.0
151,Eruwa,88.12,59.0,5.37,2338669.0,NG,3.4167,7.5333,88.0,1685527548.0
152,Polyarny,43.83,86.0,11.1,506763.0,RU,33.4478,69.1989,100.0,1685527551.0
153,Ribeira Grande,68.4,73.0,14.97,3372707.0,PT,-28.7,38.5167,20.0,1685527553.0
154,Kalemie,80.69,52.0,13.06,214974.0,CD,29.1947,-5.9475,1.0,1685527555.0
155,Tuktoyaktuk,37.58,82.0,5.08,6170031.0,CA,-133.0374,69.4541,43.0,1685527557.0
156,Tomatlán,70.43,89.0,1.68,3981391.0,MX,-105.25,19.9333,2.0,1685527559.0
157,Bratca,68.59,72.0,1.14,683837.0,RO,22.6167,46.9333,93.0,1685527561.0
158,Chiang Khong,103.91,25.0,5.08,1611197.0,TH,100.4046,20.2613,24.0,1685527563.0
159,Gijang,74.93,73.0,10.29,1842966.0,KR,129.2139,35.2442,11.0,1685527566.0
160,Vao,72.25,67.0,20.33,2137773.0,NC,167.4833,-22.6667,84.0,1685527568.0
161,Marawi,73.47,86.0,7.05,1701054.0,PH,124.2928,7.9986,100.0,1685527570.0
162,Kununurra,67.98,49.0,0.0,2068110.0,AU,128.7333,-15.7667,94.0,1685527514.0
163,Ponta do Sol,68.43,85.0,10.22,2264557.0,PT,-17.1,32.6667,59.0,1685527575.0
164,Vanimo,80.56,84.0,2.39,2084442.0,PG,141.3028,-2.6741,94.0,1685527577.0
165,Kenai,41.99,91.0,8.05,5866063.0,US,-151.2583,60.5544,40.0,1685527579.0
166,Tarnogskiy Gorodok,69.24,44.0,5.64,484314.0,RU,43.5761,60.4997,24.0,1685527582.0
167,Tottori-shi,66.27,77.0,20.71,1849892.0,JP,134.2333,35.5,20.0,1685527514.0
168,Baracoa,77.31,87.0,2.75,3567834.0,CU,-74.4958,20.3467,100.0,1685527586.0
169,Krasnyy Kholm,58.96,52.0,7.99,541704.0,RU,37.1203,58.0607,90.0,1685527588.0
170,Nabire,79.52,89.0,2.39,1634614.0,ID,135.4833,-3.3667,100.0,1685527590.0
171,Zaysan,66.43,35.0,14.34,1517060.0,KZ,84.8667,47.4667,1.0,1685527592.0
172,New Norfolk,50.41,82.0,1.99,2155415.0,AU,147.0587,-42.7826,99.0,1685527594.0
173,Muhos,53.38,52.0,11.32,645765.0,FI,25.9931,64.808,87.0,1685527596.0
174,Sabzawār,97.88,12.0,9.22,118063.0,IR,57.6819,36.2126,0.0,1685527599.0
175,Catuday,83.12,80.0,16.53,1717787.0,PH,119.8062,16.2923,100.0,1685527601.0
176,Enshi,82.17,79.0,3.49,1811720.0,CN,109.4833,30.3,79.0,1685527603.0
177,Timiryazevskiy,81.84,19.0,6.49,1489597.0,RU,84.8769,56.49,30.0,1685527605.0
178,Aklavik,43.81,94.0,9.28,5882953.0,CA,-135.0107,68.2191,98.0,1685527607.0
179,Pochutla,74.82,81.0,3.96,3517970.0,MX,-96.4661,15.7432,24.0,1685527609.0
180,Bathsheba,81.21,89.0,8.05,3374083.0,BB,-59.5167,13.2167,40.0,1685527611.0
181,Salalah,91.49,55.0,13.8,286621.0,OM,54.0924,17.0151,0.0,1685527613.0
182,Airai,59.05,90.0,2.84,1651810.0,TL,125.4092,-8.9266,92.0,1685527615.0
183,Fuyang,82.2,49.0,6.42,1810845.0,CN,115.8167,32.9,63.0,1685527541.0
184,Makakilo City,72.59,78.0,8.05,5850554.0,US,-158.0858,21.3469,0.0,1685527620.0
185,Impfondo,73.96,94.0,1.19,2259655.0,CG,18.0667,1.6381,100.0,1685527622.0
186,Anloga,84.85,71.0,11.52,2304548.0,GH,0.8973,5.7947,100.0,1685527624.0
187,Chui,53.94,91.0,3.29,3443061.0,UY,-53.4616,-33.6971,1.0,1685527626.0
188,Nishihara,81.68,83.0,23.02,1855342.0,JP,127.7558,26.1842,75.0,1685527628.0
189,Bariloche,46.15,87.0,17.27,7647007.0,AR,-71.3082,-41.1456,40.0,1685527630.0
190,Kristianstad,69.94,43.0,18.41,2699310.0,SE,14.1524,56.0313,0.0,1685527632.0
191,Cabo San Lucas,69.51,64.0,4.0,3985710.0,MX,-109.9124,22.8909,0.0,1685527533.0
192,Hunchun,63.27,56.0,6.4,2036653.0,CN,130.3581,42.8675,97.0,1685527637.0
193,Aykhal,43.66,45.0,10.96,2027296.0,RU,111.5,66.0,6.0,1685527639.0
194,Nchelenge,78.42,46.0,6.02,175499.0,ZM,28.734,-9.3451,45.0,1685527641.0
195,Hobyo,86.79,67.0,22.77,57000.0,SO,48.5268,5.3505,82.0,1685527583.0
196,Pechenga,44.42,89.0,8.93,511865.0,RU,31.1703,69.5259,100.0,1685527645.0
197,Hambantota,88.14,84.0,14.97,1244926.0,LK,81.1185,6.1241,40.0,1685527581.0
198,Lompoc,54.03,84.0,11.99,5367788.0,US,-120.4579,34.6391,100.0,1685527650.0
199,Hasaki,66.63,69.0,7.2,2112802.0,JP,140.8333,35.7333,88.0,1685527652.0
200,Departamento de Maldonado,51.31,90.0,3.13,3441890.0,UY,-54.9167,-34.6667,31.0,1685527654.0
201,Naze,75.22,91.0,10.56,1855540.0,JP,129.4833,28.3667,72.0,1685527656.0
202,Nikolskoye,61.25,34.0,9.82,546105.0,RU,30.7861,59.7035,76.0,1685527658.0
203,Dul'durga,64.69,30.0,5.66,2024812.0,RU,113.5931,50.6761,100.0,1685527660.0
204,Leh,57.31,31.0,2.06,1264976.0,IN,77.5833,34.1667,100.0,1685527662.0
205,Lata,74.37,52.0,1.12,2738381.0,PT,-8.3327,40.1629,29.0,1685527665.0
206,Tiksi,32.14,76.0,4.27,2015306.0,RU,128.8694,71.6872,52.0,1685527667.0
207,Qaanaaq,13.57,72.0,9.35,3831208.0,GL,-69.3632,77.484,63.0,1685527669.0
208,Ilulissat,37.42,93.0,4.61,3423146.0,GL,-51.1,69.2167,75.0,1685527650.0
209,Saint-Augustin,44.58,84.0,6.24,6137462.0,CA,-58.6502,51.226,100.0,1685527673.0
210,Saskylakh,38.98,79.0,9.86,2017155.0,RU,114.0833,71.9167,100.0,1685527675.0
211,Tessalit,94.48,9.0,11.18,2449893.0,ML,1.0114,20.1986,67.0,1685527677.0
212,Rayong,89.4,61.0,9.08,1607016.0,TH,101.4333,12.8333,81.0,1685527679.0
213,Sur,101.39,38.0,11.21,286245.0,OM,59.5289,22.5667,1.0,1685527513.0
214,Bereket,102.52,6.0,18.07,161974.0,TM,55.5154,39.2446,81.0,1685527684.0
215,Staraya Kulatka,77.7,59.0,15.52,489164.0,RU,47.6167,52.7167,26.0,1685527686.0
216,Roswell,65.5,89.0,10.36,4219934.0,US,-84.3616,34.0232,100.0,1685527598.0
217,Santa Luzia,61.7,96.0,4.97,3450144.0,BR,-43.8514,-19.7697,66.0,1685527603.0
218,São Filipe,75.87,70.0,9.46,3374210.0,CV,-24.4956,14.8961,71.0,1685527692.0
219,San Luis,48.72,70.0,3.74,3837056.0,AR,-66.3356,-33.295,2.0,1685527694.0
220,Fairbanks,46.29,94.0,6.91,5861897.0,US,-147.7164,64.8378,40.0,1685527503.0
221,Sibolga,84.0,69.0,4.05,1213855.0,ID,98.7792,1.7427,85.0,1685527698.0
222,Pahrump,62.8,33.0,1.99,5509851.0,US,-115.9839,36.2083,49.0,1685527701.0
223,Narsaq,43.02,99.0,1.01,3421719.0,GL,-46.05,60.9167,100.0,1685527703.0
224,Hamilton,61.93,91.0,0.0,4513583.0,US,-84.5333,39.1834,0.0,1685527690.0
225,Fortuna,50.7,89.0,5.75,5563839.0,US,-124.1573,40.5982,100.0,1685527707.0
226,Ayan,41.02,98.0,11.59,2027316.0,RU,138.1667,56.45,100.0,1685527709.0
227,El Dorado,49.46,85.0,3.0,5345659.0,US,-120.5177,38.7666,37.0,1685527711.0
228,Leonidovo,43.93,76.0,5.75,2123805.0,RU,142.8667,49.2833,97.0,1685527714.0
229,Chicama,70.34,86.0,3.76,3698359.0,PE,-79.1469,-7.8447,65.0,1685527716.0
230,Umluj,87.3,44.0,11.7,100926.0,SA,37.2685,25.0213,0.0,1685527718.0
231,Acapulco de Juárez,82.22,78.0,5.75,3533462.0,MX,-99.8901,16.8634,20.0,1685527674.0
232,Santa Maria,53.22,93.0,2.21,3450083.0,BR,-53.8069,-29.6842,62.0,1685527722.0
233,Ubinskoye,76.01,29.0,1.68,1488708.0,RU,79.6802,55.3068,5.0,1685527724.0
234,Flinders,64.56,62.0,8.99,6255012.0,AU,150.8552,-34.5833,86.0,1685527726.0
235,Broome,51.78,71.0,3.44,5110365.0,US,-75.833,42.2506,0.0,1685527728.0
236,Mossamedes,75.0,50.0,5.91,3347019.0,AO,12.1522,-15.1961,4.0,1685527730.0
237,Orange Cove,60.19,85.0,6.91,5379533.0,US,-119.3137,36.6244,0.0,1685527673.0
238,Barra Patuca,76.69,84.0,8.1,3614835.0,HN,-84.2833,15.8,100.0,1685527735.0
239,Arlit,101.48,13.0,12.21,2447513.0,NE,7.3853,18.7369,83.0,1685527737.0
240,Chilia Veche,78.22,33.0,12.55,682117.0,RO,29.2833,45.4167,14.0,1685527739.0
241,Conde,76.46,100.0,9.22,3385077.0,BR,-34.9075,-7.2597,40.0,1685527741.0
242,Bulungu,89.98,50.0,2.95,2316259.0,CD,18.6,-4.55,72.0,1685527743.0
243,Baker City,49.75,78.0,0.0,5712169.0,US,-117.8344,44.7749,20.0,1685527637.0
244,Rājākhera,101.26,17.0,11.12,1258930.0,IN,78.1714,26.8961,4.0,1685527747.0
245,Portland,47.14,80.0,0.56,5746545.0,US,-122.6762,45.5234,0.0,1685527674.0
246,Birkeland,65.8,35.0,17.27,3161532.0,NO,8.2323,58.3309,0.0,1685527752.0
247,Dvinskoy Bereznik,62.65,45.0,6.96,577240.0,RU,42.7072,62.8551,95.0,1685527548.0
248,Jalingo,94.42,44.0,7.09,2336589.0,NG,11.3667,8.8833,6.0,1685527756.0
249,Yar-Sale,62.73,50.0,13.58,1486321.0,RU,70.8333,66.8333,87.0,1685527758.0
250,Tafresh,78.51,26.0,9.6,113636.0,IR,50.013,34.692,100.0,1685527760.0
251,Homer,41.95,80.0,4.0,5864145.0,US,-151.5483,59.6425,0.0,1685527762.0
252,Mandalgovi,46.6,70.0,20.04,2030065.0,MN,106.2708,45.7625,69.0,1685527764.0
253,Kibala,93.63,39.0,6.89,2425791.0,TD,18.3463,9.1104,37.0,1685527766.0
254,Ulladulla,59.77,60.0,10.8,2145554.0,AU,150.4667,-35.35,91.0,1685527769.0
255,Sitka,44.49,81.0,6.91,5557293.0,US,-135.33,57.0531,100.0,1685527771.0
256,Leningradskiy,29.86,91.0,7.38,2123814.0,RU,178.4167,69.3833,84.0,1685527773.0
257,Takāb,75.92,25.0,8.7,113508.0,IR,47.1133,36.4009,68.0,1685527775.0
258,Tarancón,64.08,60.0,5.21,3108317.0,ES,-3.0073,40.0085,17.0,1685527777.0
259,Goderich,61.92,75.0,11.59,5962442.0,CA,-81.7165,43.7501,6.0,1685527779.0
260,Rosa Zarate,74.46,97.0,0.29,3652257.0,EC,-79.4667,0.3333,94.0,1685527781.0
261,Luganville,78.26,81.0,9.42,2136150.0,VU,167.1667,-15.5333,90.0,1685527783.0
262,Druzhba,63.77,42.0,13.67,709584.0,UA,33.9453,52.0428,5.0,1685527786.0
263,Valea lui Mihai,76.71,53.0,8.5,663692.0,RO,22.15,47.5167,74.0,1685527656.0
264,Ancud,52.03,93.0,8.39,3899695.0,CL,-73.8203,-41.8697,86.0,1685527724.0
265,Matagami,59.85,65.0,5.48,6067747.0,CA,-77.6328,49.7502,18.0,1685527792.0
266,Peniche,67.05,80.0,6.53,2264923.0,PT,-9.3811,39.3558,4.0,1685527794.0
267,Miraflores,59.41,67.0,1.7,3761194.0,MX,-98.8083,19.2167,54.0,1685527796.0
268,Lebu,53.56,93.0,10.6,3883457.0,CL,-73.65,-37.6167,67.0,1685527798.0
269,Crawley,58.62,77.0,16.11,2652053.0,GB,-0.1831,51.113,75.0,1685527800.0
270,Khonsa,88.12,42.0,4.14,1266668.0,IN,95.5667,27.0167,1.0,1685527803.0
271,Yumen,76.01,9.0,22.44,1528998.0,CN,97.2,40.2833,91.0,1685527805.0
272,Bubaque,82.08,84.0,13.18,2374583.0,GW,-15.8333,11.2833,100.0,1685527807.0
273,Ribas do Rio Pardo,64.4,98.0,1.9,3451399.0,BR,-53.7592,-20.4431,91.0,1685527555.0
274,Malbork,69.04,46.0,4.68,3092472.0,PL,19.0266,54.0359,84.0,1685527812.0
275,Saint-Leu,76.82,86.0,9.37,6690297.0,RE,55.2833,-21.15,6.0,1685527814.0
276,Arkhara,56.17,69.0,8.28,2027487.0,RU,130.0842,49.4212,64.0,1685527816.0
277,Tura,96.19,32.0,5.55,1254046.0,IN,90.2201,25.5198,7.0,1685527818.0
278,Ingham,63.27,79.0,4.61,4997130.0,US,-84.3833,42.6,0.0,1685527820.0
279,Sarandi,59.65,98.0,5.28,3447998.0,BR,-51.8739,-23.4436,100.0,1685527711.0
280,Biak,78.85,85.0,5.93,1637001.0,ID,122.8766,-0.9131,89.0,1685527824.0
281,Nieuw Amsterdam,76.06,91.0,0.0,3383434.0,SR,-55.0833,5.8833,20.0,1685527826.0
282,Boundiali,86.05,59.0,7.83,2290836.0,CI,-6.4869,9.5217,52.0,1685527829.0
283,Aitape,81.05,84.0,2.53,2101169.0,PG,142.3475,-3.1374,65.0,1685527831.0
284,Manadhoo,84.27,76.0,10.8,1337618.0,MV,73.3833,5.7667,95.0,1685527833.0
285,Ca Mau,86.52,64.0,10.74,1586443.0,VN,105.15,9.1769,100.0,1685527624.0
286,San Patricio,71.33,86.0,4.61,4726521.0,US,-97.5169,28.017,0.0,1685527837.0
287,Portree,54.52,78.0,8.61,2640006.0,GB,-6.1942,57.4129,21.0,1685527839.0
288,Srednekolymsk,45.36,50.0,15.28,2121025.0,RU,153.6833,67.45,100.0,1685527841.0
289,Zhangaözen,94.86,7.0,14.58,607610.0,KZ,52.8,43.3,100.0,1685527843.0
290,Mayo,51.21,89.0,4.61,4362001.0,US,-76.5119,38.8876,0.0,1685527846.0
291,Hualmay,67.42,83.0,6.35,3939761.0,PE,-77.6139,-11.0964,47.0,1685527848.0
292,Púchov,71.89,41.0,6.06,3057963.0,SK,18.326,49.1249,2.0,1685527691.0
293,Hong Kong,88.79,81.0,1.01,1819729.0,HK,114.1577,22.2855,40.0,1685527621.0
294,Dzilam González,69.03,92.0,3.24,3529654.0,MX,-88.9333,21.2833,0.0,1685527854.0
295,Sistranda,46.36,80.0,21.97,3139597.0,NO,8.834,63.7256,100.0,1685527856.0
296,Ondjiva,83.1,22.0,4.25,3346821.0,AO,15.7333,-17.0667,0.0,1685527858.0
297,Taguatinga,70.79,59.0,4.68,6319623.0,BR,-46.5711,-12.3857,3.0,1685527860.0
298,Evensk,50.86,77.0,9.26,2125693.0,RU,159.2333,61.95,65.0,1685527864.0
299,Katsuura,64.44,83.0,9.48,2112309.0,JP,140.3,35.1333,100.0,1685527866.0
300,Ambovombe,78.01,51.0,11.48,1079048.0,MG,46.0833,-25.1667,15.0,1685527868.0
301,Pisco,64.45,82.0,8.05,3932145.0,PE,-76.2167,-13.7,100.0,1685527870.0
302,Lala,79.68,86.0,2.64,1707944.0,PH,123.7458,7.9745,100.0,1685527872.0
303,East London,67.14,59.0,12.66,1006984.0,ZA,27.9116,-33.0153,0.0,1685527874.0
304,Nyurba,50.23,65.0,8.34,2018735.0,RU,118.3319,63.2842,99.0,1685527876.0
305,Baykit,70.48,28.0,5.41,1510689.0,RU,96.37,61.67,76.0,1685527879.0
306,Muyezerskiy,42.82,93.0,12.82,524100.0,RU,31.65,63.9333,100.0,1685527881.0
307,Umarkot,102.92,26.0,22.21,1162959.0,PK,69.7362,25.3616,0.0,1685527883.0
308,Paamiut,38.26,89.0,30.2,3421193.0,GL,-49.6678,61.994,100.0,1685527885.0
309,Gberia Fotombu,78.19,83.0,5.82,2409019.0,SL,-11.1667,9.8833,97.0,1685527887.0
310,Auki,78.06,88.0,5.39,2109701.0,SB,160.7034,-8.7676,46.0,1685527889.0
311,Timmins,58.41,68.0,5.12,6166739.0,CA,-81.3331,48.4669,16.0,1685527891.0
312,Pachino,70.54,67.0,11.16,6539213.0,IT,15.0907,36.7186,26.0,1685527894.0
313,Arrondissement d'Arcachon,73.47,60.0,4.61,6621469.0,FR,-1.0519,44.5875,0.0,1685527896.0
314,Avera,66.52,97.0,7.52,4231997.0,US,-82.5271,33.194,71.0,1685527898.0
315,Bonthe,83.7,75.0,6.38,2409914.0,SL,-12.505,7.5264,100.0,1685527900.0
316,Songjianghe,66.54,41.0,10.16,2034691.0,CN,127.479,42.1859,98.0,1685527902.0
317,Salisbury,58.77,70.0,16.11,2638664.0,GB,-1.7957,51.0693,75.0,1685527904.0
318,Xi'an,62.94,94.0,9.48,1790630.0,CN,108.9286,34.2583,100.0,1685527624.0
319,Touros,76.78,87.0,11.01,3386213.0,BR,-35.4608,-5.1989,56.0,1685527908.0
320,Boda,87.13,51.0,6.02,2388614.0,CF,17.4695,4.3189,62.0,1685527910.0
321,Mayumba,79.21,80.0,8.16,2399001.0,GA,10.6554,-3.432,70.0,1685527912.0
322,Chul'man,54.99,58.0,10.04,2025261.0,RU,124.9104,56.8479,97.0,1685527915.0
323,Tambacounda,91.45,55.0,6.91,2244991.0,SN,-13.7586,13.7539,0.0,1685527917.0
324,Bushehr,91.49,55.0,18.41,139817.0,IR,50.8385,28.9684,52.0,1685527919.0
325,Port Hardy,46.4,87.0,4.29,6111862.0,CA,-127.4199,50.6996,15.0,1685527921.0
326,Shashi,85.24,54.0,7.23,1795816.0,CN,112.2447,30.3072,2.0,1685527923.0
327,Grand-Lahou,84.0,71.0,5.06,2288105.0,CI,-5.0242,5.1367,100.0,1685527925.0
328,State College,48.0,82.0,3.44,5213681.0,US,-77.86,40.7934,40.0,1685527914.0
329,Teguise,66.42,78.0,9.22,2510573.0,ES,-13.564,29.0605,40.0,1685527929.0
330,Magdagachi,57.2,64.0,5.48,2020591.0,RU,125.8,53.45,60.0,1685527932.0
331,Gaozhou,92.62,63.0,7.05,1810295.0,CN,110.8461,21.9392,47.0,1685527934.0
332,Meulaboh,82.62,77.0,4.7,1214488.0,ID,96.1285,4.1363,100.0,1685527936.0
333,Río Gallegos,43.74,81.0,7.81,3838859.0,AR,-69.2181,-51.6226,100.0,1685527883.0
334,Chaihe,64.81,52.0,3.02,2038198.0,CN,129.7,44.7667,100.0,1685527940.0
335,Nikel,48.38,88.0,8.99,522260.0,RU,30.222,69.4128,100.0,1685527942.0
336,Beringovskiy,47.28,58.0,10.18,2126710.0,RU,179.3167,63.05,3.0,1685527944.0
337,Coyhaique,48.15,87.0,6.91,3894426.0,CL,-72.0662,-45.5752,100.0,1685527947.0
338,Vardø,44.58,87.0,6.91,777019.0,NO,31.1107,70.3705,75.0,1685527949.0
339,Talnakh,51.53,79.0,12.46,1490256.0,RU,88.3972,69.4865,90.0,1685527951.0
340,Faya,68.52,49.0,2.39,110690.0,SA,42.4509,18.3851,83.0,1685527953.0
341,Znamenskoye,79.68,37.0,4.27,1485020.0,RU,73.8282,57.1281,63.0,1685527956.0
342,Manavgat,72.09,69.0,8.72,304854.0,TR,31.4431,36.7867,5.0,1685527958.0
343,Cairns,72.7,81.0,11.5,2172797.0,AU,145.7667,-16.9167,100.0,1685527960.0
344,Klaksvík,49.12,78.0,12.93,2618795.0,FO,-6.589,62.2266,46.0,1685527963.0
345,Fonte Boa,72.48,96.0,2.35,6319315.0,BR,-66.2662,-2.4959,100.0,1685527965.0
346,Piaçabuçu,77.4,85.0,6.91,3454005.0,BR,-36.4344,-10.4056,32.0,1685527967.0
347,Havøysund,41.23,93.0,6.58,779622.0,NO,24.6622,70.9963,100.0,1685527969.0
348,Boden,57.2,31.0,14.14,606531.0,SE,21.6886,65.8252,61.0,1685527971.0
349,Nhulunbuy,77.61,83.0,8.05,2064735.0,AU,136.7667,-12.2333,100.0,1685527973.0
350,Kamenka,57.25,94.0,8.28,553766.0,RU,42.7678,51.3223,100.0,1685527975.0
351,Kazachinskoye,56.79,84.0,6.31,1504075.0,RU,93.2761,57.6953,94.0,1685527977.0
352,Geraldton,63.01,94.0,6.91,2070998.0,AU,114.6,-28.7667,100.0,1685527979.0
353,Maxixe,82.22,57.0,11.5,1039536.0,MZ,35.3472,-23.8597,40.0,1685527982.0
354,Leon Valley,67.1,90.0,0.0,4705923.0,US,-98.6186,29.4952,0.0,1685527984.0
355,Nome,35.67,75.0,12.66,5870133.0,US,-165.4064,64.5011,0.0,1685527986.0
356,Manokwari,81.37,82.0,3.96,1636308.0,ID,134.0833,-0.8667,69.0,1685527988.0
357,Grand-Santi,71.51,99.0,1.95,3381538.0,GF,-54.3833,4.25,94.0,1685527990.0
358,Faanui,78.06,78.0,21.32,4034551.0,PF,-151.75,-16.4833,96.0,1685527992.0
359,Clyde River,25.03,80.0,17.27,5924351.0,CA,-68.5914,70.4692,100.0,1685527994.0
360,Kosa,61.2,94.0,6.06,544318.0,RU,54.9977,59.9445,100.0,1685527996.0
361,Blackwater,60.31,38.0,6.17,2175403.0,AU,148.8833,-23.5833,86.0,1685527999.0
362,Assiniboia,55.22,82.0,8.05,5887798.0,CA,-105.9845,49.6334,33.0,1685528001.0
363,Bambous Virieux,79.05,61.0,6.91,1106677.0,MU,57.7575,-20.3428,40.0,1685528003.0
364,Arona,67.87,75.0,5.75,2521582.0,ES,-16.681,28.0996,20.0,1685528005.0
365,Belyy Yar,64.29,45.0,0.0,1510377.0,RU,91.3903,53.6039,0.0,1685528007.0
366,San Miguel,73.69,91.0,1.86,3583446.0,SV,-88.1833,13.4833,48.0,1685527765.0
367,Maniitsoq,38.03,90.0,27.65,3421982.0,GL,-52.9,65.4167,100.0,1685528011.0
368,Freeport,50.7,87.0,5.75,5117949.0,US,-73.5832,40.6576,100.0,1685527980.0
369,Constitución,55.49,77.0,2.39,3893726.0,CL,-72.4167,-35.3333,94.0,1685528016.0
370,Tarakan,90.9,66.0,5.75,1624725.0,ID,117.6333,3.3,20.0,1685528018.0
371,Nirmal,105.91,14.0,7.31,1261288.0,IN,78.35,19.1,84.0,1685528020.0
372,Zmeinogorsk,70.41,36.0,11.63,1485042.0,RU,82.195,51.1567,29.0,1685528022.0
373,Valparaíso,57.99,64.0,4.61,3868626.0,CL,-71.6273,-33.0393,3.0,1685527797.0
374,Caravelas,73.98,77.0,5.01,3466980.0,BR,-39.2481,-17.7125,54.0,1685528026.0
375,Torbay,44.91,80.0,6.91,6167817.0,CA,-52.7314,47.6666,100.0,1685528028.0
376,Le Port,77.07,88.0,3.74,935616.0,RE,55.2919,-20.9373,7.0,1685528030.0
377,Kumul,78.98,8.0,12.75,1529484.0,CN,93.45,42.8,0.0,1685528033.0
378,Inverell,48.11,84.0,2.77,2162662.0,AU,151.1167,-29.7833,100.0,1685528035.0
379,Tortolì,69.62,68.0,16.11,2522890.0,IT,9.6572,39.9256,40.0,1685528037.0
380,Beipiao,79.86,28.0,23.64,2038342.0,CN,120.7792,41.7919,100.0,1685527984.0
381,Novo Aripuanã,72.77,98.0,1.45,3663142.0,BR,-60.3797,-5.1206,99.0,1685528041.0
382,Akdepe,97.2,5.0,10.29,601551.0,TM,59.3788,42.0551,51.0,1685528043.0
383,Pangnirtung,32.68,95.0,2.3,6096551.0,CA,-65.7125,66.1451,100.0,1685528045.0
384,Komatipoort,82.29,39.0,7.83,988290.0,ZA,31.9548,-25.4332,7.0,1685528047.0
385,Kailua,73.76,88.0,1.01,5847486.0,US,-157.7394,21.4022,34.0,1685528049.0
386,Massakory,102.51,25.0,10.0,2428228.0,TD,15.7293,12.996,73.0,1685528052.0
387,Byron Bay,56.71,67.0,12.26,2172880.0,AU,153.6167,-28.65,41.0,1685528054.0
388,Dawson Creek,47.84,53.0,2.3,5935804.0,CA,-120.2362,55.7666,100.0,1685528056.0
389,Port-Gentil,82.36,74.0,11.5,2396518.0,GA,8.7815,-0.7193,75.0,1685528058.0
390,Augusto Corrêa,75.25,95.0,2.66,3406961.0,BR,-46.635,-1.0217,62.0,1685528060.0
391,Araouane,97.32,12.0,13.02,2460954.0,ML,-3.5265,18.9048,100.0,1685528063.0
392,Coahuayana Viejo,77.65,78.0,1.25,4013679.0,MX,-103.6833,18.7333,66.0,1685528065.0
393,Mount Gambier,60.91,76.0,14.74,2156643.0,AU,140.7667,-37.8333,77.0,1685528067.0
394,Swan River,53.49,100.0,1.14,6160362.0,CA,-101.2676,52.1058,2.0,1685528069.0
395,Bima,77.81,83.0,5.3,1648759.0,ID,118.7167,-8.4667,85.0,1685528071.0
396,Cherskiy,35.64,66.0,15.93,2126199.0,RU,161.3,68.75,100.0,1685528073.0
397,Adrar,89.53,14.0,11.25,2381972.0,MR,-10.0711,20.5022,88.0,1685528076.0
398,Egvekinot,31.96,92.0,4.99,4031742.0,RU,-179.1667,66.3167,91.0,1685528078.0
399,Comodoro Rivadavia,57.06,54.0,13.8,3860443.0,AR,-67.5,-45.8667,0.0,1685528080.0
400,Volchikha,78.04,20.0,8.81,1486983.0,RU,80.3833,52.0333,5.0,1685528082.0
401,Paita,73.2,83.0,11.07,3694112.0,PE,-81.1144,-5.0892,41.0,1685528084.0
402,Calama,45.09,21.0,23.02,3897347.0,CL,-68.9333,-22.4667,0.0,1685527964.0
403,Abalak,79.14,24.0,5.06,1512223.0,RU,68.5944,58.1286,68.0,1685528088.0
404,Atar,91.49,16.0,11.61,2381334.0,MR,-13.0499,20.5169,63.0,1685528090.0
405,Venado Tuerto,50.77,82.0,6.44,3833062.0,AR,-61.9688,-33.7456,98.0,1685528092.0
406,Ostrovnoy,54.54,43.0,20.45,556268.0,RU,39.5131,68.0531,96.0,1685528095.0
407,Praia,81.14,47.0,20.71,3374333.0,CV,-23.5087,14.9215,0.0,1685528097.0
408,Campoverde,70.0,99.0,2.57,3733380.0,PE,-74.8058,-8.4753,71.0,1685528099.0
409,Peebles,55.99,79.0,3.0,2640526.0,GB,-3.1888,55.6519,47.0,1685528101.0
410,Ngunguru,53.64,86.0,7.23,2186111.0,NZ,174.5,-35.6167,8.0,1685528103.0
411,Haines Junction,26.55,80.0,0.0,5969025.0,CA,-137.5108,60.7522,16.0,1685528106.0
412,Chernyshevsk,67.35,23.0,9.53,2025458.0,RU,117.0174,52.5243,57.0,1685528108.0
413,Makiyivka,64.99,72.0,7.74,702320.0,UA,37.9258,48.0478,100.0,1685527964.0
414,Petropavlovsk-Kamchatskiy,39.79,100.0,15.66,2122104.0,RU,158.6483,53.0452,100.0,1685528112.0
415,Los Llanos de Aridane,67.12,76.0,3.44,2514651.0,ES,-17.9182,28.6585,20.0,1685528115.0
416,Nuevo Progreso,70.9,80.0,4.65,3522526.0,MX,-97.95,23.1667,0.0,1685528117.0
417,Norsup,77.85,79.0,11.97,2135517.0,VU,167.3833,-16.0667,80.0,1685528119.0
418,Yulara,60.8,35.0,2.33,6355222.0,AU,130.9889,-25.2406,0.0,1685528121.0
419,Hohhot,73.69,16.0,17.9,2036892.0,CN,111.6522,40.8106,0.0,1685528124.0
420,Bowen,69.73,78.0,15.75,2174444.0,AU,148.2333,-20.0167,37.0,1685528126.0
421,Smoky Lake,49.28,93.0,3.44,6150293.0,CA,-112.4686,54.1169,82.0,1685528128.0
422,Angoram,76.95,93.0,2.82,2100765.0,PG,144.0661,-4.0625,70.0,1685528130.0
423,Itarema,76.51,88.0,10.92,3393692.0,BR,-39.9167,-2.9248,18.0,1685528133.0
424,La Asuncion,80.33,89.0,3.44,3480908.0,VE,-63.8628,11.0333,100.0,1685528135.0
425,Berlevåg,44.67,81.0,1.14,780687.0,NO,29.0864,70.8578,75.0,1685528137.0
426,Ambilobe,90.52,42.0,4.52,1082243.0,MG,49.05,-13.2,17.0,1685528139.0
427,Teya,73.98,22.0,3.71,1489656.0,RU,92.6267,60.3778,92.0,1685528141.0
428,Máncora,75.83,78.0,9.22,3695000.0,PE,-81.0475,-4.1078,18.0,1685528143.0
429,Crotone,73.35,73.0,8.05,2524881.0,IT,17.1178,39.0851,40.0,1685528146.0
430,Sechura,73.71,78.0,12.01,3691954.0,PE,-80.8222,-5.5569,53.0,1685528148.0
431,Tarko-Sale,62.24,50.0,16.51,1490085.0,RU,77.785,64.9225,81.0,1685528150.0
432,Yerofey Pavlovich,61.3,45.0,5.99,2012938.0,RU,121.9667,53.9667,72.0,1685528152.0
433,Doha,100.69,35.0,16.11,290030.0,QA,51.5333,25.2867,59.0,1685528020.0
434,Palmer,44.19,75.0,0.0,4946620.0,US,-72.3287,42.1584,0.0,1685527879.0
435,Darhan,57.67,63.0,10.58,2031964.0,MN,105.9228,49.4867,100.0,1685528158.0
436,Rantauprapat,90.45,59.0,0.94,1214073.0,ID,99.8333,2.1,82.0,1685528160.0
437,Arroyo de la Encomienda,67.59,54.0,4.61,3129371.0,ES,-4.7969,41.6096,40.0,1685528162.0
438,Keetmanshoop,56.86,53.0,1.41,3356264.0,NA,18.1333,-26.5833,8.0,1685528165.0
439,Staryy Nadym,68.27,38.0,10.2,1490918.0,RU,72.6842,65.6118,43.0,1685528167.0
440,Beloha,82.69,34.0,11.1,1067565.0,MG,45.05,-25.1667,45.0,1685528169.0
441,Kelvington,58.39,84.0,7.56,5990669.0,CA,-103.5343,52.1667,35.0,1685528171.0
442,Munger,112.23,12.0,13.38,1262482.0,IN,86.4667,25.3833,5.0,1685528173.0
443,Grindavik,45.07,93.0,9.22,3416888.0,IS,-22.4338,63.8424,100.0,1685528175.0
444,Kangaatsiaq,38.75,85.0,34.4,3422683.0,GL,-53.4641,68.3065,100.0,1685528177.0
445,Omsukchan,52.95,60.0,5.99,2122493.0,RU,155.8,62.5333,38.0,1685528180.0
446,Quzhou,81.93,84.0,6.87,1797264.0,CN,118.8686,28.9594,16.0,1685528182.0
447,Neijiang,90.91,61.0,8.14,1799491.0,CN,105.0622,29.5835,65.0,1685528184.0
448,Bonavista,41.14,86.0,11.03,5905393.0,CA,-53.1147,48.6499,53.0,1685528186.0
449,Pauini,70.23,99.0,2.06,3662927.0,BR,-66.9764,-7.7136,46.0,1685528188.0
450,Poso,80.53,83.0,1.25,1630723.0,ID,120.7524,-1.3959,97.0,1685528191.0
451,Hervey Bay,65.89,71.0,10.18,2146219.0,AU,152.8535,-25.2986,2.0,1685528137.0
452,Gambēla,94.6,40.0,2.8,337405.0,ET,34.5833,8.25,11.0,1685528195.0
453,Hede,69.17,87.0,9.42,1808744.0,CN,120.2517,33.7681,76.0,1685528197.0
454,Alice Springs,56.75,30.0,6.91,2077895.0,AU,133.8833,-23.7,0.0,1685528199.0
455,Tazmalt,62.73,77.0,4.65,2477537.0,DZ,4.3989,36.3868,98.0,1685528201.0
456,Mangaratiba,66.63,91.0,4.47,3457991.0,BR,-44.0406,-22.9597,100.0,1685527917.0
457,Porto-Novo,88.14,63.0,8.99,2392087.0,BJ,2.6036,6.4965,82.0,1685528096.0
458,Sabha,92.77,18.0,9.95,2212775.0,LY,14.4283,27.0377,0.0,1685528208.0
459,Salinópolis,79.2,82.0,9.33,3389822.0,BR,-47.3561,-0.6136,15.0,1685528210.0
460,Riyadh,98.74,20.0,12.66,108410.0,SA,46.7219,24.6877,82.0,1685528110.0
461,Jönköping,69.51,45.0,10.36,2702979.0,SE,14.1562,57.7814,0.0,1685528214.0
462,Yatou,68.54,76.0,11.18,1786855.0,CN,122.3833,37.15,96.0,1685528216.0
463,Jaru,69.08,97.0,3.85,3925040.0,BR,-62.4664,-10.4389,17.0,1685528218.0
464,Yashan,92.26,65.0,7.63,1786867.0,CN,109.9419,22.1975,25.0,1685528220.0
465,Bamiantong,64.92,50.0,2.01,2038482.0,CN,130.5333,44.9333,100.0,1685528222.0
466,Boa Vista,76.98,88.0,2.3,3664980.0,BR,-60.6733,2.8197,40.0,1685528183.0
467,Barra do Bugres,65.44,99.0,0.25,3470718.0,BR,-57.1811,-15.0725,81.0,1685528227.0
468,Butembo,74.95,48.0,2.35,217562.0,CD,29.2833,0.15,26.0,1685528229.0
469,Talaya,54.68,60.0,4.03,2120769.0,RU,152.75,61.3833,99.0,1685528231.0
470,Vengurla,89.11,65.0,9.48,1253257.0,IN,73.6333,15.8667,77.0,1685528233.0
471,Maracaçumé,74.14,97.0,1.99,3395497.0,BR,-45.9592,-2.0428,76.0,1685528235.0
472,Nouadhibou,73.38,68.0,20.71,2377457.0,MR,-17.0347,20.931,100.0,1685528237.0
473,La Celia,60.39,98.0,0.74,3679542.0,CO,-76.0167,5.0433,99.0,1685528240.0
474,Lüderitz,68.16,51.0,16.8,3355672.0,NA,15.1594,-26.6481,0.0,1685528242.0
475,Carutapera,77.36,90.0,4.97,3402648.0,BR,-46.02,-1.195,73.0,1685528244.0
476,Yauya,42.44,88.0,2.48,3690733.0,PE,-77.3,-8.9833,10.0,1685528246.0
477,Port Said,72.57,74.0,10.25,358619.0,EG,32.2841,31.2565,0.0,1685528248.0
478,Sambava,80.13,68.0,15.55,1056899.0,MG,50.1667,-14.2667,16.0,1685528250.0
479,Kafanchan,82.38,66.0,6.42,2335713.0,NG,8.3,9.5833,49.0,1685528252.0
480,Neftçala,76.86,66.0,19.39,147425.0,AZ,49.2472,39.3742,100.0,1685528254.0
481,Yhú,57.2,99.0,4.14,3436595.0,PY,-55.9167,-25.05,32.0,1685528257.0
482,Necochea,50.76,81.0,11.63,3430443.0,AR,-58.7368,-38.5473,100.0,1685528259.0
483,Muros,67.96,77.0,1.88,3115824.0,ES,-9.0603,42.7762,88.0,1685528261.0
484,Linxia Chengguanzhen,60.82,62.0,4.65,1803331.0,CN,103.2064,35.6003,98.0,1685528263.0
485,Tripoli,72.75,64.0,7.76,2210247.0,LY,13.1875,32.8752,65.0,1685528265.0
486,Ixtapa,70.65,71.0,2.46,4004293.0,MX,-105.2,20.7,5.0,1685528267.0
487,Santiago del Estero,55.85,90.0,5.03,3835869.0,AR,-64.2615,-27.7951,51.0,1685528269.0
488,Uribia,81.23,79.0,6.22,3666409.0,CO,-72.266,11.7139,100.0,1685528271.0
489,Rome,54.86,83.0,4.61,5134295.0,US,-75.4557,43.2128,0.0,1685528273.0
490,Xuanzhou,73.45,92.0,3.8,1788081.0,CN,118.7553,30.9525,95.0,1685528276.0
491,Arrondissement de Muret,72.28,72.0,1.01,2991152.0,FR,1.25,43.3333,83.0,1685528278.0
492,Orlik,42.84,95.0,6.38,1496073.0,RU,99.825,52.5178,100.0,1685528280.0
493,Toyoake,70.65,72.0,7.43,1856057.0,JP,137.0137,35.0594,4.0,1685528282.0
494,Ibrā’,104.5,20.0,12.95,287832.0,OM,58.5334,22.6906,3.0,1685528284.0
495,Ayagoz,70.9,26.0,18.86,1525988.0,KZ,80.4392,47.9714,0.0,1685528286.0
496,Deputatsky,31.03,81.0,3.51,2028164.0,RU,139.9,69.3,100.0,1685528288.0
497,Moyale,77.7,51.0,11.92,186180.0,KE,39.0584,3.5167,29.0,1685528291.0
498,Gresik,84.11,64.0,5.93,1643776.0,ID,112.6561,-7.1539,72.0,1685528293.0
499,Tsushima,70.99,66.0,6.33,1849539.0,JP,136.7167,35.1667,2.0,1685528295.0
500,Boralday,80.46,29.0,4.47,1526384.0,KZ,76.8594,43.3578,75.0,1685528297.0
501,Mahina,74.97,78.0,23.02,4034307.0,PF,-149.489,-17.5065,100.0,1685528299.0
502,Ust-Maya,62.29,60.0,2.48,2013918.0,RU,134.5333,60.4167,75.0,1685528301.0
503,General Pico,51.13,74.0,6.46,3855075.0,AR,-63.7568,-35.6566,100.0,1685528303.0
504,Labuan,86.36,70.0,3.44,1733782.0,MY,115.2417,5.2767,20.0,1685528306.0
505,Saint Anthony,64.9,80.0,5.75,5044290.0,US,-93.218,45.0205,20.0,1685528308.0
506,Iqaluit,31.69,86.0,12.66,5983720.0,CA,-68.5145,63.7506,100.0,1685528310.0
507,Haapiti,74.71,77.0,20.67,4034438.0,PF,-149.8667,-17.5667,84.0,1685528312.0
508,Sarankhola,98.42,42.0,11.83,1185239.0,BD,89.7897,22.3082,36.0,1685528314.0
509,Odienné,85.08,62.0,4.43,2283016.0,CI,-7.5692,9.51,96.0,1685528316.0
510,Miles City,58.17,82.0,9.22,5666176.0,US,-105.8406,46.4083,0.0,1685528318.0
511,Daru,78.4,85.0,13.87,2098329.0,PG,143.2092,-9.0763,28.0,1685528320.0
512,Umm Kaddadah,97.7,20.0,5.35,364933.0,SD,26.6876,13.6017,7.0,1685528322.0
513,Skegness,54.18,81.0,17.09,2637762.0,GB,0.3363,53.1436,100.0,1685528325.0
514,Saint-François,72.84,43.0,9.22,2980080.0,FR,3.9054,46.4154,0.0,1685528327.0
515,Semey,79.02,17.0,6.71,1519422.0,KZ,80.2275,50.4111,0.0,1685528329.0
516,Esperance,62.47,85.0,13.06,2071860.0,AU,121.9,-33.8667,92.0,1685528283.0
517,Selkirk,56.32,97.0,4.79,6144054.0,CA,-96.8845,50.1436,63.0,1685528333.0
518,Mahajanga,87.12,45.0,6.44,1062663.0,MG,46.3167,-15.7167,0.0,1685528335.0
519,Ruwi,101.89,41.0,8.32,287286.0,OM,58.5507,23.5996,5.0,1685528337.0
520,Pucallpa,70.27,100.0,2.84,3693345.0,PE,-74.5539,-8.3791,64.0,1685528339.0
521,Ginda,59.81,87.0,4.36,1253628.0,IN,78.4932,30.6945,96.0,1685528341.0
522,Hare Bay,42.4,88.0,3.98,5970873.0,CA,-54.0148,48.8499,100.0,1685528344.0
523,Kabalo,93.02,26.0,6.82,215668.0,CD,26.9167,-6.05,1.0,1685528179.0
524,Cockburn Town,81.1,83.0,18.5,3576994.0,TC,-71.1419,21.4612,100.0,1685528348.0
525,Kolomyia,67.3,64.0,6.71,705392.0,UA,25.0403,48.5306,8.0,1685528350.0
526,Odawara,61.9,85.0,5.06,1854747.0,JP,139.1597,35.2556,98.0,1685528352.0
527,Santa Cruz de la Sierra,62.65,94.0,4.61,3904906.0,BO,-63.1667,-17.8,75.0,1685528075.0
528,Derzhavīnsk,90.23,21.0,13.18,1524606.0,KZ,66.3167,51.1,37.0,1685528357.0
529,Raduzhny,71.2,38.0,9.48,1540356.0,RU,77.475,62.0961,94.0,1685528359.0
530,Gulariyā,106.32,14.0,12.3,1283368.0,NP,81.3333,28.2333,0.0,1685528361.0
531,Oudtshoorn,53.96,55.0,6.46,967106.0,ZA,22.2014,-33.5907,80.0,1685528364.0
532,Ruteng,64.51,91.0,1.74,1629380.0,ID,120.4721,-8.6136,99.0,1685528366.0
533,Sokolac,63.57,85.0,2.93,3190385.0,BA,18.8017,43.9397,98.0,1685528368.0
534,Jieshi,81.82,83.0,3.76,1805857.0,CN,115.8257,22.8134,100.0,1685528370.0
535,Porto Velho,75.25,88.0,3.44,3662762.0,BR,-63.9039,-8.7619,40.0,1685528092.0
536,Olinda,74.93,94.0,4.61,3393536.0,BR,-34.8553,-8.0089,75.0,1685528374.0
537,Vallenar,62.28,37.0,2.75,3868633.0,CL,-70.7581,-28.5708,98.0,1685528376.0
538,Bud,63.84,88.0,5.99,4255151.0,US,-86.1758,39.447,14.0,1685528379.0
539,Dhārchula,77.74,53.0,2.26,1272864.0,IN,80.5333,29.85,84.0,1685528381.0
540,Mabaruma,73.2,99.0,2.44,3377301.0,GY,-59.7833,8.2,99.0,1685528383.0
541,Nemuro,47.75,89.0,11.23,2128975.0,JP,145.575,43.3236,67.0,1685528122.0
542,Caucayá,71.2,99.0,1.74,3671437.0,CO,-74.7819,-0.1934,34.0,1685528387.0
543,Vanderhoof,37.8,62.0,4.36,6173361.0,CA,-124.0198,54.0166,72.0,1685528117.0
544,Maravilha,55.62,96.0,2.57,3457809.0,BR,-53.1725,-26.7608,0.0,1685528391.0
545,Nanlong,83.28,67.0,13.06,1799908.0,CN,106.0631,31.3533,53.0,1685528393.0
546,Seryshevo,47.82,91.0,7.16,2016942.0,RU,128.3786,51.0933,100.0,1685528396.0
547,Les Cayes,78.62,84.0,6.08,3728097.0,HT,-73.75,18.2,100.0,1685528398.0
548,Lagoa,63.37,83.0,14.99,3372964.0,PT,-27.9833,39.05,1.0,1685528400.0
549,Pacifica,52.39,88.0,13.0,5380420.0,US,-122.4869,37.6138,100.0,1685528403.0
550,Northam,54.36,83.0,18.23,2641434.0,GB,-4.2167,51.0333,98.0,1685528405.0
551,Rio Grande,57.24,93.0,7.09,3451138.0,BR,-52.0986,-32.035,3.0,1685528407.0
552,Gejiu,76.84,45.0,4.29,1810240.0,CN,103.1635,23.306,70.0,1685528410.0
553,Opuwo,78.93,19.0,7.18,3354077.0,NA,13.84,-18.0607,0.0,1685528412.0
554,La Ronge,62.85,59.0,2.3,6050066.0,CA,-105.2842,55.1001,75.0,1685528414.0
555,Yazykovo,80.51,47.0,17.96,468483.0,RU,56.1353,55.2199,100.0,1685528416.0
556,Batticaloa,87.3,67.0,13.91,1250161.0,LK,81.6924,7.7102,60.0,1685528418.0
557,Khasan,58.12,77.0,10.98,2039557.0,RU,130.6434,42.4308,86.0,1685528420.0
558,Kattivākkam,93.07,68.0,16.02,1267433.0,IN,80.3167,13.2167,100.0,1685528422.0
559,Arrondissement de Saint-Denis,69.75,56.0,12.66,2980915.0,FR,2.3333,48.9167,0.0,1685528346.0
560,Ende,77.67,90.0,6.46,1644932.0,ID,121.6623,-8.8432,91.0,1685528427.0
561,Harlingen,70.66,98.0,3.89,4696233.0,US,-97.6961,26.1906,0.0,1685528429.0
562,Zhicheng,85.44,56.0,6.06,1784554.0,CN,111.5047,30.2956,4.0,1685528431.0
563,Havelock,65.52,94.0,12.66,4470244.0,US,-76.9013,34.8791,75.0,1685528386.0
564,Madimba,85.21,59.0,12.71,878141.0,TZ,40.3333,-10.4,96.0,1685528435.0
565,Pacific Grove,54.25,85.0,5.99,5380437.0,US,-121.9166,36.6177,100.0,1685528437.0
566,Esim,85.51,69.0,6.31,2303611.0,GH,-2.2405,4.8699,100.0,1685528439.0
567,Gorontalo,79.59,86.0,2.95,1643837.0,ID,123.0595,0.5412,99.0,1685528442.0
568,Vaitape,78.01,78.0,21.23,4033077.0,PF,-151.75,-16.5167,96.0,1685528444.0
569,Ottawa,57.11,82.0,5.75,6094817.0,CA,-75.6981,45.4112,20.0,1685528270.0
570,Petropavl,84.18,23.0,6.71,1520172.0,KZ,69.1628,54.8753,0.0,1685528355.0
571,Bossangoa,92.62,42.0,3.78,2388036.0,CF,17.4552,6.4926,91.0,1685528450.0
572,Lavrentiya,30.51,90.0,3.83,4031637.0,RU,-171.0,65.5833,56.0,1685528452.0
573,Muskegon,64.0,80.0,5.75,5003136.0,US,-86.1334,43.3,20.0,1685528246.0
574,Lālmohan,89.94,64.0,13.2,1185251.0,BD,90.7419,22.3384,34.0,1685528456.0
575,Gainesville,69.26,81.0,4.03,4156404.0,US,-82.3248,29.6516,100.0,1685528459.0
