,City,Temp_max,Humidity,wind_speed,city_id,country_code,long,lat,Cloudiness,datetime
0,Flin Flon,72.32,49.0,9.78,5954718.0,CA,-101.865,54.7682,0.0,1685581202.0
1,Severo-Kuril'sk,38.64,91.0,3.04,2121385.0,RU,156.125,50.6789,92.0,1685581205.0
2,Codrington,55.29,52.0,6.2,2171099.0,AU,141.9667,-38.2667,97.0,1685581208.0
3,Bredasdorp,58.86,93.0,6.02,1015776.0,ZA,20.0403,-34.5322,100.0,1685581218.0
4,Kindersley,86.02,19.0,14.97,5992154.0,CA,-109.1682,51.4668,75.0,1685581223.0
5,Kavieng,83.44,75.0,8.21,2094342.0,PG,150.7967,-2.5744,100.0,1685581230.0
6,Brae,46.94,73.0,16.4,2654970.0,GB,-1.353,60.3964,100.0,1685581232.0
7,Hithadhoo,80.83,74.0,5.79,1282256.0,MV,73.0833,-0.6,100.0,1685581235.0
8,Ponta Delgada,63.32,88.0,4.61,3372783.0,PT,-25.6667,37.7333,20.0,1685581237.0
9,Kaitangata,60.17,65.0,3.94,2208248.0,NZ,169.8464,-46.2817,100.0,1685581239.0
10,Neiafu,81.28,69.0,8.05,4032420.0,TO,-173.9833,-18.65,75.0,1685581241.0
11,Busselton,59.43,72.0,15.14,2075265.0,AU,115.3333,-33.65,73.0,1685581243.0
12,Kudahuvadhoo,83.12,74.0,19.06,1337607.0,MV,72.8944,2.6708,100.0,1685581245.0
13,Port Macquarie,72.9,45.0,0.81,2152659.0,AU,152.9167,-31.4333,29.0,1685581105.0
14,Jamestown,76.17,46.0,8.05,5122534.0,US,-79.2353,42.097,0.0,1685581009.0
15,Nantucket,56.39,92.0,8.88,4944903.0,US,-70.0995,41.2835,0.0,1685581252.0
16,São João da Barra,71.69,96.0,3.22,3448903.0,BR,-41.0511,-21.6403,100.0,1685581254.0
17,Castlebar,55.58,94.0,3.38,2965654.0,IE,-9.3,53.85,19.0,1685581242.0
18,Katobu,80.74,83.0,5.3,1640972.0,ID,122.5276,-4.9408,100.0,1685581258.0
19,Port Lincoln,62.1,75.0,6.46,2063036.0,AU,135.8667,-34.7333,100.0,1685581260.0
20,Padampur,70.45,76.0,4.34,1260938.0,IN,73.6167,29.6833,100.0,1685581263.0
21,Cayenne,77.04,88.0,4.61,3382160.0,GF,-52.3333,4.9333,75.0,1685581265.0
22,Norman Wells,60.84,39.0,5.75,6089245.0,CA,-126.8329,65.282,75.0,1685581267.0
23,Upernavik,32.34,99.0,1.48,3418910.0,GL,-56.1549,72.7868,100.0,1685581270.0
24,Ushuaia,49.66,53.0,9.22,3833367.0,AR,-68.3,-54.8,0.0,1685581272.0
25,Tasiilaq,37.56,100.0,1.61,3424607.0,GL,-37.6368,65.6145,100.0,1685581274.0
26,Thunder Bay,62.51,59.0,10.36,6166142.0,CA,-89.3168,48.4001,75.0,1685581076.0
27,Provideniya,32.11,93.0,11.18,4031574.0,RU,-173.3,64.3833,100.0,1685581278.0
28,Cap Malheureux,75.87,61.0,12.12,934649.0,MU,57.6142,-19.9842,50.0,1685581280.0
29,West Wendover,74.41,22.0,26.46,5710035.0,US,-114.0733,40.7391,0.0,1685581283.0
30,Tautira,75.79,65.0,14.72,4033557.0,PF,-149.15,-17.7333,19.0,1685581281.0
31,Avarua,73.45,60.0,4.61,4035715.0,CK,-159.775,-21.2078,75.0,1685581287.0
32,Punta Arenas,42.12,75.0,9.91,3874787.0,CL,-70.9167,-53.15,14.0,1685581289.0
33,Ozernovskiy,37.02,98.0,5.44,2122293.0,RU,156.5167,51.5,100.0,1685581291.0
34,Aksu,72.41,17.0,5.61,1529660.0,CN,80.2644,41.1231,100.0,1685581293.0
35,Arrondissement d'Ajaccio,55.38,94.0,4.61,3038333.0,FR,8.9167,42.0,0.0,1685581296.0
36,Cabedelo,77.67,86.0,10.51,3404558.0,BR,-34.8339,-6.9811,69.0,1685581299.0
37,Dikson,35.6,92.0,12.15,1507390.0,RU,80.5464,73.5069,100.0,1685581301.0
38,Hobart,50.67,65.0,25.32,2163355.0,AU,147.3294,-42.8794,20.0,1685581128.0
39,Vestmannaeyjar,47.75,95.0,12.91,3412093.0,IS,-20.2734,63.4427,10.0,1685581306.0
40,Alofi,80.49,69.0,4.61,4036284.0,NU,-169.9187,-19.0595,40.0,1685581308.0
41,Carnarvon,70.65,61.0,15.66,2074865.0,AU,113.6333,-24.8667,19.0,1685581310.0
42,Saint-Philippe,67.59,74.0,7.78,935215.0,RE,55.7679,-21.3585,38.0,1685581312.0
43,Cabra,63.97,57.0,2.77,2520645.0,ES,-4.4421,37.4725,59.0,1685581314.0
44,Feldbach,57.97,89.0,3.27,2779685.0,AT,15.8883,46.9531,11.0,1685581316.0
45,Tual,81.54,81.0,17.38,1623197.0,ID,132.75,-5.6667,85.0,1685581318.0
46,Longyearbyen,35.44,64.0,5.75,2729907.0,SJ,15.6401,78.2186,75.0,1685581320.0
47,Dukat,58.59,36.0,9.4,2125906.0,RU,155.55,62.55,100.0,1685581323.0
48,Jalu,77.54,38.0,13.06,86049.0,LY,21.5482,29.0331,98.0,1685581325.0
49,Vaini,75.36,94.0,9.22,4032243.0,TO,-175.2,-21.2,75.0,1685581327.0
50,Albany,68.07,69.0,3.69,5106841.0,US,-73.9662,42.6001,0.0,1685581329.0
51,Karaton,79.52,77.0,0.36,1630058.0,ID,106.1045,-6.3424,98.0,1685581331.0
52,Saldanha,55.45,89.0,4.7,3361934.0,ZA,17.9442,-33.0117,100.0,1685581333.0
53,Castro,53.8,90.0,3.11,3466704.0,BR,-50.0119,-24.7911,4.0,1685581216.0
54,Inhambane,70.93,81.0,8.21,1045114.0,MZ,35.3833,-23.865,4.0,1685581338.0
55,Mataura,60.12,62.0,9.75,6201424.0,NZ,168.8643,-46.1927,45.0,1685581340.0
56,Puerto Ayora,78.55,90.0,5.99,3652764.0,EC,-90.3518,-0.7393,28.0,1685581342.0
57,Arraial do Cabo,70.7,90.0,23.47,3471451.0,BR,-42.0278,-22.9661,100.0,1685581344.0
58,Obihiro,67.41,42.0,2.77,2128815.0,JP,143.2044,42.9172,5.0,1685581347.0
59,Penzance,54.28,90.0,14.16,2640377.0,GB,-5.5371,50.1186,1.0,1685581350.0
60,Butaritari,83.62,75.0,9.15,2110227.0,KI,172.7902,3.0707,99.0,1685581352.0
61,Rikitea,77.74,84.0,30.8,4030556.0,PF,-134.9692,-23.1203,100.0,1685581354.0
62,Namatanai,82.17,80.0,11.63,2090021.0,PG,152.4333,-3.6667,100.0,1685581356.0
63,Isangel,84.31,70.0,6.91,2136825.0,VU,169.2667,-19.55,75.0,1685581358.0
64,Saint George,83.7,15.0,19.57,5546220.0,US,-113.5841,37.1041,0.0,1685581288.0
65,Kruisfontein,52.47,72.0,6.06,986717.0,ZA,24.7314,-34.0033,0.0,1685581363.0
66,Mwinilunga,59.02,65.0,3.24,902620.0,ZM,24.4293,-11.7358,49.0,1685581365.0
67,Port Alfred,58.48,62.0,8.03,964432.0,ZA,26.891,-33.5906,5.0,1685581367.0
68,Marzuq,79.45,47.0,3.78,72181.0,YE,46.4667,14.4,22.0,1685581369.0
69,Puerto Escondido,86.83,66.0,5.75,3520994.0,MX,-97.0667,15.85,75.0,1685581371.0
70,Sivaki,61.99,43.0,7.81,2016477.0,RU,126.75,52.6333,31.0,1685581373.0
71,Yellowknife,70.32,30.0,16.11,6185377.0,CA,-114.3525,62.456,20.0,1685581276.0
72,Canchungo,80.51,79.0,7.0,2373951.0,GW,-16.0333,12.0672,100.0,1685581378.0
73,Östersund,36.05,41.0,11.5,2685750.0,SE,14.6357,63.1792,100.0,1685581351.0
74,Fort Nelson,60.94,35.0,4.61,5955902.0,CA,-122.7002,58.8053,75.0,1685581358.0
75,Castelo Branco,59.22,91.0,2.37,2269514.0,PT,-7.4909,39.8222,1.0,1685581384.0
76,Black River,79.34,84.0,6.58,3491355.0,JM,-77.8487,18.0264,97.0,1685581386.0
77,Atuona,80.53,75.0,8.39,4020109.0,PF,-139.0333,-9.8,100.0,1685581389.0
78,Birao,77.16,65.0,1.74,240210.0,CF,22.7882,10.2849,7.0,1685581391.0
79,Ekhabi,34.57,97.0,13.15,2122614.0,RU,142.9671,53.5102,100.0,1685581393.0
80,Barrow,26.62,80.0,17.27,5880054.0,US,-156.7887,71.2906,100.0,1685581323.0
81,Hilo,77.9,82.0,9.22,5855927.0,US,-155.09,19.7297,75.0,1685581397.0
82,Mehamn,39.15,65.0,18.41,778707.0,NO,27.8492,71.0357,75.0,1685581399.0
83,Shingū,72.34,82.0,7.7,1847947.0,JP,135.9833,33.7333,83.0,1685581402.0
84,George Town,82.35,83.0,3.44,1735106.0,MY,100.3354,5.4112,20.0,1685581210.0
85,Russell,70.38,83.0,0.0,4047434.0,US,-85.1999,32.3502,0.0,1685581306.0
86,Sidhi,86.16,29.0,1.34,1256369.0,IN,81.8833,24.4167,90.0,1685581408.0
87,Laramie,61.38,41.0,21.85,5830062.0,US,-105.5911,41.3114,75.0,1685581266.0
88,Bluff,59.31,70.0,16.64,2206939.0,NZ,168.3333,-46.6,31.0,1685581413.0
89,Bayir,55.92,84.0,2.28,304183.0,TR,28.2167,37.2687,100.0,1685581415.0
90,Vila Velha,70.95,93.0,3.44,3445026.0,BR,-40.2925,-20.3297,40.0,1685581417.0
91,Kapaa,78.71,80.0,13.8,5848280.0,US,-159.319,22.0752,20.0,1685581419.0
92,Margate,50.92,85.0,10.0,2643044.0,GB,1.3862,51.3813,100.0,1685581421.0
93,Kamaishi,65.21,53.0,11.9,2112444.0,JP,141.8833,39.2667,100.0,1685581423.0
94,Stăncuţa,61.88,64.0,5.7,666309.0,RO,27.8333,44.9,95.0,1685581425.0
95,Ankang,70.03,82.0,1.34,1789065.0,CN,109.0172,32.68,100.0,1685581427.0
96,Port Elizabeth,52.32,99.0,3.44,964420.0,ZA,25.5701,-33.918,0.0,1685581430.0
97,Morant Bay,83.82,85.0,5.1,3489440.0,JM,-76.4093,17.8815,100.0,1685581432.0
98,São Miguel,77.77,88.0,10.07,3388304.0,BR,-35.3667,-5.4667,44.0,1685581434.0
99,Guerrero Negro,63.46,65.0,22.97,4021858.0,MX,-114.0611,27.9769,0.0,1685581436.0
100,Husavik,50.14,65.0,4.52,2629833.0,IS,-17.3389,66.0449,12.0,1685581438.0
101,Ahipara,66.81,82.0,10.22,2194098.0,NZ,173.1667,-35.1667,23.0,1685581440.0
102,Saint Paul Harbor,47.71,76.0,8.05,5866583.0,US,-152.4072,57.79,75.0,1685581442.0
103,Mahébourg,66.49,94.0,5.75,934322.0,MU,57.7,-20.4081,75.0,1685581445.0
104,Mount Isa,74.97,29.0,4.61,2065594.0,AU,139.5,-20.7333,0.0,1685581447.0
105,Te Anau,51.33,95.0,9.04,2181625.0,NZ,167.7167,-45.4167,100.0,1685581449.0
106,Alenquer,76.46,83.0,2.84,3407980.0,BR,-54.7383,-1.9417,8.0,1685581300.0
107,São Miguel do Araguaia,76.78,61.0,1.72,3448455.0,BR,-50.1628,-13.275,91.0,1685581454.0
108,Kriel,38.8,80.0,3.78,987202.0,ZA,29.2253,-26.2739,0.0,1685581456.0
109,Marsh Harbour,78.53,77.0,10.65,3571913.0,BS,-77.0636,26.5412,100.0,1685581458.0
110,Souillac,66.58,94.0,5.75,933995.0,MU,57.5167,-20.5167,75.0,1685581460.0
111,Tigil',54.39,61.0,22.35,2120612.0,RU,158.6667,57.8,100.0,1685581462.0
112,Kaeo,69.33,85.0,8.59,2189343.0,NZ,173.7833,-35.1,98.0,1685581464.0
113,Cape Town,58.39,90.0,8.05,3369157.0,ZA,18.4232,-33.9258,40.0,1685581466.0
114,Cidreira,61.61,80.0,3.67,3466165.0,BR,-50.2056,-30.1811,5.0,1685581474.0
115,Khatanga,53.26,37.0,8.66,2022572.0,RU,102.5,71.9667,90.0,1685581476.0
116,Karlshamn,52.29,95.0,7.07,2701727.0,SE,14.8619,56.1706,9.0,1685581478.0
117,Pevek,30.02,69.0,8.32,2122090.0,RU,170.3133,69.7008,97.0,1685581480.0
118,Mar del Plata,57.6,89.0,9.22,3430863.0,AR,-57.5575,-38.0023,0.0,1685581353.0
119,Gobabis,49.95,30.0,7.76,3357247.0,NA,18.9667,-22.45,100.0,1685581484.0
120,Gaoyou,76.15,70.0,4.56,1810309.0,CN,119.4278,32.7858,15.0,1685581486.0
121,Bethel,60.04,68.0,2.64,5282297.0,US,-73.414,41.3712,0.0,1685581488.0
122,Santa Maria da Vitória,72.59,59.0,1.92,3450063.0,BR,-44.1886,-13.3947,0.0,1685581491.0
123,Banda Aceh,82.26,74.0,12.06,1215502.0,ID,95.3222,5.5577,100.0,1685581493.0
124,Georgiyevka,59.04,51.0,2.24,1524243.0,KZ,74.7114,43.0369,0.0,1685581495.0
125,Zonguldak,48.76,91.0,3.89,737021.0,TR,31.8333,41.25,8.0,1685581497.0
126,Booué,73.24,98.0,2.1,2401495.0,GA,11.9385,-0.0921,92.0,1685581499.0
127,Siyabuswa,53.98,37.0,6.44,955313.0,ZA,29.0445,-25.1132,27.0,1685581501.0
128,Dunedin,61.52,59.0,6.29,2191562.0,NZ,170.5036,-45.8742,100.0,1685581224.0
129,Roald,41.77,81.0,8.05,3141667.0,NO,6.1333,62.5833,75.0,1685581506.0
130,Tweed,70.86,61.0,5.12,6170799.0,CA,-77.3162,44.4751,3.0,1685581508.0
131,Nanortalik,37.24,93.0,4.47,3421765.0,GL,-45.2371,60.1432,23.0,1685581510.0
132,Port Blair,78.84,89.0,1.14,1259385.0,IN,92.75,11.6667,40.0,1685581512.0
133,Lubango,54.59,55.0,3.42,3347762.0,AO,13.4925,-14.9172,0.0,1685581220.0
134,Shumskiy,51.48,90.0,2.86,1491977.0,RU,99.1328,54.8318,100.0,1685581517.0
135,San Cristobal,77.18,97.0,3.33,3628473.0,VE,-72.225,7.7669,100.0,1685581496.0
136,Nioro,80.44,70.0,11.16,2412408.0,GM,-15.75,13.35,100.0,1685581521.0
137,Thompson,62.76,59.0,8.05,6165406.0,CA,-97.8558,55.7435,40.0,1685581523.0
138,Manaus,81.09,78.0,6.91,3663517.0,BR,-60.025,-3.1019,40.0,1685581526.0
139,Laguna,77.49,49.0,10.36,5364271.0,US,-121.4238,38.421,0.0,1685581528.0
140,Hermanus,58.8,88.0,3.02,3366880.0,ZA,19.2345,-34.4187,95.0,1685581530.0
141,Westport,61.97,79.0,0.0,4845585.0,US,-73.3579,41.1415,0.0,1685581303.0
142,Dicabisagan,89.47,59.0,4.25,1715015.0,PH,122.4157,17.0818,99.0,1685581535.0
143,Newport,52.97,84.0,14.67,2641598.0,GB,-2.9984,51.5877,42.0,1685581537.0
144,Tateyama,70.57,58.0,8.39,1850523.0,JP,139.8667,34.9833,72.0,1685581539.0
145,Kuznechikha,47.68,88.0,6.85,537760.0,RU,42.3348,57.2161,95.0,1685581541.0
146,Poum,74.19,72.0,10.6,2138555.0,NC,164.0167,-20.2333,29.0,1685581543.0
147,Chokurdakh,34.12,63.0,9.44,2126123.0,RU,147.9167,70.6333,92.0,1685581545.0
148,Coquimbo,58.73,77.0,5.75,3893629.0,CL,-71.3436,-29.9533,0.0,1685581404.0
149,Ust-Nera,57.11,54.0,7.27,2120048.0,RU,143.2,64.5667,92.0,1685581549.0
150,Kavaratti,85.41,72.0,6.38,1267390.0,IN,72.642,10.5669,100.0,1685581551.0
151,Eruwa,75.33,94.0,3.4,2338669.0,NG,3.4167,7.5333,100.0,1685581554.0
152,Polyarny,44.83,83.0,6.67,506763.0,RU,33.4478,69.1989,100.0,1685581556.0
153,Ribeira Grande,64.78,90.0,1.99,3372707.0,PT,-28.7,38.5167,100.0,1685581558.0
154,Kalemie,69.64,79.0,0.89,214974.0,CD,29.1947,-5.9475,3.0,1685581560.0
155,Tuktoyaktuk,39.2,81.0,6.91,6170031.0,CA,-133.0374,69.4541,75.0,1685581562.0
156,Tomatlán,80.51,61.0,8.1,3981391.0,MX,-105.25,19.9333,0.0,1685581564.0
157,Bratca,54.81,86.0,2.95,683837.0,RO,22.6167,46.9333,42.0,1685581567.0
158,Chiang Khong,84.04,64.0,1.34,1611197.0,TH,100.4046,20.2613,25.0,1685581569.0
159,Gijang,64.13,72.0,1.34,1842966.0,KR,129.2139,35.2442,100.0,1685581571.0
160,Vao,71.87,72.0,17.58,2137773.0,NC,167.4833,-22.6667,100.0,1685581573.0
161,Marawi,79.34,65.0,6.31,1701054.0,PH,124.2928,7.9986,98.0,1685581576.0
162,Kununurra,73.38,35.0,5.75,2068110.0,AU,128.7333,-15.7667,59.0,1685581578.0
163,Ponta do Sol,67.35,85.0,9.8,2264557.0,PT,-17.1,32.6667,34.0,1685581580.0
164,Vanimo,82.6,76.0,1.59,2084442.0,PG,141.3028,-2.6741,89.0,1685581582.0
165,Kenai,51.62,61.0,18.41,5866063.0,US,-151.2583,60.5544,20.0,1685581585.0
166,Tarnogskiy Gorodok,44.83,93.0,4.85,484314.0,RU,43.5761,60.4997,49.0,1685581587.0
167,Tottori-shi,75.27,53.0,12.66,1849892.0,JP,134.2333,35.5,75.0,1685581497.0
168,Baracoa,78.8,87.0,6.69,3567834.0,CU,-74.4958,20.3467,100.0,1685581440.0
169,Krasnyy Kholm,43.84,73.0,7.58,541704.0,RU,37.1203,58.0607,73.0,1685581593.0
170,Nabire,85.93,68.0,2.84,1634614.0,ID,135.4833,-3.3667,20.0,1685581595.0
171,Zaysan,59.14,50.0,5.86,1517060.0,KZ,84.8667,47.4667,51.0,1685581597.0
172,New Norfolk,46.18,70.0,10.0,2155415.0,AU,147.0587,-42.7826,49.0,1685581600.0
173,Muhos,42.67,65.0,6.67,645765.0,FI,25.9931,64.808,100.0,1685581602.0
174,Sabzawār,76.1,10.0,7.45,118063.0,IR,57.6819,36.2126,88.0,1685581604.0
175,Catuday,84.45,69.0,11.1,1717787.0,PH,119.8062,16.2923,51.0,1685581606.0
176,Enshi,70.52,97.0,2.08,1811720.0,CN,109.4833,30.3,100.0,1685581608.0
177,Timiryazevskiy,58.15,36.0,3.09,1489597.0,RU,84.8769,56.49,79.0,1685581615.0
178,Aklavik,53.94,59.0,18.12,5882953.0,CA,-135.0107,68.2191,100.0,1685581617.0
179,Pochutla,83.35,71.0,5.64,3517970.0,MX,-96.4661,15.7432,27.0,1685581619.0
180,Bathsheba,81.21,83.0,8.05,3374083.0,BB,-59.5167,13.2167,40.0,1685581622.0
181,Salalah,84.29,89.0,3.44,286621.0,OM,54.0924,17.0151,40.0,1685581624.0
182,Airai,68.63,50.0,3.24,1651810.0,TL,125.4092,-8.9266,5.0,1685581626.0
183,Fuyang,81.07,53.0,5.59,1810845.0,CN,115.8167,32.9,12.0,1685581628.0
184,Makakilo City,80.87,65.0,18.41,5850554.0,US,-158.0858,21.3469,75.0,1685581630.0
185,Impfondo,73.09,87.0,1.28,2259655.0,CG,18.0667,1.6381,100.0,1685581632.0
186,Anloga,81.88,82.0,11.27,2304548.0,GH,0.8973,5.7947,98.0,1685581634.0
187,Chui,57.83,87.0,3.49,3443061.0,UY,-53.4616,-33.6971,91.0,1685581637.0
188,Nishihara,78.53,92.0,40.29,1855342.0,JP,127.7558,26.1842,100.0,1685581639.0
189,Bariloche,42.24,77.0,5.08,7647007.0,AR,-71.3082,-41.1456,19.0,1685581641.0
190,Kristianstad,51.94,93.0,10.36,2699310.0,SE,14.1524,56.0313,20.0,1685581643.0
191,Cabo San Lucas,77.43,50.0,17.27,3985710.0,MX,-109.9124,22.8909,0.0,1685581529.0
192,Hunchun,73.99,45.0,4.83,2036653.0,CN,130.3581,42.8675,22.0,1685581647.0
193,Aykhal,46.24,41.0,1.52,2027296.0,RU,111.5,66.0,0.0,1685581650.0
194,Nchelenge,63.82,59.0,6.64,175499.0,ZM,28.734,-9.3451,88.0,1685581652.0
195,Hobyo,81.81,80.0,22.39,57000.0,SO,48.5268,5.3505,77.0,1685581654.0
196,Pechenga,41.05,96.0,10.94,511865.0,RU,31.1703,69.5259,100.0,1685581656.0
197,Hambantota,79.14,100.0,6.91,1244926.0,LK,81.1185,6.1241,40.0,1685581658.0
198,Lompoc,57.65,78.0,12.66,5367788.0,US,-120.4579,34.6391,100.0,1685581660.0
199,Hasaki,73.8,60.0,11.18,2112802.0,JP,140.8333,35.7333,100.0,1685581663.0
200,Departamento de Maldonado,55.11,85.0,5.32,3441890.0,UY,-54.9167,-34.6667,62.0,1685581665.0
201,Naze,74.32,93.0,19.01,1855540.0,JP,129.4833,28.3667,100.0,1685581436.0
202,Nikolskoye,50.09,86.0,4.47,546105.0,RU,30.7861,59.7035,92.0,1685581669.0
203,Dul'durga,60.04,40.0,6.71,2024812.0,RU,113.5931,50.6761,98.0,1685581671.0
204,Leh,45.52,68.0,5.53,1264976.0,IN,77.5833,34.1667,100.0,1685581673.0
205,Lata,58.91,98.0,1.77,2738381.0,PT,-8.3327,40.1629,11.0,1685581675.0
206,Tiksi,35.2,66.0,5.61,2015306.0,RU,128.8694,71.6872,79.0,1685581678.0
207,Qaanaaq,13.68,80.0,3.62,3831208.0,GL,-69.3632,77.484,5.0,1685581680.0
208,Ilulissat,37.42,93.0,6.91,3423146.0,GL,-51.1,69.2167,100.0,1685581682.0
209,Saint-Augustin,47.98,84.0,4.94,6137462.0,CA,-58.6502,51.226,100.0,1685581684.0
210,Saskylakh,46.89,62.0,7.58,2017155.0,RU,114.0833,71.9167,99.0,1685581686.0
211,Tessalit,82.51,9.0,6.8,2449893.0,ML,1.0114,20.1986,54.0,1685581689.0
212,Rayong,85.78,76.0,8.41,1607016.0,TH,101.4333,12.8333,95.0,1685581691.0
213,Sur,88.66,54.0,13.62,286245.0,OM,59.5289,22.5667,0.0,1685581693.0
214,Bereket,81.72,39.0,4.29,161974.0,TM,55.5154,39.2446,100.0,1685581695.0
215,Staraya Kulatka,56.66,94.0,3.58,489164.0,RU,47.6167,52.7167,11.0,1685581697.0
216,Roswell,71.56,77.0,1.01,4219934.0,US,-84.3616,34.0232,0.0,1685581444.0
217,Santa Luzia,67.1,96.0,3.29,3450144.0,BR,-43.8514,-19.7697,100.0,1685581701.0
218,São Filipe,75.4,70.0,8.39,3374210.0,CV,-24.4956,14.8961,100.0,1685581704.0
219,San Luis,54.86,64.0,5.21,3837056.0,AR,-66.3356,-33.295,5.0,1685581706.0
220,Fairbanks,53.4,47.0,16.11,5861897.0,US,-147.7164,64.8378,75.0,1685581697.0
221,Sibolga,79.84,77.0,1.39,1213855.0,ID,98.7792,1.7427,100.0,1685581710.0
222,Pahrump,84.22,16.0,10.0,5509851.0,US,-115.9839,36.2083,1.0,1685581513.0
223,Narsaq,41.22,93.0,2.35,3421719.0,GL,-46.05,60.9167,100.0,1685581714.0
224,Hamilton,75.76,58.0,12.66,4513583.0,US,-84.5333,39.1834,0.0,1685581645.0
225,Fortuna,57.69,68.0,16.11,5563839.0,US,-124.1573,40.5982,20.0,1685581718.0
226,Ayan,47.32,75.0,4.97,2027316.0,RU,138.1667,56.45,100.0,1685581720.0
227,El Dorado,68.16,64.0,1.99,5345659.0,US,-120.5177,38.7666,0.0,1685581723.0
228,Leonidovo,54.46,52.0,7.43,2123805.0,RU,142.8667,49.2833,100.0,1685581725.0
229,Chicama,72.14,78.0,5.1,3698359.0,PE,-79.1469,-7.8447,7.0,1685581727.0
230,Umluj,83.93,45.0,7.23,100926.0,SA,37.2685,25.0213,5.0,1685581729.0
231,Acapulco de Juárez,85.82,66.0,10.36,3533462.0,MX,-99.8901,16.8634,0.0,1685581704.0
232,Santa Maria,58.86,88.0,2.71,3450083.0,BR,-53.8069,-29.6842,0.0,1685581733.0
233,Ubinskoye,63.19,53.0,3.91,1488708.0,RU,79.6802,55.3068,13.0,1685581735.0
234,Flinders,67.28,67.0,1.99,6255012.0,AU,150.8552,-34.5833,99.0,1685581738.0
235,Broome,68.76,62.0,3.56,5110365.0,US,-75.833,42.2506,3.0,1685581740.0
236,Mossamedes,67.93,64.0,4.83,3347019.0,AO,12.1522,-15.1961,0.0,1685581742.0
237,Orange Cove,81.55,34.0,6.91,5379533.0,US,-119.3137,36.6244,0.0,1685581744.0
238,Barra Patuca,79.61,82.0,10.0,3614835.0,HN,-84.2833,15.8,100.0,1685581746.0
239,Arlit,86.16,7.0,10.04,2447513.0,NE,7.3853,18.7369,37.0,1685581748.0
240,Chilia Veche,62.15,62.0,6.26,682117.0,RO,29.2833,45.4167,58.0,1685581750.0
241,Conde,76.46,100.0,5.75,3385077.0,BR,-34.9075,-7.2597,0.0,1685581753.0
242,Bulungu,70.36,92.0,0.85,2316259.0,CD,18.6,-4.55,99.0,1685581755.0
243,Baker City,67.71,40.0,0.0,5712169.0,US,-117.8344,44.7749,0.0,1685581548.0
244,Rājākhera,83.39,42.0,6.8,1258930.0,IN,78.1714,26.8961,0.0,1685581759.0
245,Portland,63.7,47.0,8.05,5746545.0,US,-122.6762,45.5234,75.0,1685581681.0
246,Birkeland,48.78,58.0,1.14,3161532.0,NO,8.2323,58.3309,5.0,1685581763.0
247,Dvinskoy Bereznik,47.98,74.0,4.16,577240.0,RU,42.7072,62.8551,100.0,1685581766.0
248,Jalingo,77.34,81.0,1.9,2336589.0,NG,11.3667,8.8833,98.0,1685581768.0
249,Yar-Sale,50.81,98.0,8.59,1486321.0,RU,70.8333,66.8333,100.0,1685581770.0
250,Tafresh,61.23,51.0,3.11,113636.0,IR,50.013,34.692,0.0,1685581772.0
251,Homer,52.11,56.0,11.01,5864145.0,US,-151.5483,59.6425,0.0,1685581774.0
252,Mandalgovi,49.75,67.0,11.14,2030065.0,MN,106.2708,45.7625,99.0,1685581777.0
253,Kibala,79.38,64.0,1.79,2425791.0,TD,18.3463,9.1104,25.0,1685581779.0
254,Ulladulla,68.77,48.0,9.51,2145554.0,AU,150.4667,-35.35,0.0,1685581496.0
255,Sitka,51.69,58.0,8.05,5557293.0,US,-135.33,57.0531,40.0,1685581783.0
256,Leningradskiy,30.34,77.0,13.82,2123814.0,RU,178.4167,69.3833,75.0,1685581785.0
257,Takāb,54.64,55.0,1.77,113508.0,IR,47.1133,36.4009,3.0,1685581787.0
258,Tarancón,58.8,75.0,4.36,3108317.0,ES,-3.0073,40.0085,97.0,1685581790.0
259,Goderich,66.29,61.0,1.14,5962442.0,CA,-81.7165,43.7501,0.0,1685581792.0
260,Rosa Zarate,74.68,97.0,1.03,3652257.0,EC,-79.4667,0.3333,100.0,1685581794.0
261,Luganville,80.26,84.0,10.51,2136150.0,VU,167.1667,-15.5333,99.0,1685581796.0
262,Druzhba,47.16,77.0,7.0,709584.0,UA,33.9453,52.0428,0.0,1685581798.0
263,Valea lui Mihai,55.11,86.0,4.25,663692.0,RO,22.15,47.5167,19.0,1685581800.0
264,Ancud,49.87,92.0,5.23,3899695.0,CL,-73.8203,-41.8697,75.0,1685581802.0
265,Matagami,74.82,52.0,5.91,6067747.0,CA,-77.6328,49.7502,100.0,1685581805.0
266,Peniche,59.36,92.0,6.35,2264923.0,PT,-9.3811,39.3558,5.0,1685581807.0
267,Miraflores,77.2,62.0,5.46,3761194.0,MX,-98.8083,19.2167,47.0,1685581809.0
268,Lebu,54.12,93.0,3.94,3883457.0,CL,-73.65,-37.6167,100.0,1685581811.0
269,Crawley,51.3,84.0,16.11,2652053.0,GB,-0.1831,51.113,75.0,1685581813.0
270,Khonsa,79.86,55.0,1.39,1266668.0,IN,95.5667,27.0167,11.0,1685581815.0
271,Yumen,60.19,25.0,14.72,1528998.0,CN,97.2,40.2833,100.0,1685581818.0
272,Bubaque,81.73,80.0,5.86,2374583.0,GW,-15.8333,11.2833,100.0,1685581820.0
273,Ribas do Rio Pardo,68.5,82.0,4.76,3451399.0,BR,-53.7592,-20.4431,100.0,1685581822.0
274,Malbork,49.39,87.0,8.23,3092472.0,PL,19.0266,54.0359,42.0,1685581661.0
275,Saint-Leu,66.25,87.0,6.91,6690297.0,RE,55.2833,-21.15,9.0,1685581826.0
276,Arkhara,59.43,55.0,4.05,2027487.0,RU,130.0842,49.4212,78.0,1685581829.0
277,Tura,83.5,60.0,6.02,1254046.0,IN,90.2201,25.5198,1.0,1685581831.0
278,Ingham,76.91,39.0,3.44,4997130.0,US,-84.3833,42.6,0.0,1685581833.0
279,Sarandi,62.02,90.0,2.82,3447998.0,BR,-51.8739,-23.4436,100.0,1685581723.0
280,Biak,81.34,75.0,7.27,1637001.0,ID,122.8766,-0.9131,100.0,1685581837.0
281,Nieuw Amsterdam,80.02,90.0,8.93,3383434.0,SR,-55.0833,5.8833,77.0,1685581839.0
282,Boundiali,74.16,90.0,1.19,2290836.0,CI,-6.4869,9.5217,100.0,1685581841.0
283,Aitape,84.54,70.0,1.25,2101169.0,PG,142.3475,-3.1374,51.0,1685581843.0
284,Manadhoo,83.28,78.0,17.36,1337618.0,MV,73.3833,5.7667,100.0,1685581846.0
285,Ca Mau,84.67,71.0,10.38,1586443.0,VN,105.15,9.1769,100.0,1685581848.0
286,San Patricio,81.18,74.0,11.72,4726521.0,US,-97.5169,28.017,0.0,1685581850.0
287,Portree,51.53,91.0,9.37,2640006.0,GB,-6.1942,57.4129,48.0,1685581852.0
288,Srednekolymsk,47.34,37.0,10.22,2121025.0,RU,153.6833,67.45,19.0,1685581854.0
289,Zhangaözen,78.94,15.0,10.0,607610.0,KZ,52.8,43.3,100.0,1685581856.0
290,Mayo,65.03,76.0,0.0,4362001.0,US,-76.5119,38.8876,0.0,1685581703.0
291,Hualmay,69.76,80.0,9.71,3939761.0,PE,-77.6139,-11.0964,6.0,1685581860.0
292,Púchov,51.94,86.0,3.22,3057963.0,SK,18.326,49.1249,21.0,1685581862.0
293,Hong Kong,82.38,91.0,1.54,1819729.0,HK,114.1577,22.2855,85.0,1685581785.0
294,Dzilam González,77.56,84.0,5.39,3529654.0,MX,-88.9333,21.2833,19.0,1685581867.0
295,Sistranda,40.96,70.0,20.02,3139597.0,NO,8.834,63.7256,100.0,1685581869.0
296,Ondjiva,60.66,44.0,2.64,3346821.0,AO,15.7333,-17.0667,3.0,1685581871.0
297,Taguatinga,77.43,51.0,3.98,6319623.0,BR,-46.5711,-12.3857,19.0,1685581577.0
298,Evensk,61.12,46.0,13.27,2125693.0,RU,159.2333,61.95,94.0,1685581875.0
299,Katsuura,71.01,56.0,10.58,2112309.0,JP,140.3,35.1333,49.0,1685581877.0
300,Ambovombe,67.41,79.0,11.45,1079048.0,MG,46.0833,-25.1667,100.0,1685581880.0
301,Pisco,69.85,68.0,9.22,3932145.0,PE,-76.2167,-13.7,100.0,1685581882.0
302,Lala,86.59,68.0,5.01,1707944.0,PH,123.7458,7.9745,69.0,1685581884.0
303,East London,60.89,60.0,4.7,1006984.0,ZA,27.9116,-33.0153,100.0,1685581886.0
304,Nyurba,53.78,43.0,5.97,2018735.0,RU,118.3319,63.2842,21.0,1685581889.0
305,Baykit,64.0,41.0,2.3,1510689.0,RU,96.37,61.67,95.0,1685581891.0
306,Muyezerskiy,41.14,82.0,8.1,524100.0,RU,31.65,63.9333,100.0,1685581894.0
307,Umarkot,81.99,76.0,17.43,1162959.0,PK,69.7362,25.3616,5.0,1685581721.0
308,Paamiut,37.44,85.0,25.26,3421193.0,GL,-49.6678,61.994,100.0,1685581898.0
309,Gberia Fotombu,72.23,97.0,2.82,2409019.0,SL,-11.1667,9.8833,96.0,1685581900.0
310,Auki,85.96,66.0,2.98,2109701.0,SB,160.7034,-8.7676,26.0,1685581902.0
311,Timmins,68.86,70.0,6.51,6166739.0,CA,-81.3331,48.4669,17.0,1685581621.0
312,Pachino,65.3,81.0,8.25,6539213.0,IT,15.0907,36.7186,83.0,1685581906.0
313,Arrondissement d'Arcachon,64.44,100.0,13.8,6621469.0,FR,-1.0519,44.5875,20.0,1685581908.0
314,Avera,68.05,78.0,5.57,4231997.0,US,-82.5271,33.194,71.0,1685581911.0
315,Bonthe,78.51,88.0,4.76,2409914.0,SL,-12.505,7.5264,100.0,1685581908.0
316,Songjianghe,69.12,48.0,13.18,2034691.0,CN,127.479,42.1859,69.0,1685581915.0
317,Salisbury,51.96,83.0,13.8,2638664.0,GB,-1.7957,51.0693,100.0,1685581917.0
318,Xi'an,66.96,74.0,3.29,1790630.0,CN,108.9286,34.2583,100.0,1685581625.0
319,Touros,77.85,88.0,9.66,3386213.0,BR,-35.4608,-5.1989,78.0,1685581921.0
320,Boda,69.48,95.0,2.42,2388614.0,CF,17.4695,4.3189,50.0,1685581923.0
321,Mayumba,75.45,93.0,6.13,2399001.0,GA,10.6554,-3.432,100.0,1685581925.0
322,Chul'man,56.75,52.0,10.67,2025261.0,RU,124.9104,56.8479,90.0,1685581927.0
323,Tambacounda,81.43,65.0,13.09,2244991.0,SN,-13.7586,13.7539,100.0,1685581930.0
324,Bushehr,86.25,56.0,16.55,139817.0,IR,50.8385,28.9684,0.0,1685581932.0
325,Port Hardy,51.67,82.0,10.98,6111862.0,CA,-127.4199,50.6996,95.0,1685581716.0
326,Shashi,76.5,72.0,6.78,1795816.0,CN,112.2447,30.3072,83.0,1685581936.0
327,Grand-Lahou,79.27,88.0,7.02,2288105.0,CI,-5.0242,5.1367,100.0,1685581938.0
328,State College,66.27,51.0,3.44,5213681.0,US,-77.86,40.7934,0.0,1685581681.0
329,Teguise,62.82,77.0,5.75,2510573.0,ES,-13.564,29.0605,0.0,1685581942.0
330,Magdagachi,62.26,44.0,5.93,2020591.0,RU,125.8,53.45,17.0,1685581945.0
331,Gaozhou,85.6,68.0,3.11,1810295.0,CN,110.8461,21.9392,100.0,1685581947.0
332,Meulaboh,77.34,85.0,3.85,1214488.0,ID,96.1285,4.1363,89.0,1685581949.0
333,Río Gallegos,45.09,72.0,15.41,3838859.0,AR,-69.2181,-51.6226,100.0,1685581951.0
334,Chaihe,65.77,63.0,7.63,2038198.0,CN,129.7,44.7667,69.0,1685581953.0
335,Nikel,39.38,97.0,2.89,522260.0,RU,30.222,69.4128,100.0,1685581955.0
336,Beringovskiy,53.24,54.0,4.76,2126710.0,RU,179.3167,63.05,95.0,1685581957.0
337,Coyhaique,44.55,87.0,3.44,3894426.0,CL,-72.0662,-45.5752,75.0,1685581772.0
338,Vardø,40.98,93.0,23.02,777019.0,NO,31.1107,70.3705,100.0,1685581962.0
339,Talnakh,47.01,93.0,3.49,1490256.0,RU,88.3972,69.4865,99.0,1685581964.0
340,Faya,57.72,59.0,4.27,110690.0,SA,42.4509,18.3851,100.0,1685581966.0
341,Znamenskoye,62.91,60.0,3.04,1485020.0,RU,73.8282,57.1281,83.0,1685581968.0
342,Manavgat,65.57,79.0,4.41,304854.0,TR,31.4431,36.7867,48.0,1685581970.0
343,Cairns,80.51,57.0,14.97,2172797.0,AU,145.7667,-16.9167,40.0,1685581972.0
344,Klaksvík,45.52,65.0,5.39,2618795.0,FO,-6.589,62.2266,6.0,1685581974.0
345,Fonte Boa,74.66,98.0,2.8,6319315.0,BR,-66.2662,-2.4959,100.0,1685581976.0
346,Piaçabuçu,75.02,91.0,6.73,3454005.0,BR,-36.4344,-10.4056,19.0,1685581978.0
347,Havøysund,39.43,72.0,17.58,779622.0,NO,24.6622,70.9963,96.0,1685581981.0
348,Boden,37.4,51.0,10.09,606531.0,SE,21.6886,65.8252,44.0,1685581983.0
349,Nhulunbuy,81.21,69.0,13.8,2064735.0,AU,136.7667,-12.2333,75.0,1685581985.0
350,Kamenka,47.34,90.0,7.96,553766.0,RU,42.7678,51.3223,13.0,1685581987.0
351,Kazachinskoye,62.65,56.0,1.63,1504075.0,RU,93.2761,57.6953,94.0,1685581989.0
352,Geraldton,63.01,94.0,5.75,2070998.0,AU,114.6,-28.7667,40.0,1685581991.0
353,Maxixe,69.67,83.0,7.16,1039536.0,MZ,35.3472,-23.8597,4.0,1685581993.0
354,Leon Valley,82.02,63.0,12.66,4705923.0,US,-98.6186,29.4952,0.0,1685581996.0
355,Nome,33.89,74.0,9.22,5870133.0,US,-165.4064,64.5011,100.0,1685581914.0
356,Manokwari,83.46,72.0,3.6,1636308.0,ID,134.0833,-0.8667,39.0,1685582000.0
357,Grand-Santi,74.01,97.0,2.51,3381538.0,GF,-54.3833,4.25,12.0,1685582002.0
358,Faanui,77.18,64.0,15.61,4034551.0,PF,-151.75,-16.4833,2.0,1685582004.0
359,Clyde River,21.43,73.0,13.8,5924351.0,CA,-68.5914,70.4692,0.0,1685582006.0
360,Kosa,56.98,98.0,2.89,544318.0,RU,54.9977,59.9445,95.0,1685582008.0
361,Blackwater,72.19,43.0,3.42,2175403.0,AU,148.8833,-23.5833,0.0,1685582015.0
362,Assiniboia,78.62,34.0,16.11,5887798.0,CA,-105.9845,49.6334,51.0,1685582018.0
363,Bambous Virieux,70.05,83.0,0.0,1106677.0,MU,57.7575,-20.3428,75.0,1685582020.0
364,Arona,63.75,87.0,14.97,2521582.0,ES,-16.681,28.0996,20.0,1685582022.0
365,Belyy Yar,55.29,71.0,4.47,1510377.0,RU,91.3903,53.6039,0.0,1685582024.0
366,San Miguel,76.06,96.0,2.51,3583446.0,SV,-88.1833,13.4833,100.0,1685582026.0
367,Maniitsoq,34.61,98.0,36.19,3421982.0,GL,-52.9,65.4167,100.0,1685582028.0
368,Freeport,62.1,77.0,4.61,5117949.0,US,-73.5832,40.6576,0.0,1685582030.0
369,Constitución,57.29,85.0,7.94,3893726.0,CL,-72.4167,-35.3333,100.0,1685582032.0
370,Tarakan,83.7,79.0,3.44,1624725.0,ID,117.6333,3.3,40.0,1685582034.0
371,Nirmal,89.85,30.0,5.44,1261288.0,IN,78.35,19.1,16.0,1685581892.0
372,Zmeinogorsk,55.96,62.0,12.37,1485042.0,RU,82.195,51.1567,0.0,1685582039.0
373,Valparaíso,59.0,61.0,1.14,3868626.0,CL,-71.6273,-33.0393,0.0,1685581809.0
374,Caravelas,72.3,87.0,0.16,3466980.0,BR,-39.2481,-17.7125,24.0,1685582043.0
375,Torbay,39.33,90.0,5.01,6167817.0,CA,-52.7314,47.6666,20.0,1685582045.0
376,Le Port,66.47,86.0,3.11,935616.0,RE,55.2919,-20.9373,16.0,1685582047.0
377,Kumul,68.32,15.0,13.33,1529484.0,CN,93.45,42.8,80.0,1685582049.0
378,Inverell,64.11,64.0,1.99,2162662.0,AU,151.1167,-29.7833,93.0,1685582052.0
379,Tortolì,62.42,94.0,6.91,2522890.0,IT,9.6572,39.9256,40.0,1685582054.0
380,Beipiao,82.04,22.0,11.88,2038342.0,CN,120.7792,41.7919,0.0,1685582056.0
381,Novo Aripuanã,74.57,97.0,1.92,3663142.0,BR,-60.3797,-5.1206,41.0,1685582058.0
382,Akdepe,71.69,23.0,9.22,601551.0,TM,59.3788,42.0551,92.0,1685582060.0
383,Pangnirtung,31.91,98.0,3.51,6096551.0,CA,-65.7125,66.1451,99.0,1685581904.0
384,Komatipoort,60.04,92.0,2.77,988290.0,ZA,31.9548,-25.4332,4.0,1685582064.0
385,Kailua,82.56,73.0,14.97,5847486.0,US,-157.7394,21.4022,100.0,1685582023.0
386,Massakory,89.4,42.0,8.3,2428228.0,TD,15.7293,12.996,46.0,1685582069.0
387,Byron Bay,69.4,46.0,2.59,2172880.0,AU,153.6167,-28.65,77.0,1685582071.0
388,Dawson Creek,62.24,25.0,14.97,5935804.0,CA,-120.2362,55.7666,0.0,1685582073.0
389,Port-Gentil,77.85,85.0,8.48,2396518.0,GA,8.7815,-0.7193,43.0,1685581862.0
390,Augusto Corrêa,75.09,94.0,3.33,3406961.0,BR,-46.635,-1.0217,99.0,1685582077.0
391,Araouane,86.94,12.0,8.28,2460954.0,ML,-3.5265,18.9048,100.0,1685582079.0
392,Coahuayana Viejo,81.72,66.0,5.21,4013679.0,MX,-103.6833,18.7333,1.0,1685582082.0
393,Mount Gambier,54.99,51.0,3.71,2156643.0,AU,140.7667,-37.8333,94.0,1685581898.0
394,Swan River,73.29,56.0,10.36,6160362.0,CA,-101.2676,52.1058,0.0,1685582086.0
395,Bima,81.28,76.0,5.21,1648759.0,ID,118.7167,-8.4667,100.0,1685582088.0
396,Cherskiy,39.63,42.0,12.01,2126199.0,RU,161.3,68.75,11.0,1685582090.0
397,Adrar,81.95,22.0,9.13,2381972.0,MR,-10.0711,20.5022,29.0,1685582092.0
398,Egvekinot,33.73,97.0,3.67,4031742.0,RU,-179.1667,66.3167,100.0,1685582094.0
399,Comodoro Rivadavia,55.26,47.0,12.66,3860443.0,AR,-67.5,-45.8667,0.0,1685582096.0
400,Volchikha,62.56,46.0,4.54,1486983.0,RU,80.3833,52.0333,45.0,1685582098.0
401,Paita,74.23,83.0,14.16,3694112.0,PE,-81.1144,-5.0892,2.0,1685582101.0
402,Calama,50.49,13.0,16.11,3897347.0,CL,-68.9333,-22.4667,0.0,1685582103.0
403,Abalak,67.28,55.0,9.78,1512223.0,RU,68.5944,58.1286,100.0,1685582105.0
404,Atar,85.93,20.0,6.29,2381334.0,MR,-13.0499,20.5169,100.0,1685582107.0
405,Venado Tuerto,58.77,81.0,5.91,3833062.0,AR,-61.9688,-33.7456,84.0,1685582114.0
406,Ostrovnoy,45.23,88.0,8.86,556268.0,RU,39.5131,68.0531,100.0,1685582117.0
407,Praia,73.94,83.0,14.97,3374333.0,CV,-23.5087,14.9215,0.0,1685582119.0
408,Campoverde,78.49,93.0,0.6,3733380.0,PE,-74.8058,-8.4753,0.0,1685582121.0
409,Peebles,44.96,97.0,1.01,2640526.0,GB,-3.1888,55.6519,6.0,1685582123.0
410,Ngunguru,65.95,70.0,8.3,2186111.0,NZ,174.5,-35.6167,51.0,1685582130.0
411,Haines Junction,55.35,24.0,3.44,5969025.0,CA,-137.5108,60.7522,100.0,1685582132.0
412,Chernyshevsk,62.4,37.0,10.96,2025458.0,RU,117.0174,52.5243,10.0,1685582134.0
413,Makiyivka,57.16,84.0,6.69,702320.0,UA,37.9258,48.0478,86.0,1685582136.0
414,Petropavlovsk-Kamchatskiy,43.39,87.0,8.95,2122104.0,RU,158.6483,53.0452,100.0,1685582139.0
415,Los Llanos de Aridane,63.12,97.0,8.05,2514651.0,ES,-17.9182,28.6585,0.0,1685582141.0
416,Nuevo Progreso,81.9,63.0,4.0,3522526.0,MX,-97.95,23.1667,4.0,1685582143.0
417,Norsup,81.25,78.0,14.9,2135517.0,VU,167.3833,-16.0667,65.0,1685582145.0
418,Yulara,67.86,26.0,4.18,6355222.0,AU,130.9889,-25.2406,5.0,1685582147.0
419,Hohhot,61.09,67.0,6.71,2036892.0,CN,111.6522,40.8106,20.0,1685582149.0
420,Bowen,74.39,60.0,10.76,2174444.0,AU,148.2333,-20.0167,5.0,1685582151.0
421,Smoky Lake,66.24,59.0,8.05,6150293.0,CA,-112.4686,54.1169,90.0,1685582153.0
422,Angoram,86.43,73.0,1.05,2100765.0,PG,144.0661,-4.0625,32.0,1685582155.0
423,Itarema,78.17,82.0,8.37,3393692.0,BR,-39.9167,-2.9248,96.0,1685582158.0
424,La Asuncion,69.53,100.0,14.97,3480908.0,VE,-63.8628,11.0333,100.0,1685582160.0
425,Berlevåg,39.0,75.0,19.57,780687.0,NO,29.0864,70.8578,100.0,1685582162.0
426,Ambilobe,68.41,90.0,3.98,1082243.0,MG,49.05,-13.2,0.0,1685582165.0
427,Teya,65.82,38.0,3.51,1489656.0,RU,92.6267,60.3778,93.0,1685582167.0
428,Máncora,76.71,78.0,11.72,3695000.0,PE,-81.0475,-4.1078,62.0,1685582169.0
429,Crotone,64.18,80.0,5.39,2524881.0,IT,17.1178,39.0851,24.0,1685582171.0
430,Sechura,76.19,73.0,13.94,3691954.0,PE,-80.8222,-5.5569,4.0,1685582173.0
431,Tarko-Sale,56.19,55.0,15.41,1490085.0,RU,77.785,64.9225,100.0,1685582176.0
432,Yerofey Pavlovich,61.36,41.0,9.51,2012938.0,RU,121.9667,53.9667,29.0,1685582178.0
433,Doha,89.55,44.0,10.36,290030.0,QA,51.5333,25.2867,0.0,1685582180.0
434,Palmer,63.9,54.0,8.05,4946620.0,US,-72.3287,42.1584,0.0,1685582182.0
435,Darhan,57.11,53.0,11.01,2031964.0,MN,105.9228,49.4867,59.0,1685582184.0
436,Rantauprapat,78.73,78.0,1.12,1214073.0,ID,99.8333,2.1,100.0,1685582186.0
437,Arroyo de la Encomienda,59.14,84.0,1.14,3129371.0,ES,-4.7969,41.6096,20.0,1685582188.0
438,Keetmanshoop,51.03,58.0,8.43,3356264.0,NA,18.1333,-26.5833,0.0,1685582191.0
439,Staryy Nadym,59.41,64.0,18.95,1490918.0,RU,72.6842,65.6118,100.0,1685582193.0
440,Beloha,67.19,81.0,11.7,1067565.0,MG,45.05,-25.1667,100.0,1685582195.0
441,Kelvington,71.13,65.0,13.8,5990669.0,CA,-103.5343,52.1667,3.0,1685582197.0
442,Munger,92.5,25.0,9.08,1262482.0,IN,86.4667,25.3833,82.0,1685582199.0
443,Grindavik,45.07,100.0,9.22,3416888.0,IS,-22.4338,63.8424,100.0,1685582201.0
444,Kangaatsiaq,34.34,99.0,3.78,3422683.0,GL,-53.4641,68.3065,100.0,1685582203.0
445,Omsukchan,60.04,37.0,6.4,2122493.0,RU,155.8,62.5333,100.0,1685582205.0
446,Quzhou,78.8,87.0,5.03,1797264.0,CN,118.8686,28.9594,91.0,1685582208.0
447,Neijiang,71.31,85.0,5.01,1799491.0,CN,105.0622,29.5835,100.0,1685582210.0
448,Bonavista,38.68,82.0,7.7,5905393.0,CA,-53.1147,48.6499,4.0,1685582212.0
449,Pauini,73.74,93.0,1.19,3662927.0,BR,-66.9764,-7.7136,96.0,1685582214.0
450,Poso,84.88,67.0,2.98,1630723.0,ID,120.7524,-1.3959,100.0,1685582216.0
451,Hervey Bay,66.25,71.0,3.15,2146219.0,AU,152.8535,-25.2986,0.0,1685582218.0
452,Gambēla,71.19,93.0,4.63,337405.0,ET,34.5833,8.25,88.0,1685582220.0
453,Hede,70.5,85.0,4.76,1808744.0,CN,120.2517,33.7681,100.0,1685582222.0
454,Alice Springs,69.35,21.0,3.44,2077895.0,AU,133.8833,-23.7,0.0,1685582230.0
455,Tazmalt,58.39,90.0,1.74,2477537.0,DZ,4.3989,36.3868,9.0,1685582232.0
456,Mangaratiba,65.26,92.0,2.57,3457991.0,BR,-44.0406,-22.9597,88.0,1685582234.0
457,Porto-Novo,82.22,82.0,5.75,2392087.0,BJ,2.6036,6.4965,100.0,1685582236.0
458,Sabha,77.07,31.0,15.05,2212775.0,LY,14.4283,27.0377,0.0,1685582066.0
459,Salinópolis,79.34,85.0,10.6,3389822.0,BR,-47.3561,-0.6136,51.0,1685582240.0
460,Riyadh,82.54,35.0,0.98,108410.0,SA,46.7219,24.6877,3.0,1685582111.0
461,Jönköping,51.51,76.0,6.91,2702979.0,SE,14.1562,57.7814,0.0,1685582245.0
462,Yatou,71.24,60.0,14.32,1786855.0,CN,122.3833,37.15,0.0,1685582247.0
463,Jaru,73.2,92.0,1.83,3925040.0,BR,-62.4664,-10.4389,100.0,1685582250.0
464,Yashan,84.79,70.0,1.86,1786867.0,CN,109.9419,22.1975,94.0,1685582252.0
465,Bamiantong,65.52,68.0,13.56,2038482.0,CN,130.5333,44.9333,85.0,1685582254.0
466,Boa Vista,82.38,74.0,3.44,3664980.0,BR,-60.6733,2.8197,20.0,1685582256.0
467,Barra do Bugres,68.59,93.0,3.56,3470718.0,BR,-57.1811,-15.0725,100.0,1685582258.0
468,Butembo,57.18,87.0,3.71,217562.0,CD,29.2833,0.15,68.0,1685582260.0
469,Talaya,60.93,43.0,18.84,2120769.0,RU,152.75,61.3833,93.0,1685582262.0
470,Vengurla,82.83,84.0,4.05,1253257.0,IN,73.6333,15.8667,96.0,1685582265.0
471,Maracaçumé,73.2,95.0,3.31,3395497.0,BR,-45.9592,-2.0428,13.0,1685582267.0
472,Nouadhibou,67.98,77.0,14.97,2377457.0,MR,-17.0347,20.931,100.0,1685582269.0
473,La Celia,65.79,98.0,3.31,3679542.0,CO,-76.0167,5.0433,100.0,1685582271.0
474,Lüderitz,58.28,61.0,5.44,3355672.0,NA,15.1594,-26.6481,0.0,1685582273.0
475,Carutapera,76.06,92.0,6.06,3402648.0,BR,-46.02,-1.195,80.0,1685582275.0
476,Yauya,47.95,80.0,5.97,3690733.0,PE,-77.3,-8.9833,0.0,1685582277.0
477,Port Said,74.62,73.0,18.57,358619.0,EG,32.2841,31.2565,98.0,1685582279.0
478,Sambava,69.48,84.0,9.66,1056899.0,MG,50.1667,-14.2667,13.0,1685582282.0
479,Kafanchan,70.16,87.0,1.74,2335713.0,NG,8.3,9.5833,100.0,1685582284.0
480,Neftçala,69.98,80.0,6.87,147425.0,AZ,49.2472,39.3742,7.0,1685582286.0
481,Yhú,60.4,91.0,4.16,3436595.0,PY,-55.9167,-25.05,0.0,1685582288.0
482,Necochea,55.2,84.0,11.68,3430443.0,AR,-58.7368,-38.5473,57.0,1685582291.0
483,Muros,59.97,91.0,3.94,3115824.0,ES,-9.0603,42.7762,97.0,1685582293.0
484,Linxia Chengguanzhen,53.8,81.0,4.9,1803331.0,CN,103.2064,35.6003,100.0,1685582295.0
485,Tripoli,68.29,82.0,9.91,2210247.0,LY,13.1875,32.8752,100.0,1685582297.0
486,Ixtapa,79.83,74.0,8.05,4004293.0,MX,-105.2,20.7,100.0,1685582299.0
487,Santiago del Estero,65.37,75.0,6.38,3835869.0,AR,-64.2615,-27.7951,0.0,1685582301.0
488,Uribia,84.7,67.0,3.94,3666409.0,CO,-72.266,11.7139,100.0,1685582304.0
489,Rome,69.13,65.0,0.0,5134295.0,US,-75.4557,43.2128,0.0,1685582306.0
490,Xuanzhou,75.47,87.0,3.8,1788081.0,CN,118.7553,30.9525,99.0,1685582308.0
491,Arrondissement de Muret,60.69,95.0,1.05,2991152.0,FR,1.25,43.3333,100.0,1685582311.0
492,Orlik,42.03,88.0,3.0,1496073.0,RU,99.825,52.5178,100.0,1685582313.0
493,Toyoake,75.49,55.0,10.6,1856057.0,JP,137.0137,35.0594,100.0,1685582315.0
494,Ibrā’,80.44,66.0,3.4,287832.0,OM,58.5334,22.6906,0.0,1685582317.0
495,Ayagoz,57.16,47.0,14.94,1525988.0,KZ,80.4392,47.9714,0.0,1685582319.0
496,Deputatsky,32.58,80.0,3.98,2028164.0,RU,139.9,69.3,93.0,1685582321.0
497,Moyale,65.71,89.0,7.52,186180.0,KE,39.0584,3.5167,74.0,1685582323.0
498,Gresik,82.31,72.0,1.03,1643776.0,ID,112.6561,-7.1539,96.0,1685582326.0
499,Tsushima,75.88,63.0,10.33,1849539.0,JP,136.7167,35.1667,100.0,1685582328.0
500,Boralday,60.66,51.0,4.47,1526384.0,KZ,76.8594,43.3578,40.0,1685582330.0
501,Mahina,78.57,53.0,23.02,4034307.0,PF,-149.489,-17.5065,20.0,1685582332.0
502,Ust-Maya,65.66,49.0,6.24,2013918.0,RU,134.5333,60.4167,100.0,1685582334.0
503,General Pico,56.66,59.0,0.98,3855075.0,AR,-63.7568,-35.6566,21.0,1685582336.0
504,Labuan,86.36,74.0,3.44,1733782.0,MY,115.2417,5.2767,20.0,1685582338.0
505,Saint Anthony,81.01,46.0,12.66,5044290.0,US,-93.218,45.0205,0.0,1685582341.0
506,Iqaluit,31.69,74.0,24.16,5983720.0,CA,-68.5145,63.7506,100.0,1685582343.0
507,Haapiti,77.72,61.0,15.99,4034438.0,PF,-149.8667,-17.5667,0.0,1685582345.0
508,Sarankhola,86.45,69.0,6.4,1185239.0,BD,89.7897,22.3082,100.0,1685582347.0
509,Odienné,73.81,90.0,2.15,2283016.0,CI,-7.5692,9.51,100.0,1685582354.0
510,Miles City,81.57,39.0,8.05,5666176.0,US,-105.8406,46.4083,0.0,1685582356.0
511,Daru,80.91,77.0,14.25,2098329.0,PG,143.2092,-9.0763,20.0,1685582358.0
512,Umm Kaddadah,84.76,18.0,9.62,364933.0,SD,26.6876,13.6017,29.0,1685582361.0
513,Skegness,51.89,78.0,14.45,2637762.0,GB,0.3363,53.1436,100.0,1685582363.0
514,Saint-François,51.24,93.0,2.3,2980080.0,FR,3.9054,46.4154,0.0,1685582365.0
515,Semey,61.02,41.0,6.71,1519422.0,KZ,80.2275,50.4111,0.0,1685582367.0
516,Esperance,61.66,81.0,15.61,2071860.0,AU,121.9,-33.8667,100.0,1685582369.0
517,Selkirk,75.76,62.0,1.99,6144054.0,CA,-96.8845,50.1436,21.0,1685582371.0
518,Mahajanga,72.46,72.0,8.3,1062663.0,MG,46.3167,-15.7167,0.0,1685582373.0
519,Ruwi,96.49,50.0,10.56,287286.0,OM,58.5507,23.5996,0.0,1685582375.0
520,Pucallpa,78.84,83.0,3.44,3693345.0,PE,-74.5539,-8.3791,40.0,1685582378.0
521,Ginda,56.86,57.0,6.64,1253628.0,IN,78.4932,30.6945,70.0,1685582380.0
522,Hare Bay,44.2,87.0,3.96,5970873.0,CA,-54.0148,48.8499,65.0,1685582382.0
523,Kabalo,69.53,62.0,3.47,215668.0,CD,26.9167,-6.05,0.0,1685582384.0
524,Cockburn Town,81.36,85.0,14.99,3576994.0,TC,-71.1419,21.4612,100.0,1685582096.0
525,Kolomyia,50.81,89.0,3.0,705392.0,UA,25.0403,48.5306,10.0,1685582388.0
526,Odawara,70.9,66.0,6.51,1854747.0,JP,139.1597,35.2556,100.0,1685582390.0
527,Santa Cruz de la Sierra,67.46,94.0,2.3,3904906.0,BO,-63.1667,-17.8,75.0,1685582344.0
528,Derzhavīnsk,70.21,43.0,7.07,1524606.0,KZ,66.3167,51.1,100.0,1685582394.0
529,Raduzhny,61.54,56.0,8.43,1540356.0,RU,77.475,62.0961,100.0,1685582397.0
530,Gulariyā,81.32,40.0,6.13,1283368.0,NP,81.3333,28.2333,0.0,1685582399.0
531,Oudtshoorn,59.36,89.0,3.29,967106.0,ZA,22.2014,-33.5907,100.0,1685582401.0
532,Ruteng,68.86,76.0,2.77,1629380.0,ID,120.4721,-8.6136,89.0,1685582403.0
533,Sokolac,52.57,98.0,0.25,3190385.0,BA,18.8017,43.9397,89.0,1685582405.0
534,Jieshi,81.25,79.0,2.64,1805857.0,CN,115.8257,22.8134,0.0,1685582407.0
535,Porto Velho,77.05,88.0,1.14,3662762.0,BR,-63.9039,-8.7619,20.0,1685582409.0
536,Olinda,76.73,88.0,3.44,3393536.0,BR,-34.8553,-8.0089,20.0,1685582411.0
537,Vallenar,66.97,40.0,1.92,3868633.0,CL,-70.7581,-28.5708,6.0,1685582414.0
538,Bud,72.21,94.0,2.51,4255151.0,US,-86.1758,39.447,7.0,1685582416.0
539,Dhārchula,66.85,47.0,6.76,1272864.0,IN,80.5333,29.85,0.0,1685582418.0
540,Mabaruma,74.66,96.0,3.18,3377301.0,GY,-59.7833,8.2,89.0,1685582421.0
541,Nemuro,53.02,74.0,15.28,2128975.0,JP,145.575,43.3236,12.0,1685582423.0
542,Caucayá,73.29,98.0,2.55,3671437.0,CO,-74.7819,-0.1934,99.0,1685582425.0
543,Vanderhoof,60.44,26.0,7.05,6173361.0,CA,-124.0198,54.0166,100.0,1685582428.0
544,Maravilha,54.95,91.0,2.66,3457809.0,BR,-53.1725,-26.7608,0.0,1685582430.0
545,Nanlong,71.89,75.0,5.97,1799908.0,CN,106.0631,31.3533,100.0,1685582432.0
546,Seryshevo,59.86,50.0,12.53,2016942.0,RU,128.3786,51.0933,0.0,1685582434.0
547,Les Cayes,78.26,88.0,4.14,3728097.0,HT,-73.75,18.2,39.0,1685582436.0
548,Lagoa,62.92,81.0,9.15,3372964.0,PT,-27.9833,39.05,15.0,1685582438.0
549,Pacifica,57.2,80.0,21.85,5380420.0,US,-122.4869,37.6138,40.0,1685582441.0
550,Northam,52.27,86.0,12.53,2641434.0,GB,-4.2167,51.0333,13.0,1685582443.0
551,Rio Grande,61.02,84.0,0.87,3451138.0,BR,-52.0986,-32.035,2.0,1685582445.0
552,Gejiu,70.07,64.0,4.74,1810240.0,CN,103.1635,23.306,75.0,1685582447.0
553,Opuwo,56.44,46.0,1.97,3354077.0,NA,13.84,-18.0607,0.0,1685582449.0
554,La Ronge,68.25,64.0,14.97,6050066.0,CA,-105.2842,55.1001,75.0,1685582451.0
555,Yazykovo,66.7,70.0,9.44,468483.0,RU,56.1353,55.2199,100.0,1685582453.0
556,Batticaloa,80.02,81.0,4.68,1250161.0,LK,81.6924,7.7102,68.0,1685582455.0
557,Khasan,62.44,72.0,6.87,2039557.0,RU,130.6434,42.4308,100.0,1685582457.0
558,Kattivākkam,85.06,87.0,14.54,1267433.0,IN,80.3167,13.2167,100.0,1685582460.0
559,Arrondissement de Saint-Denis,62.29,73.0,12.66,2980915.0,FR,2.3333,48.9167,0.0,1685582462.0
560,Ende,79.27,79.0,4.85,1644932.0,ID,121.6623,-8.8432,88.0,1685582464.0
561,Harlingen,82.17,78.0,12.66,4696233.0,US,-97.6961,26.1906,0.0,1685582232.0
562,Zhicheng,77.07,70.0,3.06,1784554.0,CN,111.5047,30.2956,89.0,1685582468.0
563,Havelock,70.12,75.0,12.66,4470244.0,US,-76.9013,34.8791,100.0,1685582371.0
564,Madimba,73.51,90.0,6.93,878141.0,TZ,40.3333,-10.4,20.0,1685582472.0
565,Pacific Grove,55.45,79.0,9.22,5380437.0,US,-121.9166,36.6177,75.0,1685582245.0
566,Esim,79.38,88.0,6.04,2303611.0,GH,-2.2405,4.8699,100.0,1685582477.0
567,Gorontalo,85.24,70.0,5.26,1643837.0,ID,123.0595,0.5412,100.0,1685582479.0
568,Vaitape,77.16,64.0,15.48,4033077.0,PF,-151.75,-16.5167,2.0,1685582481.0
569,Ottawa,75.43,48.0,0.0,6094817.0,CA,-75.6981,45.4112,0.0,1685582382.0
570,Petropavl,66.18,55.0,8.95,1520172.0,KZ,69.1628,54.8753,0.0,1685582485.0
571,Bossangoa,70.63,92.0,2.93,2388036.0,CF,17.4552,6.4926,100.0,1685582487.0
572,Lavrentiya,31.82,94.0,6.11,4031637.0,RU,-171.0,65.5833,100.0,1685582490.0
573,Muskegon,77.92,59.0,5.75,5003136.0,US,-86.1334,43.3,40.0,1685582215.0
574,Lālmohan,85.53,74.0,9.66,1185251.0,BD,90.7419,22.3384,100.0,1685582494.0
575,Gainesville,76.89,66.0,6.91,4156404.0,US,-82.3248,29.6516,0.0,1685582321.0
