,City,Temp_max,Humidity,wind_speed,city_id,country_code,long,lat,Cloudiness,datetime
0,Flin Flon,64.24,72.0,8.05,5954718.0,CA,-101.865,54.7682,0.0,1685548803.0
1,Severo-Kuril'sk,38.82,96.0,5.93,2121385.0,RU,156.125,50.6789,100.0,1685548806.0
2,Codrington,54.03,77.0,15.1,2171099.0,AU,141.9667,-38.2667,100.0,1685548808.0
3,Bredasdorp,59.4,92.0,7.31,1015776.0,ZA,20.0403,-34.5322,100.0,1685548813.0
4,Kindersley,71.62,40.0,5.75,5992154.0,CA,-109.1682,51.4668,20.0,1685548821.0
5,Kavieng,83.08,77.0,11.25,2094342.0,PG,150.7967,-2.5744,29.0,1685548829.0
6,Brae,48.92,85.0,11.68,2654970.0,GB,-1.353,60.3964,100.0,1685548835.0
7,Hithadhoo,83.17,77.0,11.77,1282256.0,MV,73.0833,-0.6,100.0,1685548838.0
8,Ponta Delgada,68.72,77.0,12.66,3372783.0,PT,-25.6667,37.7333,40.0,1685548840.0
9,Kaitangata,45.05,89.0,3.89,2208248.0,NZ,169.8464,-46.2817,91.0,1685548842.0
10,Neiafu,77.68,83.0,5.75,4032420.0,TO,-173.9833,-18.65,20.0,1685548844.0
11,Busselton,60.15,84.0,16.69,2075265.0,AU,115.3333,-33.65,64.0,1685548846.0
12,Kudahuvadhoo,82.94,77.0,16.69,1337607.0,MV,72.8944,2.6708,100.0,1685548849.0
13,Port Macquarie,48.88,69.0,2.82,2152659.0,AU,152.9167,-31.4333,54.0,1685548851.0
14,Jamestown,77.04,44.0,3.44,5122534.0,US,-79.2353,42.097,0.0,1685548621.0
15,Nantucket,60.46,79.0,9.22,4944903.0,US,-70.0995,41.2835,0.0,1685548593.0
16,São João da Barra,73.49,80.0,11.68,3448903.0,BR,-41.0511,-21.6403,100.0,1685548682.0
17,Castlebar,68.34,56.0,7.31,2965654.0,IE,-9.3,53.85,5.0,1685548859.0
18,Katobu,73.36,96.0,4.0,1640972.0,ID,122.5276,-4.9408,50.0,1685548861.0
19,Port Lincoln,59.43,93.0,7.11,2063036.0,AU,135.8667,-34.7333,1.0,1685548864.0
20,Padampur,80.85,58.0,14.03,1260938.0,IN,73.6167,29.6833,59.0,1685548867.0
21,Cayenne,87.84,62.0,11.5,3382160.0,GF,-52.3333,4.9333,40.0,1685548804.0
22,Norman Wells,50.04,87.0,4.61,6089245.0,CA,-126.8329,65.282,100.0,1685548592.0
23,Upernavik,33.17,99.0,2.93,3418910.0,GL,-56.1549,72.7868,100.0,1685548873.0
24,Ushuaia,42.46,75.0,8.05,3833367.0,AR,-68.3,-54.8,20.0,1685548875.0
25,Tasiilaq,39.36,97.0,4.97,3424607.0,GL,-37.6368,65.6145,100.0,1685548877.0
26,Thunder Bay,60.71,72.0,6.91,6166142.0,CA,-89.3168,48.4001,75.0,1685548880.0
27,Provideniya,38.08,75.0,5.48,4031574.0,RU,-173.3,64.3833,83.0,1685548882.0
28,Cap Malheureux,72.46,71.0,1.01,934649.0,MU,57.6142,-19.9842,0.0,1685548884.0
29,West Wendover,65.41,37.0,4.61,5710035.0,US,-114.0733,40.7391,0.0,1685548806.0
30,Tautira,75.96,71.0,16.71,4033557.0,PF,-149.15,-17.7333,91.0,1685548888.0
31,Avarua,64.45,82.0,2.3,4035715.0,CK,-159.775,-21.2078,100.0,1685548890.0
32,Punta Arenas,42.53,75.0,6.91,3874787.0,CL,-70.9167,-53.15,0.0,1685548787.0
33,Ozernovskiy,39.54,95.0,5.14,2122293.0,RU,156.5167,51.5,100.0,1685548895.0
34,Aksu,76.33,18.0,1.41,1529660.0,CN,80.2644,41.1231,55.0,1685548897.0
35,Arrondissement d'Ajaccio,67.98,68.0,5.75,3038333.0,FR,8.9167,42.0,0.0,1685548899.0
36,Cabedelo,84.87,74.0,11.7,3404558.0,BR,-34.8339,-6.9811,26.0,1685548902.0
37,Dikson,30.15,98.0,6.17,1507390.0,RU,80.5464,73.5069,83.0,1685548905.0
38,Hobart,49.77,75.0,20.71,2163355.0,AU,147.3294,-42.8794,75.0,1685548803.0
39,Vestmannaeyjar,49.19,81.0,20.71,3412093.0,IS,-20.2734,63.4427,20.0,1685548909.0
40,Alofi,64.29,94.0,2.3,4036284.0,NU,-169.9187,-19.0595,97.0,1685548911.0
41,Carnarvon,70.38,80.0,11.54,2074865.0,AU,113.6333,-24.8667,1.0,1685548914.0
42,Saint-Philippe,72.99,80.0,9.57,935215.0,RE,55.7679,-21.3585,51.0,1685548916.0
43,Cabra,76.86,31.0,6.26,2520645.0,ES,-4.4421,37.4725,23.0,1685548918.0
44,Feldbach,73.4,49.0,3.15,2779685.0,AT,15.8883,46.9531,69.0,1685548920.0
45,Tual,82.08,82.0,18.34,1623197.0,ID,132.75,-5.6667,78.0,1685548922.0
46,Longyearbyen,35.44,80.0,3.44,2729907.0,SJ,15.6401,78.2186,75.0,1685548926.0
47,Dukat,44.6,69.0,3.6,2125906.0,RU,155.55,62.55,100.0,1685548928.0
48,Jalu,100.96,11.0,13.06,86049.0,LY,21.5482,29.0331,23.0,1685548930.0
49,Vaini,75.36,88.0,4.61,4032243.0,TO,-175.2,-21.2,75.0,1685548932.0
50,Albany,76.8,43.0,1.01,5106841.0,US,-73.9662,42.6001,1.0,1685548801.0
51,Karaton,74.75,89.0,2.51,1630058.0,ID,106.1045,-6.3424,56.0,1685548937.0
52,Saldanha,60.85,90.0,2.17,3361934.0,ZA,17.9442,-33.0117,78.0,1685548939.0
53,Castro,61.2,82.0,4.65,3466704.0,BR,-50.0119,-24.7911,98.0,1685548876.0
54,Inhambane,77.0,73.0,9.22,1045114.0,MZ,35.3833,-23.865,20.0,1685548943.0
55,Mataura,44.28,92.0,4.52,6201424.0,NZ,168.8643,-46.1927,64.0,1685548945.0
56,Puerto Ayora,80.55,94.0,8.99,3652764.0,EC,-90.3518,-0.7393,78.0,1685548947.0
57,Arraial do Cabo,69.66,88.0,16.11,3471451.0,BR,-42.0278,-22.9661,75.0,1685548950.0
58,Obihiro,46.15,69.0,4.32,2128815.0,JP,143.2044,42.9172,2.0,1685548952.0
59,Penzance,60.44,72.0,11.5,2640377.0,GB,-5.5371,50.1186,20.0,1685548954.0
60,Butaritari,82.15,78.0,9.82,2110227.0,KI,172.7902,3.0707,96.0,1685548956.0
61,Rikitea,77.43,87.0,24.72,4030556.0,PF,-134.9692,-23.1203,100.0,1685548958.0
62,Namatanai,79.61,84.0,7.16,2090021.0,PG,152.4333,-3.6667,92.0,1685548961.0
63,Isangel,74.48,75.0,10.63,2136825.0,VU,169.2667,-19.55,88.0,1685548963.0
64,Saint George,71.67,22.0,3.44,5546220.0,US,-113.5841,37.1041,0.0,1685548888.0
65,Kruisfontein,56.88,90.0,5.08,986717.0,ZA,24.7314,-34.0033,85.0,1685548967.0
66,Mwinilunga,71.01,47.0,5.55,902620.0,ZM,24.4293,-11.7358,100.0,1685548969.0
67,Port Alfred,58.17,90.0,1.01,964432.0,ZA,26.891,-33.5906,97.0,1685548971.0
68,Marzuq,79.88,56.0,10.11,72181.0,YE,46.4667,14.4,30.0,1685548973.0
69,Puerto Escondido,87.64,63.0,7.65,3520994.0,MX,-97.0667,15.85,15.0,1685548975.0
70,Sivaki,47.03,75.0,4.72,2016477.0,RU,126.75,52.6333,75.0,1685548978.0
71,Yellowknife,57.72,58.0,9.22,6185377.0,CA,-114.3525,62.456,75.0,1685548887.0
72,Canchungo,87.93,57.0,11.61,2373951.0,GW,-16.0333,12.0672,100.0,1685548982.0
73,Östersund,45.05,39.0,19.57,2685750.0,SE,14.6357,63.1792,40.0,1685548985.0
74,Fort Nelson,54.95,44.0,5.01,5955902.0,CA,-122.7002,58.8053,40.0,1685548987.0
75,Castelo Branco,73.22,52.0,7.72,2269514.0,PT,-7.4909,39.8222,87.0,1685548989.0
76,Black River,84.92,71.0,15.46,3491355.0,JM,-77.8487,18.0264,100.0,1685548991.0
77,Atuona,80.46,77.0,13.27,4020109.0,PF,-139.0333,-9.8,6.0,1685548993.0
78,Birao,92.28,34.0,6.6,240210.0,CF,22.7882,10.2849,84.0,1685548995.0
79,Ekhabi,35.26,98.0,9.19,2122614.0,RU,142.9671,53.5102,100.0,1685548998.0
80,Barrow,30.22,93.0,9.22,5880054.0,US,-156.7887,71.2906,100.0,1685549000.0
81,Hilo,69.26,96.0,3.0,5855927.0,US,-155.09,19.7297,100.0,1685548845.0
82,Mehamn,40.95,93.0,12.66,778707.0,NO,27.8492,71.0357,75.0,1685549004.0
83,Shingū,58.86,97.0,3.09,1847947.0,JP,135.9833,33.7333,0.0,1685548808.0
84,George Town,89.33,68.0,4.61,1735106.0,MY,100.3354,5.4112,20.0,1685548975.0
85,Russell,74.7,78.0,6.91,4047434.0,US,-85.1999,32.3502,100.0,1685548762.0
86,Sidhi,94.48,20.0,11.12,1256369.0,IN,81.8833,24.4167,53.0,1685549012.0
87,Laramie,66.36,32.0,8.05,5830062.0,US,-105.5911,41.3114,0.0,1685549015.0
88,Bluff,51.76,84.0,15.08,2206939.0,NZ,168.3333,-46.6,75.0,1685549017.0
89,Bayir,72.12,67.0,3.4,304183.0,TR,28.2167,37.2687,78.0,1685549019.0
90,Vila Velha,74.95,84.0,3.44,3445026.0,BR,-40.2925,-20.3297,75.0,1685549021.0
91,Kapaa,71.4,84.0,11.5,5848280.0,US,-159.319,22.0752,100.0,1685549023.0
92,Margate,55.26,80.0,15.01,2643044.0,GB,1.3862,51.3813,3.0,1685548925.0
93,Kamaishi,53.78,82.0,6.73,2112444.0,JP,141.8833,39.2667,48.0,1685549027.0
94,Stăncuţa,74.34,46.0,7.47,666309.0,RO,27.8333,44.9,76.0,1685549030.0
95,Ankang,68.07,91.0,3.71,1789065.0,CN,109.0172,32.68,100.0,1685549032.0
96,Port Elizabeth,60.69,88.0,8.05,964420.0,ZA,25.5701,-33.918,0.0,1685548889.0
97,Morant Bay,83.82,81.0,11.07,3489440.0,JM,-76.4093,17.8815,100.0,1685549036.0
98,São Miguel,88.57,65.0,14.32,3388304.0,BR,-35.3667,-5.4667,28.0,1685549038.0
99,Guerrero Negro,61.75,66.0,18.19,4021858.0,MX,-114.0611,27.9769,96.0,1685549040.0
100,Husavik,52.63,59.0,4.81,2629833.0,IS,-17.3389,66.0449,7.0,1685549043.0
101,Ahipara,53.82,92.0,8.12,2194098.0,NZ,173.1667,-35.1667,51.0,1685549045.0
102,Saint Paul Harbor,42.31,87.0,4.61,5866583.0,US,-152.4072,57.79,100.0,1685549047.0
103,Mahébourg,73.69,73.0,5.75,934322.0,MU,57.7,-20.4081,20.0,1685549049.0
104,Mount Isa,42.57,70.0,0.0,2065594.0,AU,139.5,-20.7333,0.0,1685549051.0
105,Te Anau,52.57,93.0,6.33,2181625.0,NZ,167.7167,-45.4167,100.0,1685549054.0
106,Alenquer,88.25,56.0,7.23,3407980.0,BR,-54.7383,-1.9417,25.0,1685549056.0
107,São Miguel do Araguaia,92.14,36.0,4.03,3448455.0,BR,-50.1628,-13.275,49.0,1685549058.0
108,Kriel,58.8,83.0,7.0,987202.0,ZA,29.2253,-26.2739,30.0,1685549060.0
109,Marsh Harbour,78.35,80.0,10.16,3571913.0,BS,-77.0636,26.5412,100.0,1685549062.0
110,Souillac,73.78,73.0,5.75,933995.0,MU,57.5167,-20.5167,20.0,1685548882.0
111,Tigil',47.48,67.0,20.54,2120612.0,RU,158.6667,57.8,100.0,1685549067.0
112,Kaeo,53.78,91.0,4.76,2189343.0,NZ,173.7833,-35.1,30.0,1685549069.0
113,Cape Town,61.36,86.0,11.5,3369157.0,ZA,18.4232,-33.9258,75.0,1685548833.0
114,Cidreira,71.1,59.0,3.53,3466165.0,BR,-50.2056,-30.1811,0.0,1685549073.0
115,Khatanga,44.49,63.0,8.63,2022572.0,RU,102.5,71.9667,99.0,1685549075.0
116,Karlshamn,73.89,43.0,13.22,2701727.0,SE,14.8619,56.1706,9.0,1685549078.0
117,Pevek,22.77,92.0,5.37,2122090.0,RU,170.3133,69.7008,71.0,1685549080.0
118,Mar del Plata,59.95,77.0,12.66,3430863.0,AR,-57.5575,-38.0023,0.0,1685549082.0
119,Gobabis,65.34,15.0,10.78,3357247.0,NA,18.9667,-22.45,1.0,1685549084.0
120,Gaoyou,69.53,88.0,4.94,1810309.0,CN,119.4278,32.7858,85.0,1685549086.0
121,Bethel,71.67,39.0,5.75,5282297.0,US,-73.414,41.3712,0.0,1685549088.0
122,Santa Maria da Vitória,90.37,32.0,5.79,3450063.0,BR,-44.1886,-13.3947,3.0,1685549090.0
123,Banda Aceh,80.35,77.0,13.6,1215502.0,ID,95.3222,5.5577,98.0,1685549093.0
124,Georgiyevka,77.04,23.0,17.9,1524243.0,KZ,74.7114,43.0369,0.0,1685549096.0
125,Zonguldak,61.43,80.0,3.38,737021.0,TR,31.8333,41.25,99.0,1685549098.0
126,Booué,75.18,96.0,2.39,2401495.0,GA,11.9385,-0.0921,100.0,1685549100.0
127,Siyabuswa,63.66,72.0,3.67,955313.0,ZA,29.0445,-25.1132,68.0,1685549102.0
128,Dunedin,46.76,85.0,4.23,2191562.0,NZ,170.5036,-45.8742,31.0,1685548849.0
129,Roald,49.15,87.0,5.75,3141667.0,NO,6.1333,62.5833,75.0,1685549106.0
130,Tweed,82.85,50.0,4.27,6170799.0,CA,-77.3162,44.4751,2.0,1685549109.0
131,Nanortalik,38.93,97.0,10.89,3421765.0,GL,-45.2371,60.1432,100.0,1685549111.0
132,Port Blair,82.44,78.0,4.61,1259385.0,IN,92.75,11.6667,40.0,1685549113.0
133,Lubango,68.54,43.0,6.29,3347762.0,AO,13.4925,-14.9172,1.0,1685549116.0
134,Shumskiy,49.53,94.0,4.65,1491977.0,RU,99.1328,54.8318,99.0,1685549118.0
135,San Cristobal,78.98,53.0,6.35,3628473.0,VE,-72.225,7.7669,90.0,1685549120.0
136,Nioro,96.42,33.0,7.74,2412408.0,GM,-15.75,13.35,98.0,1685549122.0
137,Thompson,44.76,93.0,10.36,6165406.0,CA,-97.8558,55.7435,100.0,1685549124.0
138,Manaus,88.29,66.0,8.05,3663517.0,BR,-60.025,-3.1019,40.0,1685549126.0
139,Laguna,59.04,75.0,10.36,5364271.0,US,-121.4238,38.421,100.0,1685549129.0
140,Hermanus,60.8,88.0,5.08,3366880.0,ZA,19.2345,-34.4187,100.0,1685549132.0
141,Westport,68.25,62.0,3.0,4845585.0,US,-73.3579,41.1415,1.0,1685549134.0
142,Dicabisagan,81.27,75.0,8.19,1715015.0,PH,122.4157,17.0818,83.0,1685549136.0
143,Newport,64.33,71.0,14.56,2641598.0,GB,-2.9984,51.5877,100.0,1685549138.0
144,Tateyama,65.5,78.0,4.47,1850523.0,JP,139.8667,34.9833,70.0,1685549140.0
145,Kuznechikha,62.31,71.0,5.03,537760.0,RU,42.3348,57.2161,77.0,1685548886.0
146,Poum,73.09,69.0,8.99,2138555.0,NC,164.0167,-20.2333,78.0,1685549145.0
147,Chokurdakh,26.19,86.0,5.84,2126123.0,RU,147.9167,70.6333,82.0,1685549147.0
148,Coquimbo,69.53,49.0,3.44,3893629.0,CL,-71.3436,-29.9533,0.0,1685549091.0
149,Ust-Nera,46.53,86.0,7.52,2120048.0,RU,143.2,64.5667,5.0,1685549151.0
150,Kavaratti,86.14,69.0,3.56,1267390.0,IN,72.642,10.5669,100.0,1685549158.0
151,Eruwa,87.62,62.0,8.3,2338669.0,NG,3.4167,7.5333,93.0,1685549160.0
152,Polyarny,44.73,83.0,6.02,506763.0,RU,33.4478,69.1989,100.0,1685549162.0
153,Ribeira Grande,70.2,78.0,6.91,3372707.0,PT,-28.7,38.5167,20.0,1685549165.0
154,Kalemie,74.77,64.0,4.5,214974.0,CD,29.1947,-5.9475,0.0,1685549167.0
155,Tuktoyaktuk,39.2,100.0,11.5,6170031.0,CA,-133.0374,69.4541,75.0,1685549169.0
156,Tomatlán,87.94,49.0,3.29,3981391.0,MX,-105.25,19.9333,1.0,1685549172.0
157,Bratca,66.72,79.0,2.71,683837.0,RO,22.6167,46.9333,35.0,1685549174.0
158,Chiang Khong,77.5,81.0,2.37,1611197.0,TH,100.4046,20.2613,77.0,1685549176.0
159,Gijang,60.53,67.0,6.42,1842966.0,KR,129.2139,35.2442,54.0,1685549178.0
160,Vao,71.64,66.0,18.79,2137773.0,NC,167.4833,-22.6667,89.0,1685549181.0
161,Marawi,70.84,87.0,5.88,1701054.0,PH,124.2928,7.9986,100.0,1685549184.0
162,Kununurra,51.78,82.0,0.0,2068110.0,AU,128.7333,-15.7667,73.0,1685549186.0
163,Ponta do Sol,69.55,82.0,11.25,2264557.0,PT,-17.1,32.6667,92.0,1685549188.0
164,Vanimo,78.48,88.0,1.03,2084442.0,PG,141.3028,-2.6741,25.0,1685549195.0
165,Kenai,45.32,81.0,14.97,5866063.0,US,-151.2583,60.5544,0.0,1685549022.0
166,Tarnogskiy Gorodok,58.84,82.0,4.61,484314.0,RU,43.5761,60.4997,52.0,1685549199.0
167,Tottori-shi,59.16,64.0,6.11,1849892.0,JP,134.2333,35.5,52.0,1685549163.0
168,Baracoa,84.74,68.0,1.05,3567834.0,CU,-74.4958,20.3467,100.0,1685549204.0
169,Krasnyy Kholm,58.44,57.0,6.73,541704.0,RU,37.1203,58.0607,20.0,1685549206.0
170,Nabire,77.4,92.0,2.8,1634614.0,ID,135.4833,-3.3667,99.0,1685549208.0
171,Zaysan,55.54,51.0,8.61,1517060.0,KZ,84.8667,47.4667,7.0,1685548922.0
172,New Norfolk,44.76,69.0,5.99,2155415.0,AU,147.0587,-42.7826,78.0,1685549212.0
173,Muhos,51.76,49.0,11.7,645765.0,FI,25.9931,64.808,31.0,1685549214.0
174,Sabzawār,90.27,9.0,9.08,118063.0,IR,57.6819,36.2126,34.0,1685549216.0
175,Catuday,82.56,77.0,12.26,1717787.0,PH,119.8062,16.2923,100.0,1685549219.0
176,Enshi,74.64,91.0,0.96,1811720.0,CN,109.4833,30.3,100.0,1685549221.0
177,Timiryazevskiy,60.53,60.0,1.7,1489597.0,RU,84.8769,56.49,17.0,1685549223.0
178,Aklavik,49.84,66.0,6.44,5882953.0,CA,-135.0107,68.2191,56.0,1685549225.0
179,Pochutla,87.82,50.0,6.15,3517970.0,MX,-96.4661,15.7432,6.0,1685549227.0
180,Bathsheba,81.21,94.0,14.97,3374083.0,BB,-59.5167,13.2167,75.0,1685549230.0
181,Salalah,86.09,79.0,5.75,286621.0,OM,54.0924,17.0151,40.0,1685549232.0
182,Airai,56.05,86.0,2.55,1651810.0,TL,125.4092,-8.9266,82.0,1685549234.0
183,Fuyang,74.3,60.0,4.21,1810845.0,CN,115.8167,32.9,99.0,1685549236.0
184,Makakilo City,70.39,80.0,4.61,5850554.0,US,-158.0858,21.3469,0.0,1685549238.0
185,Impfondo,81.95,71.0,2.64,2259655.0,CG,18.0667,1.6381,83.0,1685549240.0
186,Anloga,84.61,73.0,14.9,2304548.0,GH,0.8973,5.7947,70.0,1685549243.0
187,Chui,67.3,62.0,0.81,3443061.0,UY,-53.4616,-33.6971,50.0,1685549245.0
188,Nishihara,79.88,89.0,32.21,1855342.0,JP,127.7558,26.1842,75.0,1685549247.0
189,Bariloche,49.75,62.0,20.71,7647007.0,AR,-71.3082,-41.1456,40.0,1685549249.0
190,Kristianstad,68.14,45.0,14.97,2699310.0,SE,14.1524,56.0313,0.0,1685549197.0
191,Cabo San Lucas,77.5,54.0,5.99,3985710.0,MX,-109.9124,22.8909,0.0,1685549037.0
192,Hunchun,50.79,87.0,1.97,2036653.0,CN,130.3581,42.8675,84.0,1685549256.0
193,Aykhal,37.24,60.0,6.22,2027296.0,RU,111.5,66.0,8.0,1685549258.0
194,Nchelenge,73.69,61.0,3.94,175499.0,ZM,28.734,-9.3451,9.0,1685549260.0
195,Hobyo,82.98,77.0,24.67,57000.0,SO,48.5268,5.3505,28.0,1685549262.0
196,Pechenga,46.65,81.0,4.25,511865.0,RU,31.1703,69.5259,100.0,1685549264.0
197,Hambantota,80.94,100.0,8.05,1244926.0,LK,81.1185,6.1241,40.0,1685549266.0
198,Lompoc,59.05,83.0,9.22,5367788.0,US,-120.4579,34.6391,100.0,1685549268.0
199,Hasaki,59.4,78.0,2.3,2112802.0,JP,140.8333,35.7333,34.0,1685549271.0
200,Departamento de Maldonado,65.37,50.0,3.69,3441890.0,UY,-54.9167,-34.6667,97.0,1685549273.0
201,Naze,74.1,92.0,13.62,1855540.0,JP,129.4833,28.3667,100.0,1685549275.0
202,Nikolskoye,58.68,72.0,8.7,546105.0,RU,30.7861,59.7035,99.0,1685549277.0
203,Dul'durga,50.05,55.0,6.04,2024812.0,RU,113.5931,50.6761,93.0,1685549279.0
204,Leh,49.93,58.0,4.23,1264976.0,IN,77.5833,34.1667,99.0,1685549281.0
205,Lata,70.92,76.0,5.5,2738381.0,PT,-8.3327,40.1629,83.0,1685549283.0
206,Tiksi,25.86,87.0,5.73,2015306.0,RU,128.8694,71.6872,100.0,1685549286.0
207,Qaanaaq,20.84,65.0,2.93,3831208.0,GL,-69.3632,77.484,2.0,1685549288.0
208,Ilulissat,37.42,93.0,5.75,3423146.0,GL,-51.1,69.2167,75.0,1685549290.0
209,Saint-Augustin,57.29,59.0,7.81,6137462.0,CA,-58.6502,51.226,99.0,1685549297.0
210,Saskylakh,35.53,85.0,7.11,2017155.0,RU,114.0833,71.9167,100.0,1685549299.0
211,Tessalit,99.93,5.0,18.79,2449893.0,ML,1.0114,20.1986,100.0,1685549307.0
212,Rayong,86.07,83.0,7.96,1607016.0,TH,101.4333,12.8333,74.0,1685549309.0
213,Sur,93.06,48.0,12.84,286245.0,OM,59.5289,22.5667,6.0,1685549311.0
214,Bereket,95.14,6.0,9.71,161974.0,TM,55.5154,39.2446,86.0,1685549313.0
215,Staraya Kulatka,67.01,80.0,8.77,489164.0,RU,47.6167,52.7167,30.0,1685549315.0
216,Roswell,70.41,81.0,6.91,4219934.0,US,-84.3616,34.0232,100.0,1685549282.0
217,Santa Luzia,75.96,51.0,6.91,3450144.0,BR,-43.8514,-19.7697,0.0,1685549035.0
218,São Filipe,77.59,68.0,16.49,3374210.0,CV,-24.4956,14.8961,85.0,1685549322.0
219,San Luis,68.67,42.0,9.46,3837056.0,AR,-66.3356,-33.295,3.0,1685549230.0
220,Fairbanks,46.06,84.0,11.5,5861897.0,US,-147.7164,64.8378,75.0,1685549326.0
221,Sibolga,77.32,88.0,3.2,1213855.0,ID,98.7792,1.7427,82.0,1685549328.0
222,Pahrump,70.02,33.0,3.0,5509851.0,US,-115.9839,36.2083,53.0,1685549330.0
223,Narsaq,43.02,98.0,3.83,3421719.0,GL,-46.05,60.9167,100.0,1685549332.0
224,Hamilton,82.0,56.0,5.75,4513583.0,US,-84.5333,39.1834,0.0,1685549148.0
225,Fortuna,52.09,87.0,8.05,5563839.0,US,-124.1573,40.5982,75.0,1685549336.0
226,Ayan,39.34,99.0,9.08,2027316.0,RU,138.1667,56.45,100.0,1685549338.0
227,El Dorado,58.93,74.0,1.01,5345659.0,US,-120.5177,38.7666,68.0,1685549341.0
228,Leonidovo,40.21,89.0,6.31,2123805.0,RU,142.8667,49.2833,100.0,1685549348.0
229,Chicama,72.14,64.0,8.66,3698359.0,PE,-79.1469,-7.8447,20.0,1685549350.0
230,Umluj,84.09,52.0,8.75,100926.0,SA,37.2685,25.0213,0.0,1685549352.0
231,Acapulco de Juárez,87.96,58.0,5.19,3533462.0,MX,-99.8901,16.8634,4.0,1685549186.0
232,Santa Maria,70.5,60.0,1.99,3450083.0,BR,-53.8069,-29.6842,64.0,1685549356.0
233,Ubinskoye,60.87,59.0,4.88,1488708.0,RU,79.6802,55.3068,9.0,1685549359.0
234,Flinders,66.96,60.0,5.99,6255012.0,AU,150.8552,-34.5833,86.0,1685549361.0
235,Broome,80.19,40.0,1.01,5110365.0,US,-75.833,42.2506,0.0,1685549363.0
236,Mossamedes,70.2,66.0,8.23,3347019.0,AO,12.1522,-15.1961,1.0,1685549365.0
237,Orange Cove,65.52,71.0,0.0,5379533.0,US,-119.3137,36.6244,0.0,1685549367.0
238,Barra Patuca,88.48,57.0,9.86,3614835.0,HN,-84.2833,15.8,90.0,1685549369.0
239,Arlit,107.28,8.0,16.04,2447513.0,NE,7.3853,18.7369,40.0,1685549371.0
240,Chilia Veche,71.91,49.0,3.2,682117.0,RO,29.2833,45.4167,82.0,1685549374.0
241,Conde,87.26,62.0,10.36,3385077.0,BR,-34.9075,-7.2597,40.0,1685549376.0
242,Bulungu,78.87,74.0,4.36,2316259.0,CD,18.6,-4.55,49.0,1685549378.0
243,Baker City,58.03,42.0,9.22,5712169.0,US,-117.8344,44.7749,100.0,1685549380.0
244,Rājākhera,92.68,29.0,2.84,1258930.0,IN,78.1714,26.8961,2.0,1685549382.0
245,Portland,54.19,66.0,10.36,5746545.0,US,-122.6762,45.5234,75.0,1685549261.0
246,Birkeland,69.13,30.0,12.66,3161532.0,NO,8.2323,58.3309,0.0,1685549386.0
247,Dvinskoy Bereznik,61.16,45.0,5.37,577240.0,RU,42.7072,62.8551,60.0,1685549388.0
248,Jalingo,90.82,50.0,5.53,2336589.0,NG,11.3667,8.8833,51.0,1685549391.0
249,Yar-Sale,58.06,59.0,14.99,1486321.0,RU,70.8333,66.8333,100.0,1685549393.0
250,Tafresh,65.21,55.0,1.16,113636.0,IR,50.013,34.692,90.0,1685549395.0
251,Homer,44.51,82.0,4.61,5864145.0,US,-151.5483,59.6425,100.0,1685549397.0
252,Mandalgovi,42.78,84.0,12.06,2030065.0,MN,106.2708,45.7625,94.0,1685549399.0
253,Kibala,96.35,33.0,5.17,2425791.0,TD,18.3463,9.1104,64.0,1685549401.0
254,Ulladulla,64.31,59.0,12.33,2145554.0,AU,150.4667,-35.35,100.0,1685549404.0
255,Sitka,46.29,76.0,3.44,5557293.0,US,-135.33,57.0531,75.0,1685549406.0
256,Leningradskiy,28.56,93.0,9.46,2123814.0,RU,178.4167,69.3833,100.0,1685549408.0
257,Takāb,63.09,53.0,5.82,113508.0,IR,47.1133,36.4009,15.0,1685549411.0
258,Tarancón,70.48,42.0,6.67,3108317.0,ES,-3.0073,40.0085,81.0,1685549413.0
259,Goderich,71.91,64.0,8.32,5962442.0,CA,-81.7165,43.7501,2.0,1685549415.0
260,Rosa Zarate,82.8,82.0,1.16,3652257.0,EC,-79.4667,0.3333,91.0,1685549417.0
261,Luganville,77.13,88.0,8.48,2136150.0,VU,167.1667,-15.5333,100.0,1685549419.0
262,Druzhba,59.76,58.0,9.95,709584.0,UA,33.9453,52.0428,4.0,1685549422.0
263,Valea lui Mihai,80.31,60.0,9.89,663692.0,RO,22.15,47.5167,18.0,1685549424.0
264,Ancud,53.62,83.0,7.67,3899695.0,CL,-73.8203,-41.8697,94.0,1685549427.0
265,Matagami,83.82,30.0,11.39,6067747.0,CA,-77.6328,49.7502,44.0,1685549339.0
266,Peniche,68.9,76.0,10.07,2264923.0,PT,-9.3811,39.3558,2.0,1685549431.0
267,Miraflores,71.02,46.0,3.76,3761194.0,MX,-98.8083,19.2167,3.0,1685549433.0
268,Lebu,57.25,86.0,7.11,3883457.0,CL,-73.65,-37.6167,99.0,1685549435.0
269,Crawley,65.86,57.0,17.27,2652053.0,GB,-0.1831,51.113,20.0,1685549437.0
270,Khonsa,73.27,70.0,4.18,1266668.0,IN,95.5667,27.0167,0.0,1685549439.0
271,Yumen,60.57,20.0,6.4,1528998.0,CN,97.2,40.2833,95.0,1685549441.0
272,Bubaque,82.08,83.0,15.19,2374583.0,GW,-15.8333,11.2833,100.0,1685549444.0
273,Ribas do Rio Pardo,75.87,66.0,0.58,3451399.0,BR,-53.7592,-20.4431,43.0,1685549446.0
274,Malbork,75.88,56.0,7.18,3092472.0,PL,19.0266,54.0359,10.0,1685549448.0
275,Saint-Leu,69.21,91.0,10.69,6690297.0,RE,55.2833,-21.15,13.0,1685549450.0
276,Arkhara,45.32,95.0,3.91,2027487.0,RU,130.0842,49.4212,17.0,1685549452.0
277,Tura,81.91,47.0,3.4,1254046.0,IN,90.2201,25.5198,9.0,1685549454.0
278,Ingham,84.74,46.0,6.91,4997130.0,US,-84.3833,42.6,0.0,1685549456.0
279,Sarandi,66.74,83.0,0.63,3447998.0,BR,-51.8739,-23.4436,91.0,1685549458.0
280,Biak,76.77,87.0,6.91,1637001.0,ID,122.8766,-0.9131,94.0,1685549461.0
281,Nieuw Amsterdam,89.8,68.0,2.3,3383434.0,SR,-55.0833,5.8833,40.0,1685549463.0
282,Boundiali,96.67,34.0,4.05,2290836.0,CI,-6.4869,9.5217,99.0,1685549465.0
283,Aitape,79.07,88.0,3.04,2101169.0,PG,142.3475,-3.1374,83.0,1685549467.0
284,Manadhoo,83.79,77.0,9.89,1337618.0,MV,73.3833,5.7667,99.0,1685549469.0
285,Ca Mau,80.46,86.0,4.16,1586443.0,VN,105.15,9.1769,63.0,1685549224.0
286,San Patricio,85.96,59.0,11.16,4726521.0,US,-97.5169,28.017,11.0,1685549473.0
287,Portree,62.53,68.0,11.39,2640006.0,GB,-6.1942,57.4129,10.0,1685549475.0
288,Srednekolymsk,37.2,91.0,9.89,2121025.0,RU,153.6833,67.45,100.0,1685549478.0
289,Zhangaözen,88.66,9.0,10.18,607610.0,KZ,52.8,43.3,81.0,1685549480.0
290,Mayo,69.19,63.0,9.22,4362001.0,US,-76.5119,38.8876,0.0,1685549482.0
291,Hualmay,72.34,70.0,7.45,3939761.0,PE,-77.6139,-11.0964,55.0,1685549485.0
292,Púchov,75.16,49.0,7.96,3057963.0,SK,18.326,49.1249,17.0,1685549487.0
293,Hong Kong,87.31,85.0,5.99,1819729.0,HK,114.1577,22.2855,72.0,1685549215.0
294,Dzilam González,91.45,47.0,3.09,3529654.0,MX,-88.9333,21.2833,0.0,1685549493.0
295,Sistranda,44.56,78.0,19.53,3139597.0,NO,8.834,63.7256,100.0,1685549500.0
296,Ondjiva,80.76,25.0,4.7,3346821.0,AO,15.7333,-17.0667,0.0,1685549502.0
297,Taguatinga,92.12,30.0,5.91,6319623.0,BR,-46.5711,-12.3857,31.0,1685549504.0
298,Evensk,46.8,82.0,9.4,2125693.0,RU,159.2333,61.95,100.0,1685549506.0
299,Katsuura,65.64,77.0,4.47,2112309.0,JP,140.3,35.1333,66.0,1685549508.0
300,Ambovombe,70.65,74.0,13.31,1079048.0,MG,46.0833,-25.1667,97.0,1685549510.0
301,Pisco,68.05,73.0,3.44,3932145.0,PE,-76.2167,-13.7,100.0,1685549513.0
302,Lala,76.87,93.0,1.72,1707944.0,PH,123.7458,7.9745,100.0,1685549515.0
303,East London,59.94,77.0,9.22,1006984.0,ZA,27.9116,-33.0153,20.0,1685549517.0
304,Nyurba,44.69,64.0,4.92,2018735.0,RU,118.3319,63.2842,100.0,1685549519.0
305,Baykit,55.2,54.0,1.63,1510689.0,RU,96.37,61.67,36.0,1685549521.0
306,Muyezerskiy,49.71,79.0,6.89,524100.0,RU,31.65,63.9333,98.0,1685549523.0
307,Umarkot,90.84,45.0,21.88,1162959.0,PK,69.7362,25.3616,4.0,1685549526.0
308,Paamiut,36.82,95.0,34.85,3421193.0,GL,-49.6678,61.994,100.0,1685549528.0
309,Gberia Fotombu,82.04,81.0,4.27,2409019.0,SL,-11.1667,9.8833,100.0,1685549530.0
310,Auki,77.86,89.0,3.94,2109701.0,SB,160.7034,-8.7676,96.0,1685549532.0
311,Timmins,84.02,28.0,6.91,6166739.0,CA,-81.3331,48.4669,20.0,1685549534.0
312,Pachino,69.85,71.0,12.15,6539213.0,IT,15.0907,36.7186,59.0,1685549373.0
313,Arrondissement d'Arcachon,75.25,53.0,11.5,6621469.0,FR,-1.0519,44.5875,0.0,1685549538.0
314,Avera,74.16,74.0,10.02,4231997.0,US,-82.5271,33.194,100.0,1685549540.0
315,Bonthe,84.96,71.0,11.05,2409914.0,SL,-12.505,7.5264,89.0,1685549543.0
316,Songjianghe,59.54,55.0,9.53,2034691.0,CN,127.479,42.1859,100.0,1685549545.0
317,Salisbury,66.88,59.0,14.97,2638664.0,GB,-1.7957,51.0693,20.0,1685549446.0
318,Xi'an,60.58,91.0,3.69,1790630.0,CN,108.9286,34.2583,61.0,1685549549.0
319,Touros,85.93,61.0,13.69,3386213.0,BR,-35.4608,-5.1989,27.0,1685549551.0
320,Boda,86.56,55.0,3.02,2388614.0,CF,17.4695,4.3189,68.0,1685549553.0
321,Mayumba,77.13,85.0,6.49,2399001.0,GA,10.6554,-3.432,45.0,1685549556.0
322,Chul'man,44.73,80.0,5.44,2025261.0,RU,124.9104,56.8479,99.0,1685549558.0
323,Tambacounda,100.45,37.0,2.3,2244991.0,SN,-13.7586,13.7539,0.0,1685549561.0
324,Bushehr,89.69,51.0,11.5,139817.0,IR,50.8385,28.9684,0.0,1685549563.0
325,Port Hardy,51.98,76.0,5.75,6111862.0,CA,-127.4199,50.6996,75.0,1685549565.0
326,Shashi,74.41,76.0,6.08,1795816.0,CN,112.2447,30.3072,48.0,1685549567.0
327,Grand-Lahou,83.8,71.0,7.54,2288105.0,CI,-5.0242,5.1367,100.0,1685549569.0
328,State College,76.19,41.0,5.75,5213681.0,US,-77.86,40.7934,0.0,1685549502.0
329,Teguise,71.82,69.0,6.91,2510573.0,ES,-13.564,29.0605,40.0,1685549325.0
330,Magdagachi,45.68,83.0,4.9,2020591.0,RU,125.8,53.45,21.0,1685549575.0
331,Gaozhou,81.54,80.0,2.33,1810295.0,CN,110.8461,21.9392,74.0,1685549578.0
332,Meulaboh,77.59,86.0,3.89,1214488.0,ID,96.1285,4.1363,100.0,1685549580.0
333,Río Gallegos,42.85,70.0,5.75,3838859.0,AR,-69.2181,-51.6226,0.0,1685549582.0
334,Chaihe,58.77,56.0,0.22,2038198.0,CN,129.7,44.7667,100.0,1685549584.0
335,Nikel,48.38,86.0,6.58,522260.0,RU,30.222,69.4128,99.0,1685549586.0
336,Beringovskiy,43.29,64.0,10.89,2126710.0,RU,179.3167,63.05,23.0,1685549588.0
337,Coyhaique,53.55,54.0,6.91,3894426.0,CL,-72.0662,-45.5752,75.0,1685549590.0
338,Vardø,44.58,87.0,2.3,777019.0,NO,31.1107,70.3705,100.0,1685549593.0
339,Talnakh,48.02,83.0,9.31,1490256.0,RU,88.3972,69.4865,100.0,1685549595.0
340,Faya,59.52,67.0,3.49,110690.0,SA,42.4509,18.3851,95.0,1685549597.0
341,Znamenskoye,62.62,61.0,2.89,1485020.0,RU,73.8282,57.1281,19.0,1685549599.0
342,Manavgat,70.38,75.0,5.7,304854.0,TR,31.4431,36.7867,97.0,1685549601.0
343,Cairns,70.34,90.0,11.5,2172797.0,AU,145.7667,-16.9167,100.0,1685549603.0
344,Klaksvík,50.92,81.0,10.27,2618795.0,FO,-6.589,62.2266,29.0,1685549605.0
345,Fonte Boa,85.37,73.0,4.59,6319315.0,BR,-66.2662,-2.4959,21.0,1685549321.0
346,Piaçabuçu,81.03,79.0,10.74,3454005.0,BR,-36.4344,-10.4056,17.0,1685549610.0
347,Havøysund,39.43,97.0,2.37,779622.0,NO,24.6622,70.9963,100.0,1685549612.0
348,Boden,53.6,32.0,16.64,606531.0,SE,21.6886,65.8252,84.0,1685549324.0
349,Nhulunbuy,75.81,78.0,9.22,2064735.0,AU,136.7667,-12.2333,75.0,1685549617.0
350,Kamenka,60.39,89.0,4.92,553766.0,RU,42.7678,51.3223,100.0,1685549619.0
351,Kazachinskoye,53.38,84.0,3.24,1504075.0,RU,93.2761,57.6953,51.0,1685549553.0
352,Geraldton,61.21,100.0,5.75,2070998.0,AU,114.6,-28.7667,100.0,1685549623.0
353,Maxixe,70.41,77.0,7.52,1039536.0,MZ,35.3472,-23.8597,58.0,1685549625.0
354,Leon Valley,80.49,66.0,9.22,4705923.0,US,-98.6186,29.4952,75.0,1685549438.0
355,Nome,33.87,69.0,0.0,5870133.0,US,-165.4064,64.5011,40.0,1685549630.0
356,Manokwari,79.11,84.0,3.78,1636308.0,ID,134.0833,-0.8667,24.0,1685549632.0
357,Grand-Santi,89.91,47.0,4.38,3381538.0,GF,-54.3833,4.25,19.0,1685549634.0
358,Faanui,77.72,71.0,19.04,4034551.0,PF,-151.75,-16.4833,93.0,1685549636.0
359,Clyde River,26.83,93.0,23.02,5924351.0,CA,-68.5914,70.4692,20.0,1685549638.0
360,Kosa,59.02,97.0,6.24,544318.0,RU,54.9977,59.9445,100.0,1685549640.0
361,Blackwater,54.82,81.0,6.33,2175403.0,AU,148.8833,-23.5833,84.0,1685549643.0
362,Assiniboia,76.82,38.0,4.61,5887798.0,CA,-105.9845,49.6334,72.0,1685549645.0
363,Bambous Virieux,73.65,73.0,4.61,1106677.0,MU,57.7575,-20.3428,40.0,1685549647.0
364,Arona,69.48,78.0,16.11,2521582.0,ES,-16.681,28.0996,20.0,1685549649.0
365,Belyy Yar,55.29,71.0,4.47,1510377.0,RU,91.3903,53.6039,0.0,1685549651.0
366,San Miguel,86.05,61.0,5.08,3583446.0,SV,-88.1833,13.4833,57.0,1685549653.0
367,Maniitsoq,36.18,98.0,29.48,3421982.0,GL,-52.9,65.4167,100.0,1685549656.0
368,Freeport,68.77,63.0,10.36,5117949.0,US,-73.5832,40.6576,0.0,1685549490.0
369,Constitución,62.24,66.0,4.5,3893726.0,CL,-72.4167,-35.3333,66.0,1685549660.0
370,Tarakan,82.83,80.0,7.67,1624725.0,ID,117.6333,3.3,99.0,1685549662.0
371,Nirmal,96.67,19.0,3.49,1261288.0,IN,78.35,19.1,95.0,1685549664.0
372,Zmeinogorsk,52.5,69.0,6.38,1485042.0,RU,82.195,51.1567,10.0,1685549666.0
373,Valparaíso,73.63,28.0,12.66,3868626.0,CL,-71.6273,-33.0393,0.0,1685549668.0
374,Caravelas,78.37,65.0,7.31,3466980.0,BR,-39.2481,-17.7125,94.0,1685549671.0
375,Torbay,56.43,54.0,9.22,6167817.0,CA,-52.7314,47.6666,75.0,1685549673.0
376,Le Port,68.65,91.0,2.17,935616.0,RE,55.2919,-20.9373,22.0,1685549675.0
377,Kumul,68.85,14.0,14.43,1529484.0,CN,93.45,42.8,0.0,1685549673.0
378,Inverell,46.42,84.0,2.37,2162662.0,AU,151.1167,-29.7833,88.0,1685549679.0
379,Tortolì,69.98,70.0,5.46,2522890.0,IT,9.6572,39.9256,69.0,1685549681.0
380,Beipiao,67.33,48.0,8.63,2038342.0,CN,120.7792,41.7919,22.0,1685549683.0
381,Novo Aripuanã,91.71,49.0,4.23,3663142.0,BR,-60.3797,-5.1206,32.0,1685549686.0
382,Akdepe,84.29,5.0,9.8,601551.0,TM,59.3788,42.0551,99.0,1685549688.0
383,Pangnirtung,30.2,93.0,11.5,6096551.0,CA,-65.7125,66.1451,100.0,1685549690.0
384,Komatipoort,71.06,55.0,5.55,988290.0,ZA,31.9548,-25.4332,76.0,1685549692.0
385,Kailua,73.27,87.0,1.99,5847486.0,US,-157.7394,21.4022,32.0,1685549694.0
386,Massakory,105.62,19.0,4.63,2428228.0,TD,15.7293,12.996,39.0,1685549696.0
387,Byron Bay,59.07,73.0,9.06,2172880.0,AU,153.6167,-28.65,98.0,1685549665.0
388,Dawson Creek,55.04,33.0,9.22,5935804.0,CA,-120.2362,55.7666,0.0,1685549700.0
389,Port-Gentil,78.96,83.0,13.73,2396518.0,GA,8.7815,-0.7193,85.0,1685549703.0
390,Augusto Corrêa,84.69,70.0,7.85,3406961.0,BR,-46.635,-1.0217,53.0,1685549705.0
391,Araouane,104.13,11.0,13.0,2460954.0,ML,-3.5265,18.9048,100.0,1685549707.0
392,Coahuayana Viejo,90.84,44.0,2.86,4013679.0,MX,-103.6833,18.7333,52.0,1685549709.0
393,Mount Gambier,52.34,81.0,10.54,2156643.0,AU,140.7667,-37.8333,92.0,1685549712.0
394,Swan River,73.29,56.0,10.36,6160362.0,CA,-101.2676,52.1058,0.0,1685549714.0
395,Bima,74.08,95.0,4.99,1648759.0,ID,118.7167,-8.4667,63.0,1685549618.0
396,Cherskiy,31.68,70.0,8.93,2126199.0,RU,161.3,68.75,100.0,1685549718.0
397,Adrar,100.09,12.0,9.33,2381972.0,MR,-10.0711,20.5022,98.0,1685549720.0
398,Egvekinot,31.87,92.0,1.97,4031742.0,RU,-179.1667,66.3167,100.0,1685549722.0
399,Comodoro Rivadavia,62.46,42.0,31.07,3860443.0,AR,-67.5,-45.8667,20.0,1685549607.0
400,Volchikha,61.99,43.0,6.89,1486983.0,RU,80.3833,52.0333,25.0,1685549727.0
401,Paita,76.42,74.0,6.29,3694112.0,PE,-81.1144,-5.0892,83.0,1685549729.0
402,Calama,73.89,5.0,6.91,3897347.0,CL,-68.9333,-22.4667,0.0,1685549731.0
403,Abalak,67.42,53.0,6.33,1512223.0,RU,68.5944,58.1286,100.0,1685549733.0
404,Atar,101.5,13.0,11.86,2381334.0,MR,-13.0499,20.5169,100.0,1685549735.0
405,Venado Tuerto,70.77,50.0,10.83,3833062.0,AR,-61.9688,-33.7456,1.0,1685549738.0
406,Ostrovnoy,48.87,73.0,16.37,556268.0,RU,39.5131,68.0531,100.0,1685549740.0
407,Praia,86.54,42.0,23.02,3374333.0,CV,-23.5087,14.9215,0.0,1685549742.0
408,Campoverde,78.49,64.0,5.14,3733380.0,PE,-74.8058,-8.4753,80.0,1685549744.0
409,Peebles,64.76,60.0,1.99,2640526.0,GB,-3.1888,55.6519,36.0,1685549746.0
410,Ngunguru,53.33,86.0,6.67,2186111.0,NZ,174.5,-35.6167,11.0,1685549748.0
411,Haines Junction,46.35,46.0,1.14,5969025.0,CA,-137.5108,60.7522,58.0,1685549750.0
412,Chernyshevsk,49.08,54.0,6.91,2025458.0,RU,117.0174,52.5243,95.0,1685549752.0
413,Makiyivka,60.64,74.0,6.69,702320.0,UA,37.9258,48.0478,88.0,1685549755.0
414,Petropavlovsk-Kamchatskiy,37.99,100.0,6.71,2122104.0,RU,158.6483,53.0452,100.0,1685549757.0
415,Los Llanos de Aridane,69.12,71.0,5.75,2514651.0,ES,-17.9182,28.6585,20.0,1685549759.0
416,Nuevo Progreso,88.9,59.0,3.0,3522526.0,MX,-97.95,23.1667,0.0,1685549761.0
417,Norsup,77.61,85.0,11.18,2135517.0,VU,167.3833,-16.0667,98.0,1685549763.0
418,Yulara,57.09,39.0,3.13,6355222.0,AU,130.9889,-25.2406,0.0,1685549765.0
419,Hohhot,57.49,62.0,6.71,2036892.0,CN,111.6522,40.8106,0.0,1685549767.0
420,Bowen,68.81,75.0,11.41,2174444.0,AU,148.2333,-20.0167,59.0,1685549770.0
421,Smoky Lake,60.84,77.0,4.61,6150293.0,CA,-112.4686,54.1169,32.0,1685549772.0
422,Angoram,75.25,98.0,1.12,2100765.0,PG,144.0661,-4.0625,83.0,1685549779.0
423,Itarema,87.12,57.0,13.02,3393692.0,BR,-39.9167,-2.9248,12.0,1685549781.0
424,La Asuncion,85.73,74.0,13.8,3480908.0,VE,-63.8628,11.0333,100.0,1685549705.0
425,Berlevåg,41.07,93.0,13.8,780687.0,NO,29.0864,70.8578,75.0,1685549786.0
426,Ambilobe,75.15,77.0,4.34,1082243.0,MG,49.05,-13.2,40.0,1685549788.0
427,Teya,57.27,47.0,1.72,1489656.0,RU,92.6267,60.3778,82.0,1685549790.0
428,Máncora,80.02,70.0,3.87,3695000.0,PE,-81.0475,-4.1078,76.0,1685549792.0
429,Crotone,71.55,73.0,4.61,2524881.0,IT,17.1178,39.0851,20.0,1685549795.0
430,Sechura,78.82,66.0,3.62,3691954.0,PE,-80.8222,-5.5569,65.0,1685549797.0
431,Tarko-Sale,58.53,49.0,1.9,1490085.0,RU,77.785,64.9225,100.0,1685549799.0
432,Yerofey Pavlovich,42.87,88.0,4.99,2012938.0,RU,121.9667,53.9667,39.0,1685549801.0
433,Doha,96.03,37.0,10.36,290030.0,QA,51.5333,25.2867,0.0,1685549626.0
434,Palmer,75.72,36.0,3.44,4946620.0,US,-72.3287,42.1584,0.0,1685549805.0
435,Darhan,53.08,70.0,15.9,2031964.0,MN,105.9228,49.4867,100.0,1685549807.0
436,Rantauprapat,75.43,91.0,2.62,1214073.0,ID,99.8333,2.1,100.0,1685549809.0
437,Arroyo de la Encomienda,73.36,53.0,20.71,3129371.0,ES,-4.7969,41.6096,20.0,1685549812.0
438,Keetmanshoop,59.92,43.0,2.3,3356264.0,NA,18.1333,-26.5833,0.0,1685549814.0
439,Staryy Nadym,63.95,53.0,8.75,1490918.0,RU,72.6842,65.6118,100.0,1685549816.0
440,Beloha,68.9,72.0,11.48,1067565.0,MG,45.05,-25.1667,95.0,1685549818.0
441,Kelvington,71.51,60.0,12.17,5990669.0,CA,-103.5343,52.1667,0.0,1685549820.0
442,Munger,100.0,19.0,7.9,1262482.0,IN,86.4667,25.3833,23.0,1685549822.0
443,Grindavik,46.87,87.0,9.22,3416888.0,IS,-22.4338,63.8424,75.0,1685549824.0
444,Kangaatsiaq,36.57,93.0,32.66,3422683.0,GL,-53.4641,68.3065,100.0,1685549826.0
445,Omsukchan,45.45,67.0,4.34,2122493.0,RU,155.8,62.5333,100.0,1685549829.0
446,Quzhou,74.97,96.0,6.08,1797264.0,CN,118.8686,28.9594,25.0,1685549831.0
447,Neijiang,72.79,82.0,11.45,1799491.0,CN,105.0622,29.5835,51.0,1685549833.0
448,Bonavista,41.59,94.0,11.39,5905393.0,CA,-53.1147,48.6499,100.0,1685549835.0
449,Pauini,86.7,61.0,4.34,3662927.0,BR,-66.9764,-7.7136,69.0,1685549837.0
450,Poso,77.27,87.0,4.18,1630723.0,ID,120.7524,-1.3959,95.0,1685549839.0
451,Hervey Bay,62.87,79.0,3.47,2146219.0,AU,152.8535,-25.2986,75.0,1685549841.0
452,Gambēla,83.71,55.0,2.08,337405.0,ET,34.5833,8.25,9.0,1685549843.0
453,Hede,65.95,92.0,5.5,1808744.0,CN,120.2517,33.7681,97.0,1685549846.0
454,Alice Springs,44.15,57.0,4.9,2077895.0,AU,133.8833,-23.7,0.0,1685549848.0
455,Tazmalt,68.9,61.0,6.73,2477537.0,DZ,4.3989,36.3868,83.0,1685549850.0
456,Mangaratiba,67.06,91.0,6.58,3457991.0,BR,-44.0406,-22.9597,100.0,1685549852.0
457,Porto-Novo,85.82,66.0,10.6,2392087.0,BJ,2.6036,6.4965,73.0,1685549854.0
458,Sabha,97.65,12.0,12.33,2212775.0,LY,14.4283,27.0377,0.0,1685549856.0
459,Salinópolis,84.69,70.0,11.1,3389822.0,BR,-47.3561,-0.6136,84.0,1685549858.0
460,Riyadh,96.94,28.0,11.72,108410.0,SA,46.7219,24.6877,78.0,1685549682.0
461,Jönköping,73.11,40.0,9.22,2702979.0,SE,14.1562,57.7814,0.0,1685549862.0
462,Yatou,65.01,76.0,13.91,1786855.0,CN,122.3833,37.15,100.0,1685549865.0
463,Jaru,83.98,67.0,4.32,3925040.0,BR,-62.4664,-10.4389,3.0,1685549867.0
464,Yashan,80.15,80.0,3.31,1786867.0,CN,109.9419,22.1975,16.0,1685549869.0
465,Bamiantong,59.04,56.0,2.01,2038482.0,CN,130.5333,44.9333,99.0,1685549871.0
466,Boa Vista,89.58,58.0,11.5,3664980.0,BR,-60.6733,2.8197,75.0,1685549873.0
467,Barra do Bugres,78.69,68.0,0.92,3470718.0,BR,-57.1811,-15.0725,91.0,1685549875.0
468,Butembo,60.75,93.0,2.66,217562.0,CD,29.2833,0.15,91.0,1685549877.0
469,Talaya,48.79,71.0,2.17,2120769.0,RU,152.75,61.3833,100.0,1685549879.0
470,Vengurla,83.73,83.0,8.16,1253257.0,IN,73.6333,15.8667,99.0,1685549882.0
471,Maracaçumé,88.92,57.0,7.4,3395497.0,BR,-45.9592,-2.0428,25.0,1685549884.0
472,Nouadhibou,73.38,68.0,23.02,2377457.0,MR,-17.0347,20.931,93.0,1685549886.0
473,La Celia,71.19,64.0,2.08,3679542.0,CO,-76.0167,5.0433,92.0,1685549888.0
474,Lüderitz,61.56,72.0,17.54,3355672.0,NA,15.1594,-26.6481,0.0,1685549890.0
475,Carutapera,87.53,61.0,9.86,3402648.0,BR,-46.02,-1.195,36.0,1685549892.0
476,Yauya,57.22,54.0,3.69,3690733.0,PE,-77.3,-8.9833,9.0,1685549894.0
477,Port Said,73.4,76.0,20.4,358619.0,EG,32.2841,31.2565,32.0,1685549897.0
478,Sambava,76.26,78.0,15.23,1056899.0,MG,50.1667,-14.2667,6.0,1685549899.0
479,Kafanchan,82.67,67.0,5.77,2335713.0,NG,8.3,9.5833,42.0,1685549901.0
480,Neftçala,72.16,77.0,7.31,147425.0,AZ,49.2472,39.3742,76.0,1685549903.0
481,Yhú,74.16,60.0,5.99,3436595.0,PY,-55.9167,-25.05,15.0,1685549905.0
482,Necochea,61.9,63.0,15.19,3430443.0,AR,-58.7368,-38.5473,100.0,1685549907.0
483,Muros,67.84,77.0,6.73,3115824.0,ES,-9.0603,42.7762,83.0,1685549909.0
484,Linxia Chengguanzhen,51.64,82.0,1.14,1803331.0,CN,103.2064,35.6003,30.0,1685549912.0
485,Tripoli,72.46,68.0,11.92,2210247.0,LY,13.1875,32.8752,6.0,1685549914.0
486,Ixtapa,83.43,61.0,5.75,4004293.0,MX,-105.2,20.7,20.0,1685549916.0
487,Santiago del Estero,72.25,61.0,11.83,3835869.0,AR,-64.2615,-27.7951,42.0,1685549918.0
488,Uribia,87.57,62.0,6.8,3666409.0,CO,-72.266,11.7139,100.0,1685549920.0
489,Rome,81.91,42.0,1.01,5134295.0,US,-75.4557,43.2128,0.0,1685549622.0
490,Xuanzhou,71.82,94.0,3.67,1788081.0,CN,118.7553,30.9525,100.0,1685549924.0
491,Arrondissement de Muret,69.24,53.0,3.09,2991152.0,FR,1.25,43.3333,47.0,1685549931.0
492,Orlik,38.86,93.0,3.36,1496073.0,RU,99.825,52.5178,100.0,1685549933.0
493,Toyoake,66.88,82.0,3.44,1856057.0,JP,137.0137,35.0594,18.0,1685549936.0
494,Ibrā’,94.89,29.0,20.27,287832.0,OM,58.5334,22.6906,18.0,1685549938.0
495,Ayagoz,55.06,46.0,9.82,1525988.0,KZ,80.4392,47.9714,1.0,1685549940.0
496,Deputatsky,25.75,93.0,2.71,2028164.0,RU,139.9,69.3,98.0,1685549942.0
497,Moyale,72.59,57.0,5.84,186180.0,KE,39.0584,3.5167,47.0,1685549944.0
498,Gresik,80.51,81.0,2.82,1643776.0,ID,112.6561,-7.1539,66.0,1685549947.0
499,Tsushima,67.1,87.0,4.97,1849539.0,JP,136.7167,35.1667,26.0,1685549949.0
500,Boralday,69.66,30.0,6.71,1526384.0,KZ,76.8594,43.3578,75.0,1685549951.0
501,Mahina,74.97,69.0,16.11,4034307.0,PF,-149.489,-17.5065,40.0,1685549953.0
502,Ust-Maya,49.12,83.0,2.26,2013918.0,RU,134.5333,60.4167,75.0,1685549955.0
503,General Pico,65.97,47.0,3.62,3855075.0,AR,-63.7568,-35.6566,11.0,1685549958.0
504,Labuan,79.16,83.0,0.0,1733782.0,MY,115.2417,5.2767,20.0,1685549960.0
505,Saint Anthony,81.95,53.0,13.8,5044290.0,US,-93.218,45.0205,0.0,1685549962.0
506,Iqaluit,34.7,74.0,21.0,5983720.0,CA,-68.5145,63.7506,75.0,1685549964.0
507,Haapiti,74.71,68.0,17.81,4034438.0,PF,-149.8667,-17.5667,59.0,1685549966.0
508,Sarankhola,85.33,73.0,9.08,1185239.0,BD,89.7897,22.3082,28.0,1685549968.0
509,Odienné,95.94,35.0,4.36,2283016.0,CI,-7.5692,9.51,99.0,1685549970.0
510,Miles City,74.37,49.0,3.44,5666176.0,US,-105.8406,46.4083,0.0,1685549973.0
511,Daru,77.61,85.0,14.94,2098329.0,PG,143.2092,-9.0763,21.0,1685549975.0
512,Umm Kaddadah,99.77,15.0,12.66,364933.0,SD,26.6876,13.6017,45.0,1685549977.0
513,Skegness,54.61,80.0,16.13,2637762.0,GB,0.3363,53.1436,100.0,1685549979.0
514,Saint-François,78.24,41.0,9.22,2980080.0,FR,3.9054,46.4154,0.0,1685549981.0
515,Semey,64.65,40.0,10.56,1519422.0,KZ,80.2275,50.4111,43.0,1685549983.0
516,Esperance,62.11,85.0,11.79,2071860.0,AU,121.9,-33.8667,100.0,1685549985.0
517,Selkirk,74.39,76.0,6.35,6144054.0,CA,-96.8845,50.1436,33.0,1685549988.0
518,Mahajanga,81.7,58.0,2.08,1062663.0,MG,46.3167,-15.7167,4.0,1685549990.0
519,Ruwi,98.29,46.0,9.1,287286.0,OM,58.5507,23.5996,41.0,1685549992.0
520,Pucallpa,78.84,83.0,10.36,3693345.0,PE,-74.5539,-8.3791,75.0,1685549994.0
521,Ginda,58.53,79.0,3.74,1253628.0,IN,78.4932,30.6945,100.0,1685549996.0
522,Hare Bay,65.8,57.0,8.12,5970873.0,CA,-54.0148,48.8499,96.0,1685549998.0
523,Kabalo,83.03,37.0,3.6,215668.0,CD,26.9167,-6.05,0.0,1685550000.0
524,Cockburn Town,81.36,81.0,15.84,3576994.0,TC,-71.1419,21.4612,100.0,1685550002.0
525,Kolomyia,66.22,72.0,4.41,705392.0,UA,25.0403,48.5306,4.0,1685550005.0
526,Odawara,58.98,85.0,3.02,1854747.0,JP,139.1597,35.2556,60.0,1685550007.0
527,Santa Cruz de la Sierra,71.65,73.0,6.91,3904906.0,BO,-63.1667,-17.8,75.0,1685549862.0
528,Derzhavīnsk,78.82,32.0,9.75,1524606.0,KZ,66.3167,51.1,83.0,1685550011.0
529,Raduzhny,62.74,48.0,4.72,1540356.0,RU,77.475,62.0961,87.0,1685550014.0
530,Gulariyā,85.17,23.0,10.16,1283368.0,NP,81.3333,28.2333,0.0,1685550016.0
531,Oudtshoorn,59.36,84.0,2.33,967106.0,ZA,22.2014,-33.5907,96.0,1685550018.0
532,Ruteng,62.56,95.0,3.71,1629380.0,ID,120.4721,-8.6136,92.0,1685550020.0
533,Sokolac,57.58,89.0,5.23,3190385.0,BA,18.8017,43.9397,99.0,1685550022.0
534,Jieshi,78.89,90.0,9.62,1805857.0,CN,115.8257,22.8134,100.0,1685550024.0
535,Porto Velho,80.65,74.0,2.3,3662762.0,BR,-63.9039,-8.7619,75.0,1685550026.0
536,Olinda,83.93,74.0,9.22,3393536.0,BR,-34.8553,-8.0089,40.0,1685550029.0
537,Vallenar,82.76,15.0,3.42,3868633.0,CL,-70.7581,-28.5708,3.0,1685550031.0
538,Bud,82.35,59.0,8.21,4255151.0,US,-86.1758,39.447,10.0,1685550033.0
539,Dhārchula,64.22,75.0,8.08,1272864.0,IN,80.5333,29.85,73.0,1685550035.0
540,Mabaruma,84.65,79.0,3.33,3377301.0,GY,-59.7833,8.2,94.0,1685550037.0
541,Nemuro,47.17,88.0,7.43,2128975.0,JP,145.575,43.3236,2.0,1685550039.0
542,Caucayá,81.27,84.0,0.18,3671437.0,CO,-74.7819,-0.1934,75.0,1685550042.0
543,Vanderhoof,50.56,40.0,6.33,6173361.0,CA,-124.0198,54.0166,28.0,1685550044.0
544,Maravilha,75.79,57.0,1.99,3457809.0,BR,-53.1725,-26.7608,0.0,1685549749.0
545,Nanlong,73.24,67.0,8.66,1799908.0,CN,106.0631,31.3533,98.0,1685550048.0
546,Seryshevo,44.29,87.0,6.62,2016942.0,RU,128.3786,51.0933,63.0,1685550050.0
547,Les Cayes,84.27,71.0,14.54,3728097.0,HT,-73.75,18.2,100.0,1685550052.0
548,Lagoa,63.77,83.0,12.12,3372964.0,PT,-27.9833,39.05,13.0,1685550054.0
549,Pacifica,54.52,86.0,13.0,5380420.0,US,-122.4869,37.6138,75.0,1685550056.0
550,Northam,65.53,76.0,14.05,2641434.0,GB,-4.2167,51.0333,92.0,1685550059.0
551,Rio Grande,62.71,72.0,3.6,3451138.0,BR,-52.0986,-32.035,6.0,1685550061.0
552,Gejiu,64.54,79.0,3.8,1810240.0,CN,103.1635,23.306,9.0,1685550063.0
553,Opuwo,80.4,17.0,9.55,3354077.0,NA,13.84,-18.0607,17.0,1685550070.0
554,La Ronge,64.65,59.0,3.44,6050066.0,CA,-105.2842,55.1001,75.0,1685550072.0
555,Yazykovo,73.72,53.0,16.24,468483.0,RU,56.1353,55.2199,100.0,1685550074.0
556,Batticaloa,83.08,76.0,6.31,1250161.0,LK,81.6924,7.7102,64.0,1685550077.0
557,Khasan,52.56,89.0,3.89,2039557.0,RU,130.6434,42.4308,97.0,1685550079.0
558,Kattivākkam,88.07,87.0,11.79,1267433.0,IN,80.3167,13.2167,85.0,1685550081.0
559,Arrondissement de Saint-Denis,78.76,39.0,14.97,2980915.0,FR,2.3333,48.9167,0.0,1685550083.0
560,Ende,76.51,89.0,4.74,1644932.0,ID,121.6623,-8.8432,96.0,1685550085.0
561,Harlingen,85.41,85.0,7.27,4696233.0,US,-97.6961,26.1906,2.0,1685549866.0
562,Zhicheng,74.61,76.0,3.33,1784554.0,CN,111.5047,30.2956,69.0,1685550089.0
563,Havelock,69.73,86.0,11.5,4470244.0,US,-76.9013,34.8791,100.0,1685550092.0
564,Madimba,79.92,78.0,9.22,878141.0,TZ,40.3333,-10.4,20.0,1685550094.0
565,Pacific Grove,54.39,81.0,8.05,5380437.0,US,-121.9166,36.6177,100.0,1685550096.0
566,Esim,84.33,72.0,8.12,2303611.0,GH,-2.2405,4.8699,88.0,1685550098.0
567,Gorontalo,76.03,94.0,2.3,1643837.0,ID,123.0595,0.5412,100.0,1685550100.0
568,Vaitape,77.67,71.0,19.08,4033077.0,PF,-151.75,-16.5167,93.0,1685550102.0
569,Ottawa,81.5,42.0,3.44,6094817.0,CA,-75.6981,45.4112,0.0,1685550029.0
570,Petropavl,69.13,51.0,6.71,1520172.0,KZ,69.1628,54.8753,44.0,1685550107.0
571,Bossangoa,87.44,50.0,3.69,2388036.0,CF,17.4552,6.4926,99.0,1685550109.0
572,Lavrentiya,31.33,89.0,4.72,4031637.0,RU,-171.0,65.5833,100.0,1685550111.0
573,Muskegon,87.62,42.0,12.66,5003136.0,US,-86.1334,43.3,20.0,1685550031.0
574,Lālmohan,85.78,75.0,14.76,1185251.0,BD,90.7419,22.3384,30.0,1685550115.0
575,Gainesville,82.76,61.0,1.99,4156404.0,US,-82.3248,29.6516,100.0,1685550117.0
