,City,Temp_max,Humidity,wind_speed,city_id,country_code,long,lat,Cloudiness
0,Flin Flon,56.75,99.0,4.56,5954718.0,CA,-101.865,54.7682,73.0
1,Severo-Kuril'sk,42.93,96.0,13.67,2121385.0,RU,156.125,50.6789,100.0
2,Codrington,59.67,66.0,12.55,2171099.0,AU,141.9667,-38.2667,39.0
3,Bredasdorp,53.17,94.0,5.46,1015776.0,ZA,20.0403,-34.5322,21.0
4,Kindersley,73.42,38.0,2.3,5992154.0,CA,-109.1682,51.4668,40.0
5,Kavieng,81.61,78.0,18.3,2094342.0,PG,150.7967,-2.5744,100.0
6,Brae,48.45,87.0,24.07,2654970.0,GB,-1.353,60.3964,93.0
7,Hithadhoo,82.85,74.0,7.29,1282256.0,MV,73.0833,-0.6,97.0
8,Ponta Delgada,61.52,88.0,6.91,3372783.0,PT,-25.6667,37.7333,40.0
9,Kaitangata,58.93,70.0,2.59,2208248.0,NZ,169.8464,-46.2817,100.0
10,Neiafu,81.28,89.0,10.36,4032420.0,TO,-173.9833,-18.65,40.0
11,Busselton,63.01,65.0,5.41,2075265.0,AU,115.3333,-33.65,100.0
12,Kudahuvadhoo,84.27,73.0,9.57,1337607.0,MV,72.8944,2.6708,51.0
13,Port Macquarie,70.9,40.0,6.38,2152659.0,AU,152.9167,-31.4333,0.0
14,Jamestown,65.25,52.0,10.36,5122534.0,US,-79.2353,42.097,0.0
15,Nantucket,61.41,74.0,18.32,4944903.0,US,-70.0995,41.2835,0.0
16,São João da Barra,65.14,88.0,5.37,3448903.0,BR,-41.0511,-21.6403,5.0
17,Castlebar,47.59,91.0,3.96,2965654.0,IE,-9.3,53.85,58.0
18,Katobu,86.02,58.0,8.25,1640972.0,ID,122.5276,-4.9408,21.0
19,Port Lincoln,65.23,67.0,14.36,2063036.0,AU,135.8667,-34.7333,50.0
20,Padampur,81.68,53.0,7.81,1260938.0,IN,73.6167,29.6833,100.0
21,Cayenne,77.04,94.0,4.61,3382160.0,GF,-52.3333,4.9333,75.0
22,Norman Wells,62.64,42.0,13.8,6089245.0,CA,-126.8329,65.282,75.0
23,Upernavik,20.21,75.0,7.31,3418910.0,GL,-56.1549,72.7868,100.0
24,Ushuaia,46.06,76.0,5.75,3833367.0,AR,-68.3,-54.8,40.0
25,Tasiilaq,37.56,61.0,3.8,3424607.0,GL,-37.6368,65.6145,100.0
26,Thunder Bay,53.51,54.0,4.61,6166142.0,CA,-89.3168,48.4001,75.0
27,Provideniya,35.71,87.0,13.42,4031574.0,RU,-173.3,64.3833,100.0
28,Cap Malheureux,76.46,70.0,5.99,934649.0,MU,57.6142,-19.9842,66.0
29,West Wendover,61.81,63.0,10.36,5710035.0,US,-114.0733,40.7391,100.0
30,Tautira,80.62,76.0,17.38,4033557.0,PF,-149.15,-17.7333,71.0
31,Avarua,78.85,89.0,11.5,4035715.0,CK,-159.775,-21.2078,20.0
32,Punta Arenas,46.51,81.0,14.97,3874787.0,CL,-70.9167,-53.15,0.0
33,Ozernovskiy,48.09,85.0,17.18,2122293.0,RU,156.5167,51.5,100.0
34,Aksu,67.26,38.0,3.74,1529660.0,CN,80.2644,41.1231,1.0
35,Arrondissement d'Ajaccio,57.22,81.0,5.75,3038333.0,FR,8.9167,42.0,0.0
36,Cabedelo,77.67,96.0,4.92,3404558.0,BR,-34.8339,-6.9811,95.0
37,Dikson,31.19,94.0,6.73,1507390.0,RU,80.5464,73.5069,14.0
38,Hobart,51.82,52.0,20.71,2163355.0,AU,147.3294,-42.8794,20.0
39,Vestmannaeyjar,47.07,95.0,15.14,3412093.0,IS,-20.2734,63.4427,100.0
40,Alofi,82.29,78.0,12.66,4036284.0,NU,-169.9187,-19.0595,17.0
41,Carnarvon,75.36,42.0,8.52,2074865.0,AU,113.6333,-24.8667,100.0
42,Saint-Philippe,69.39,82.0,12.21,935215.0,RE,55.7679,-21.3585,87.0
43,Cabra,56.62,86.0,1.66,2520645.0,ES,-4.4421,37.4725,11.0
44,Feldbach,52.72,96.0,3.38,2779685.0,AT,15.8883,46.9531,4.0
45,Tual,80.82,83.0,19.98,1623197.0,ID,132.75,-5.6667,55.0
46,Longyearbyen,33.64,64.0,16.11,2729907.0,SJ,15.6401,78.2186,40.0
47,Dukat,49.64,55.0,8.7,2125906.0,RU,155.55,62.55,97.0
48,Jalu,64.49,70.0,7.83,86049.0,LY,21.5482,29.0331,0.0
49,Vaini,82.56,78.0,17.27,4032243.0,TO,-175.2,-21.2,40.0
50,Albany,62.83,70.0,5.95,5106841.0,US,-73.9662,42.6001,1.0
51,Karaton,85.98,65.0,0.96,1630058.0,ID,106.1045,-6.3424,34.0
52,Saldanha,48.25,81.0,14.16,3361934.0,ZA,17.9442,-33.0117,0.0
53,Castro,54.91,98.0,5.08,3466704.0,BR,-50.0119,-24.7911,100.0
54,Inhambane,68.47,87.0,4.41,1045114.0,MZ,35.3833,-23.865,0.0
55,Mataura,55.69,81.0,3.11,6201424.0,NZ,168.8643,-46.1927,100.0
56,Puerto Ayora,77.56,96.0,3.0,3652764.0,EC,-90.3518,-0.7393,91.0
57,Arraial do Cabo,72.09,85.0,13.2,3471451.0,BR,-42.0278,-22.9661,51.0
58,Obihiro,72.81,46.0,7.47,2128815.0,JP,143.2044,42.9172,37.0
59,Penzance,56.08,82.0,17.16,2640377.0,GB,-5.5371,50.1186,22.0
60,Butaritari,83.91,76.0,13.85,2110227.0,KI,172.7902,3.0707,100.0
61,Rikitea,72.86,56.0,13.35,4030556.0,PF,-134.9692,-23.1203,63.0
62,Namatanai,84.72,70.0,9.04,2090021.0,PG,152.4333,-3.6667,78.0
63,Isangel,77.49,69.0,8.39,2136825.0,VU,169.2667,-19.55,31.0
64,Saint George,83.97,12.0,13.8,5546220.0,US,-113.5841,37.1041,0.0
65,Kruisfontein,56.57,76.0,4.36,986717.0,ZA,24.7314,-34.0033,100.0
66,Mwinilunga,53.44,71.0,3.69,902620.0,ZM,24.4293,-11.7358,20.0
67,Port Alfred,59.18,94.0,5.14,964432.0,ZA,26.891,-33.5906,68.0
68,Marzuq,77.0,58.0,4.34,72181.0,YE,46.4667,14.4,75.0
69,Puerto Escondido,83.05,76.0,3.44,3520994.0,MX,-97.0667,15.85,6.0
70,Sivaki,63.05,35.0,6.35,2016477.0,RU,126.75,52.6333,58.0
71,Yellowknife,59.52,38.0,15.01,6185377.0,CA,-114.3525,62.456,20.0
72,Canchungo,78.62,83.0,7.92,2373951.0,GW,-16.0333,12.0672,75.0
73,Östersund,36.05,41.0,17.27,2685750.0,SE,14.6357,63.1792,37.0
74,Fort Nelson,65.95,43.0,5.99,5955902.0,CA,-122.7002,58.8053,40.0
75,Castelo Branco,57.22,95.0,3.0,2269514.0,PT,-7.4909,39.8222,65.0
76,Black River,79.84,85.0,4.43,3491355.0,JM,-77.8487,18.0264,100.0
77,Atuona,80.91,69.0,22.1,4020109.0,PF,-139.0333,-9.8,49.0
78,Birao,74.66,77.0,3.67,240210.0,CF,22.7882,10.2849,99.0
79,Ekhabi,45.7,59.0,20.78,2122614.0,RU,142.9671,53.5102,100.0
80,Barrow,35.62,93.0,5.75,5880054.0,US,-156.7887,71.2906,100.0
81,Hilo,71.53,96.0,2.01,5855927.0,US,-155.09,19.7297,100.0
82,Mehamn,46.35,76.0,0.0,778707.0,NO,27.8492,71.0357,20.0
83,Shingū,77.36,81.0,8.39,1847947.0,JP,135.9833,33.7333,100.0
84,George Town,86.85,72.0,5.75,1735106.0,MY,100.3354,5.4112,20.0
85,Russell,64.45,94.0,0.0,4047434.0,US,-85.1999,32.3502,0.0
86,Sidhi,93.94,30.0,7.29,1256369.0,IN,81.8833,24.4167,4.0
87,Laramie,54.66,51.0,9.22,5830062.0,US,-105.5911,41.3114,100.0
88,Bluff,56.84,79.0,9.93,2206939.0,NZ,168.3333,-46.6,100.0
89,Bayir,50.52,83.0,2.68,304183.0,TR,28.2167,37.2687,67.0
90,Vila Velha,68.95,94.0,1.14,3445026.0,BR,-40.2925,-20.3297,0.0
91,Kapaa,75.67,83.0,9.28,5848280.0,US,-159.319,22.0752,94.0
92,Margate,51.71,77.0,11.99,2643044.0,GB,1.3862,51.3813,47.0
93,Kamaishi,63.81,94.0,2.3,2112444.0,JP,141.8833,39.2667,100.0
94,Stăncuţa,57.99,94.0,9.57,666309.0,RO,27.8333,44.9,87.0
95,Ankang,69.87,89.0,3.13,1789065.0,CN,109.0172,32.68,100.0
96,Port Elizabeth,60.31,93.0,2.3,964420.0,ZA,25.5701,-33.918,75.0
97,Morant Bay,83.82,84.0,3.29,3489440.0,JM,-76.4093,17.8815,98.0
98,São Miguel,77.77,90.0,9.89,3388304.0,BR,-35.3667,-5.4667,25.0
99,Guerrero Negro,61.09,82.0,16.55,4021858.0,MX,-114.0611,27.9769,0.0
100,Husavik,46.24,86.0,6.33,2629833.0,IS,-17.3389,66.0449,100.0
101,Ahipara,67.82,87.0,9.57,2194098.0,NZ,173.1667,-35.1667,9.0
102,Saint Paul Harbor,51.31,50.0,10.36,5866583.0,US,-152.4072,57.79,100.0
103,Mahébourg,75.49,83.0,14.97,934322.0,MU,57.7,-20.4081,40.0
104,Mount Isa,69.57,24.0,12.66,2065594.0,AU,139.5,-20.7333,80.0
105,Te Anau,56.25,90.0,2.66,2181625.0,NZ,167.7167,-45.4167,81.0
106,Alenquer,75.69,88.0,3.69,3407980.0,BR,-54.7383,-1.9417,82.0
107,São Miguel do Araguaia,76.41,51.0,1.3,3448455.0,BR,-50.1628,-13.275,45.0
108,Kriel,46.78,65.0,3.11,987202.0,ZA,29.2253,-26.2739,20.0
109,Marsh Harbour,81.19,70.0,2.15,3571913.0,BS,-77.0636,26.5412,1.0
110,Souillac,75.58,83.0,14.97,933995.0,MU,57.5167,-20.5167,40.0
111,Tigil',60.75,37.0,1.92,2120612.0,RU,158.6667,57.8,41.0
112,Kaeo,67.78,87.0,8.57,2189343.0,NZ,173.7833,-35.1,11.0
113,Cape Town,58.53,77.0,25.32,3369157.0,ZA,18.4232,-33.9258,20.0
114,Cidreira,59.99,59.0,3.09,3466165.0,BR,-50.2056,-30.1811,31.0
115,Khatanga,59.43,40.0,19.71,2022572.0,RU,102.5,71.9667,78.0
116,Karlshamn,41.49,87.0,6.58,2701727.0,SE,14.8619,56.1706,60.0
117,Pevek,31.8,98.0,21.97,2122090.0,RU,170.3133,69.7008,100.0
118,Mar del Plata,43.03,75.0,5.75,3430863.0,AR,-57.5575,-38.0023,0.0
119,Gobabis,58.14,48.0,9.73,3357247.0,NA,18.9667,-22.45,11.0
120,Gaoyou,76.8,83.0,9.98,1810309.0,CN,119.4278,32.7858,94.0
121,Bethel,60.62,60.0,3.22,5282297.0,US,-73.414,41.3712,58.0
122,Santa Maria da Vitória,72.25,51.0,1.61,3450063.0,BR,-44.1886,-13.3947,47.0
123,Banda Aceh,86.56,62.0,14.72,1215502.0,ID,95.3222,5.5577,95.0
124,Georgiyevka,64.44,29.0,17.9,1524243.0,KZ,74.7114,43.0369,0.0
125,Zonguldak,56.25,95.0,2.89,737021.0,TR,31.8333,41.25,100.0
126,Booué,71.65,99.0,0.63,2401495.0,GA,11.9385,-0.0921,99.0
127,Siyabuswa,55.78,74.0,4.34,955313.0,ZA,29.0445,-25.1132,10.0
128,Dunedin,56.8,72.0,4.0,2191562.0,NZ,170.5036,-45.8742,100.0
129,Roald,44.64,81.0,16.11,3141667.0,NO,6.1333,62.5833,100.0
130,Tweed,61.23,76.0,5.3,6170799.0,CA,-77.3162,44.4751,0.0
131,Nanortalik,36.86,97.0,7.99,3421765.0,GL,-45.2371,60.1432,100.0
132,Port Blair,84.24,74.0,5.75,1259385.0,IN,92.75,11.6667,40.0
133,Lubango,56.89,67.0,3.51,3347762.0,AO,13.4925,-14.9172,0.0
134,Shumskiy,59.95,36.0,10.94,1491977.0,RU,99.1328,54.8318,100.0
135,San Cristobal,75.38,95.0,1.59,3628473.0,VE,-72.225,7.7669,87.0
136,Nioro,82.17,64.0,8.68,2412408.0,GM,-15.75,13.35,63.0
137,Thompson,60.96,100.0,0.0,6165406.0,CA,-97.8558,55.7435,100.0
138,Manaus,81.09,83.0,2.3,3663517.0,BR,-60.025,-3.1019,0.0
139,Laguna,66.09,65.0,11.5,5364271.0,US,-121.4238,38.421,0.0
140,Hermanus,55.8,84.0,18.48,3366880.0,ZA,19.2345,-34.4187,68.0
141,Westport,61.7,67.0,11.5,4845585.0,US,-73.3579,41.1415,0.0
142,Dicabisagan,85.55,68.0,8.93,1715015.0,PH,122.4157,17.0818,100.0
143,Newport,50.56,78.0,13.47,2641598.0,GB,-2.9984,51.5877,93.0
144,Tateyama,73.31,90.0,29.91,1850523.0,JP,139.8667,34.9833,100.0
145,Kuznechikha,49.19,90.0,11.95,537760.0,RU,42.3348,57.2161,100.0
146,Poum,73.98,70.0,11.12,2138555.0,NC,164.0167,-20.2333,35.0
147,Chokurdakh,39.36,72.0,15.17,2126123.0,RU,147.9167,70.6333,99.0
148,Coquimbo,58.73,88.0,10.36,3893629.0,CL,-71.3436,-29.9533,75.0
149,Ust-Nera,57.07,40.0,4.09,2120048.0,RU,143.2,64.5667,99.0
150,Kavaratti,85.66,73.0,12.44,1267390.0,IN,72.642,10.5669,92.0
151,Eruwa,74.66,95.0,3.4,2338669.0,NG,3.4167,7.5333,100.0
152,Polyarny,46.9,85.0,13.27,506763.0,RU,33.4478,69.1989,100.0
153,Ribeira Grande,60.78,85.0,3.0,3372707.0,PT,-28.7,38.5167,22.0
154,Kalemie,70.9,81.0,4.92,214974.0,CD,29.1947,-5.9475,40.0
155,Tuktoyaktuk,48.2,46.0,17.27,6170031.0,CA,-133.0374,69.4541,75.0
156,Tomatlán,76.53,83.0,3.09,3981391.0,MX,-105.25,19.9333,7.0
157,Bratca,54.68,86.0,3.58,683837.0,RO,22.6167,46.9333,87.0
158,Chiang Khong,93.49,47.0,2.46,1611197.0,TH,100.4046,20.2613,34.0
159,Gijang,69.53,98.0,4.25,1842966.0,KR,129.2139,35.2442,99.0
160,Vao,72.34,64.0,11.34,2137773.0,NC,167.4833,-22.6667,100.0
161,Marawi,82.02,62.0,8.05,1701054.0,PH,124.2928,7.9986,77.0
162,Kununurra,75.18,25.0,14.97,2068110.0,AU,128.7333,-15.7667,97.0
163,Ponta do Sol,65.12,83.0,5.46,2264557.0,PT,-17.1,32.6667,100.0
164,Vanimo,85.28,68.0,5.17,2084442.0,PG,141.3028,-2.6741,100.0
165,Kenai,44.71,98.0,13.8,5866063.0,US,-151.2583,60.5544,100.0
166,Tarnogskiy Gorodok,51.46,63.0,8.37,484314.0,RU,43.5761,60.4997,57.0
167,Tottori-shi,69.87,94.0,0.0,1849892.0,JP,134.2333,35.5,75.0
168,Baracoa,79.59,87.0,2.73,3567834.0,CU,-74.4958,20.3467,100.0
169,Krasnyy Kholm,46.45,71.0,5.44,541704.0,RU,37.1203,58.0607,2.0
170,Nabire,85.87,66.0,5.73,1634614.0,ID,135.4833,-3.3667,35.0
171,Zaysan,54.91,47.0,11.86,1517060.0,KZ,84.8667,47.4667,10.0
172,New Norfolk,48.61,58.0,1.99,2155415.0,AU,147.0587,-42.7826,9.0
173,Muhos,46.18,89.0,7.0,645765.0,FI,25.9931,64.808,30.0
174,Sabzawār,69.08,32.0,13.8,118063.0,IR,57.6819,36.2126,0.0
175,Catuday,84.15,76.0,19.08,1717787.0,PH,119.8062,16.2923,100.0
176,Enshi,84.45,77.0,1.95,1811720.0,CN,109.4833,30.3,31.0
177,Timiryazevskiy,62.02,53.0,5.19,1489597.0,RU,84.8769,56.49,11.0
178,Aklavik,52.57,44.0,12.26,5882953.0,CA,-135.0107,68.2191,100.0
179,Pochutla,84.81,75.0,1.72,3517970.0,MX,-96.4661,15.7432,11.0
180,Bathsheba,81.21,78.0,10.36,3374083.0,BB,-59.5167,13.2167,40.0
181,Salalah,84.29,79.0,3.44,286621.0,OM,54.0924,17.0151,40.0
182,Airai,64.69,74.0,3.53,1651810.0,TL,125.4092,-8.9266,65.0
183,Fuyang,71.2,86.0,7.99,1810845.0,CN,115.8167,32.9,98.0
184,Makakilo City,73.15,72.0,8.05,5850554.0,US,-158.0858,21.3469,75.0
185,Impfondo,70.43,97.0,1.3,2259655.0,CG,18.0667,1.6381,99.0
186,Anloga,81.88,82.0,9.8,2304548.0,GH,0.8973,5.7947,100.0
187,Chui,49.15,69.0,1.86,3443061.0,UY,-53.4616,-33.6971,74.0
188,Nishihara,85.3,78.0,23.02,1855342.0,JP,127.7558,26.1842,75.0
189,Bariloche,39.43,60.0,3.87,7647007.0,AR,-71.3082,-41.1456,100.0
190,Kristianstad,41.14,93.0,0.0,2699310.0,SE,14.1524,56.0313,38.0
191,Cabo San Lucas,72.73,65.0,11.5,3985710.0,MX,-109.9124,22.8909,0.0
192,Hunchun,76.75,28.0,11.01,2036653.0,CN,130.3581,42.8675,3.0
193,Aykhal,55.67,56.0,2.46,2027296.0,RU,111.5,66.0,99.0
194,Nchelenge,62.91,75.0,4.59,175499.0,ZM,28.734,-9.3451,90.0
195,Hobyo,81.72,76.0,13.76,57000.0,SO,48.5268,5.3505,60.0
196,Pechenga,48.47,79.0,11.36,511865.0,RU,31.1703,69.5259,100.0
197,Hambantota,82.74,100.0,4.61,1244926.0,LK,81.1185,6.1241,20.0
198,Lompoc,56.86,87.0,6.91,5367788.0,US,-120.4579,34.6391,100.0
199,Hasaki,70.29,97.0,4.61,2112802.0,JP,140.8333,35.7333,100.0
200,Departamento de Maldonado,42.19,83.0,2.24,3441890.0,UY,-54.9167,-34.6667,88.0
201,Naze,75.79,88.0,8.34,1855540.0,JP,129.4833,28.3667,47.0
202,Nikolskoye,50.29,65.0,4.03,546105.0,RU,30.7861,59.7035,94.0
203,Dul'durga,62.01,26.0,12.55,2024812.0,RU,113.5931,50.6761,2.0
204,Leh,43.7,36.0,1.57,1264976.0,IN,77.5833,34.1667,97.0
205,Lata,58.91,99.0,1.41,2738381.0,PT,-8.3327,40.1629,97.0
206,Tiksi,36.46,100.0,8.14,2015306.0,RU,128.8694,71.6872,100.0
207,Qaanaaq,16.16,70.0,7.47,3831208.0,GL,-69.3632,77.484,74.0
208,Ilulissat,28.42,54.0,4.61,3423146.0,GL,-51.1,69.2167,100.0
209,Saint-Augustin,37.13,96.0,17.74,6137462.0,CA,-58.6502,51.226,100.0
210,Saskylakh,58.48,47.0,13.35,2017155.0,RU,114.0833,71.9167,4.0
211,Tessalit,84.43,25.0,8.68,2449893.0,ML,1.0114,20.1986,1.0
212,Rayong,90.05,57.0,2.75,1607016.0,TH,101.4333,12.8333,85.0
213,Sur,91.38,50.0,11.79,286245.0,OM,59.5289,22.5667,99.0
214,Bereket,87.62,13.0,11.45,161974.0,TM,55.5154,39.2446,11.0
215,Staraya Kulatka,60.15,77.0,3.53,489164.0,RU,47.6167,52.7167,44.0
216,Roswell,66.16,71.0,6.91,4219934.0,US,-84.3616,34.0232,0.0
217,Santa Luzia,61.14,77.0,0.0,3450144.0,BR,-43.8514,-19.7697,0.0
218,São Filipe,74.28,81.0,6.82,3374210.0,CV,-24.4956,14.8961,90.0
219,San Luis,49.69,62.0,7.36,3837056.0,AR,-66.3356,-33.295,100.0
220,Fairbanks,55.33,69.0,9.22,5861897.0,US,-147.7164,64.8378,75.0
221,Sibolga,84.15,65.0,2.42,1213855.0,ID,98.7792,1.7427,100.0
222,Pahrump,83.39,18.0,8.01,5509851.0,US,-115.9839,36.2083,0.0
223,Narsaq,38.66,93.0,4.12,3421719.0,GL,-46.05,60.9167,100.0
224,Hamilton,62.47,82.0,6.91,4513583.0,US,-84.5333,39.1834,0.0
225,Fortuna,53.64,85.0,9.22,5563839.0,US,-124.1573,40.5982,0.0
226,Ayan,46.78,75.0,5.35,2027316.0,RU,138.1667,56.45,83.0
227,El Dorado,62.64,68.0,1.99,5345659.0,US,-120.5177,38.7666,100.0
228,Leonidovo,49.86,78.0,2.93,2123805.0,RU,142.8667,49.2833,99.0
229,Chicama,72.14,80.0,5.41,3698359.0,PE,-79.1469,-7.8447,96.0
230,Umluj,82.42,82.0,8.08,100926.0,SA,37.2685,25.0213,17.0
231,Acapulco de Juárez,85.82,62.0,0.0,3533462.0,MX,-99.8901,16.8634,20.0
232,Santa Maria,47.71,88.0,5.12,3450083.0,BR,-53.8069,-29.6842,3.0
233,Ubinskoye,59.07,65.0,4.59,1488708.0,RU,79.6802,55.3068,99.0
234,Flinders,69.22,49.0,11.01,6255012.0,AU,150.8552,-34.5833,1.0
235,Broome,60.3,74.0,3.69,5110365.0,US,-75.833,42.2506,35.0
236,Mossamedes,61.21,80.0,11.92,3347019.0,AO,12.1522,-15.1961,7.0
237,Orange Cove,75.02,46.0,4.61,5379533.0,US,-119.3137,36.6244,0.0
238,Barra Patuca,81.28,76.0,5.28,3614835.0,HN,-84.2833,15.8,38.0
239,Arlit,85.03,14.0,5.66,2447513.0,NE,7.3853,18.7369,100.0
240,Chilia Veche,58.46,94.0,9.13,682117.0,RO,29.2833,45.4167,63.0
241,Conde,74.66,100.0,6.91,3385077.0,BR,-34.9075,-7.2597,75.0
242,Bulungu,69.98,98.0,1.79,2316259.0,CD,18.6,-4.55,89.0
243,Baker City,62.04,71.0,8.05,5712169.0,US,-117.8344,44.7749,0.0
244,Rājākhera,85.82,49.0,4.61,1258930.0,IN,78.1714,26.8961,95.0
245,Portland,67.39,59.0,10.36,5746545.0,US,-122.6762,45.5234,20.0
246,Birkeland,43.54,58.0,3.44,3161532.0,NO,8.2323,58.3309,100.0
247,Dvinskoy Bereznik,54.25,53.0,6.87,577240.0,RU,42.7072,62.8551,59.0
248,Jalingo,77.63,78.0,4.23,2336589.0,NG,11.3667,8.8833,100.0
249,Yar-Sale,47.35,62.0,15.95,1486321.0,RU,70.8333,66.8333,1.0
250,Tafresh,67.78,31.0,5.99,113636.0,IR,50.013,34.692,41.0
251,Homer,46.08,75.0,8.05,5864145.0,US,-151.5483,59.6425,100.0
252,Mandalgovi,62.17,18.0,16.51,2030065.0,MN,106.2708,45.7625,100.0
253,Kibala,74.88,85.0,2.08,2425791.0,TD,18.3463,9.1104,100.0
254,Ulladulla,62.76,37.0,5.03,2145554.0,AU,150.4667,-35.35,0.0
255,Sitka,46.29,76.0,3.44,5557293.0,US,-135.33,57.0531,75.0
256,Leningradskiy,34.2,100.0,5.61,2123814.0,RU,178.4167,69.3833,98.0
257,Takāb,62.37,46.0,1.52,113508.0,IR,47.1133,36.4009,87.0
258,Tarancón,52.9,88.0,2.48,3108317.0,ES,-3.0073,40.0085,100.0
259,Goderich,53.91,59.0,9.75,5962442.0,CA,-81.7165,43.7501,7.0
260,Rosa Zarate,74.55,96.0,1.68,3652257.0,EC,-79.4667,0.3333,93.0
261,Luganville,81.18,64.0,6.64,2136150.0,VU,167.1667,-15.5333,8.0
262,Druzhba,47.07,76.0,5.26,709584.0,UA,33.9453,52.0428,0.0
263,Valea lui Mihai,58.71,90.0,4.47,663692.0,RO,22.15,47.5167,71.0
264,Ancud,42.22,84.0,0.58,3899695.0,CL,-73.8203,-41.8697,100.0
265,Matagami,49.5,63.0,4.56,6067747.0,CA,-77.6328,49.7502,0.0
266,Peniche,61.61,90.0,6.15,2264923.0,PT,-9.3811,39.3558,11.0
267,Miraflores,61.27,77.0,2.46,3761194.0,MX,-98.8083,19.2167,90.0
268,Lebu,47.43,80.0,6.82,3883457.0,CL,-73.65,-37.6167,100.0
269,Crawley,47.8,83.0,11.5,2652053.0,GB,-0.1831,51.113,0.0
270,Khonsa,80.76,53.0,3.69,1266668.0,IN,95.5667,27.0167,0.0
271,Yumen,68.4,27.0,24.0,1528998.0,CN,97.2,40.2833,0.0
272,Bubaque,81.16,84.0,15.7,2374583.0,GW,-15.8333,11.2833,87.0
273,Ribas do Rio Pardo,64.78,95.0,3.94,3451399.0,BR,-53.7592,-20.4431,100.0
274,Malbork,47.8,83.0,4.07,3092472.0,PL,19.0266,54.0359,1.0
275,Saint-Leu,68.77,90.0,3.56,6690297.0,RE,55.2833,-21.15,93.0
276,Arkhara,62.74,38.0,13.29,2027487.0,RU,130.0842,49.4212,25.0
277,Tura,87.96,47.0,2.04,1254046.0,IN,90.2201,25.5198,0.0
278,Ingham,61.7,68.0,6.11,4997130.0,US,-84.3833,42.6,100.0
279,Sarandi,63.73,90.0,1.52,3447998.0,BR,-51.8739,-23.4436,99.0
280,Biak,82.26,72.0,6.49,1637001.0,ID,122.8766,-0.9131,55.0
281,Nieuw Amsterdam,78.03,94.0,4.99,3383434.0,SR,-55.0833,5.8833,95.0
282,Boundiali,76.21,80.0,7.29,2290836.0,CI,-6.4869,9.5217,36.0
283,Aitape,85.48,68.0,4.34,2101169.0,PG,142.3475,-3.1374,100.0
284,Manadhoo,84.04,77.0,12.82,1337618.0,MV,73.3833,5.7667,91.0
285,Ca Mau,87.48,63.0,9.04,1586443.0,VN,105.15,9.1769,83.0
286,San Patricio,75.4,73.0,7.7,4726521.0,US,-97.5169,28.017,79.0
287,Portree,42.53,86.0,2.37,2640006.0,GB,-6.1942,57.4129,100.0
288,Srednekolymsk,54.72,37.0,15.88,2121025.0,RU,153.6833,67.45,41.0
289,Zhangaözen,73.72,38.0,8.01,607610.0,KZ,52.8,43.3,48.0
290,Mayo,66.9,72.0,8.01,4362001.0,US,-76.5119,38.8876,75.0
291,Hualmay,69.82,85.0,7.14,3939761.0,PE,-77.6139,-11.0964,92.0
292,Púchov,50.5,92.0,3.4,3057963.0,SK,18.326,49.1249,100.0
293,Hong Kong,86.31,78.0,5.99,1819729.0,HK,114.1577,22.2855,1.0
294,Dzilam González,77.16,80.0,4.99,3529654.0,MX,-88.9333,21.2833,80.0
295,Sistranda,42.76,88.0,32.41,3139597.0,NO,8.834,63.7256,100.0
296,Ondjiva,60.53,59.0,5.03,3346821.0,AO,15.7333,-17.0667,18.0
297,Taguatinga,73.83,49.0,2.57,6319623.0,BR,-46.5711,-12.3857,93.0
298,Evensk,56.44,45.0,3.06,2125693.0,RU,159.2333,61.95,83.0
299,Katsuura,73.36,91.0,25.61,2112309.0,JP,140.3,35.1333,100.0
300,Ambovombe,65.32,84.0,3.27,1079048.0,MG,46.0833,-25.1667,0.0
301,Pisco,68.05,83.0,10.36,3932145.0,PE,-76.2167,-13.7,100.0
302,Lala,85.6,72.0,8.1,1707944.0,PH,123.7458,7.9745,98.0
303,East London,61.74,77.0,11.5,1006984.0,ZA,27.9116,-33.0153,20.0
304,Nyurba,62.46,28.0,4.21,2018735.0,RU,118.3319,63.2842,10.0
305,Baykit,63.63,39.0,2.77,1510689.0,RU,96.37,61.67,100.0
306,Muyezerskiy,46.27,84.0,8.88,524100.0,RU,31.65,63.9333,60.0
307,Umarkot,90.01,50.0,11.12,1162959.0,PK,69.7362,25.3616,10.0
308,Paamiut,34.43,86.0,17.09,3421193.0,GL,-49.6678,61.994,71.0
309,Gberia Fotombu,73.13,93.0,5.01,2409019.0,SL,-11.1667,9.8833,55.0
310,Auki,85.86,66.0,3.27,2109701.0,SB,160.7034,-8.7676,17.0
311,Timmins,56.53,65.0,5.64,6166739.0,CA,-81.3331,48.4669,35.0
312,Pachino,65.14,75.0,3.71,6539213.0,IT,15.0907,36.7186,58.0
313,Arrondissement d'Arcachon,59.04,94.0,2.3,6621469.0,FR,-1.0519,44.5875,0.0
314,Avera,58.37,95.0,4.34,4231997.0,US,-82.5271,33.194,0.0
315,Bonthe,79.88,86.0,8.57,2409914.0,SL,-12.505,7.5264,100.0
316,Songjianghe,70.32,29.0,8.97,2034691.0,CN,127.479,42.1859,95.0
317,Salisbury,48.58,78.0,10.36,2638664.0,GB,-1.7957,51.0693,43.0
318,Xi'an,62.6,95.0,1.68,1790630.0,CN,108.9286,34.2583,100.0
319,Touros,76.66,89.0,9.8,3386213.0,BR,-35.4608,-5.1989,9.0
320,Boda,68.7,95.0,2.44,2388614.0,CF,17.4695,4.3189,100.0
321,Mayumba,74.34,89.0,4.59,2399001.0,GA,10.6554,-3.432,72.0
322,Chul'man,55.92,35.0,4.29,2025261.0,RU,124.9104,56.8479,38.0
323,Tambacounda,86.67,58.0,12.68,2244991.0,SN,-13.7586,13.7539,92.0
324,Bushehr,86.09,58.0,9.22,139817.0,IR,50.8385,28.9684,0.0
325,Port Hardy,51.8,82.0,13.15,6111862.0,CA,-127.4199,50.6996,29.0
326,Shashi,72.36,83.0,9.73,1795816.0,CN,112.2447,30.3072,99.0
327,Grand-Lahou,79.3,86.0,2.35,2288105.0,CI,-5.0242,5.1367,100.0
328,State College,60.75,69.0,0.78,5213681.0,US,-77.86,40.7934,100.0
329,Teguise,62.82,72.0,4.61,2510573.0,ES,-13.564,29.0605,0.0
330,Magdagachi,63.55,32.0,4.45,2020591.0,RU,125.8,53.45,100.0
331,Gaozhou,88.47,64.0,1.41,1810295.0,CN,110.8461,21.9392,19.0
332,Meulaboh,83.37,69.0,1.05,1214488.0,ID,96.1285,4.1363,83.0
333,Río Gallegos,42.85,87.0,9.22,3838859.0,AR,-69.2181,-51.6226,100.0
334,Chaihe,59.27,54.0,9.8,2038198.0,CN,129.7,44.7667,61.0
335,Nikel,46.58,79.0,8.12,522260.0,RU,30.222,69.4128,86.0
336,Beringovskiy,45.99,63.0,12.55,2126710.0,RU,179.3167,63.05,90.0
337,Coyhaique,37.35,87.0,8.05,3894426.0,CL,-72.0662,-45.5752,0.0
338,Vardø,46.38,87.0,9.22,777019.0,NO,31.1107,70.3705,40.0
339,Talnakh,42.73,90.0,6.69,1490256.0,RU,88.3972,69.4865,100.0
340,Faya,61.32,53.0,1.95,110690.0,SA,42.4509,18.3851,86.0
341,Znamenskoye,65.79,57.0,2.04,1485020.0,RU,73.8282,57.1281,39.0
342,Manavgat,64.38,79.0,3.56,304854.0,TR,31.4431,36.7867,100.0
343,Cairns,79.88,48.0,11.5,2172797.0,AU,145.7667,-16.9167,98.0
344,Klaksvík,47.32,87.0,28.07,2618795.0,FO,-6.589,62.2266,96.0
345,Fonte Boa,76.98,88.0,2.04,6319315.0,BR,-66.2662,-2.4959,100.0
346,Piaçabuçu,75.81,84.0,7.0,3454005.0,BR,-36.4344,-10.4056,15.0
347,Havøysund,44.83,86.0,15.64,779622.0,NO,24.6622,70.9963,71.0
348,Boden,44.6,60.0,10.8,606531.0,SE,21.6886,65.8252,4.0
349,Nhulunbuy,81.21,57.0,18.41,2064735.0,AU,136.7667,-12.2333,75.0
350,Kamenka,52.39,83.0,9.08,553766.0,RU,42.7678,51.3223,5.0
351,Kazachinskoye,65.68,35.0,7.85,1504075.0,RU,93.2761,57.6953,20.0
352,Geraldton,70.21,28.0,18.41,2070998.0,AU,114.6,-28.7667,100.0
353,Maxixe,67.21,89.0,4.03,1039536.0,MZ,35.3472,-23.8597,0.0
354,Leon Valley,73.26,74.0,5.75,4705923.0,US,-98.6186,29.4952,0.0
355,Nome,42.89,75.0,20.71,5870133.0,US,-165.4064,64.5011,0.0
356,Manokwari,84.47,70.0,10.0,1636308.0,ID,134.0833,-0.8667,39.0
357,Grand-Santi,73.33,99.0,1.77,3381538.0,GF,-54.3833,4.25,96.0
358,Faanui,82.27,74.0,18.59,4034551.0,PF,-151.75,-16.4833,85.0
359,Clyde River,26.83,80.0,14.97,5924351.0,CA,-68.5914,70.4692,100.0
360,Kosa,67.66,65.0,10.04,544318.0,RU,54.9977,59.9445,73.0
361,Blackwater,70.03,23.0,6.02,2175403.0,AU,148.8833,-23.5833,0.0
362,Assiniboia,64.22,63.0,3.44,5887798.0,CA,-105.9845,49.6334,96.0
363,Bambous Virieux,77.25,73.0,14.97,1106677.0,MU,57.7575,-20.3428,75.0
364,Arona,58.57,82.0,6.91,2521582.0,ES,-16.681,28.0996,20.0
365,Belyy Yar,57.09,62.0,15.66,1510377.0,RU,91.3903,53.6039,0.0
366,San Miguel,73.65,96.0,1.86,3583446.0,SV,-88.1833,13.4833,98.0
367,Maniitsoq,30.16,61.0,9.71,3421982.0,GL,-52.9,65.4167,1.0
368,Freeport,61.83,75.0,8.05,5117949.0,US,-73.5832,40.6576,0.0
369,Constitución,50.63,67.0,8.72,3893726.0,CL,-72.4167,-35.3333,100.0
370,Tarakan,87.3,74.0,5.75,1624725.0,ID,117.6333,3.3,40.0
371,Nirmal,93.0,28.0,7.38,1261288.0,IN,78.35,19.1,92.0
372,Zmeinogorsk,51.6,70.0,2.89,1485042.0,RU,82.195,51.1567,100.0
373,Valparaíso,59.0,62.0,6.91,3868626.0,CL,-71.6273,-33.0393,0.0
374,Caravelas,70.79,92.0,4.29,3466980.0,BR,-39.2481,-17.7125,10.0
375,Torbay,47.71,80.0,25.32,6167817.0,CA,-52.7314,47.6666,75.0
376,Le Port,70.03,90.0,4.07,935616.0,RE,55.2919,-20.9373,89.0
377,Kumul,74.1,32.0,10.56,1529484.0,CN,93.45,42.8,100.0
378,Inverell,60.12,53.0,8.01,2162662.0,AU,151.1167,-29.7833,3.0
379,Tortolì,64.96,77.0,4.29,2522890.0,IT,9.6572,39.9256,100.0
380,Beipiao,78.8,26.0,12.26,2038342.0,CN,120.7792,41.7919,53.0
381,Novo Aripuanã,77.29,82.0,2.28,3663142.0,BR,-60.3797,-5.1206,61.0
382,Akdepe,77.09,14.0,11.59,601551.0,TM,59.3788,42.0551,42.0
383,Pangnirtung,23.07,94.0,2.82,6096551.0,CA,-65.7125,66.1451,100.0
384,Komatipoort,57.06,77.0,4.54,988290.0,ZA,31.9548,-25.4332,0.0
385,Kailua,77.88,68.0,5.75,5847486.0,US,-157.7394,21.4022,40.0
386,Massakory,84.58,55.0,10.29,2428228.0,TD,15.7293,12.996,67.0
387,Byron Bay,67.71,40.0,6.13,2172880.0,AU,153.6167,-28.65,0.0
388,Dawson Creek,65.84,32.0,13.8,5935804.0,CA,-120.2362,55.7666,0.0
389,Port-Gentil,78.3,85.0,11.16,2396518.0,GA,8.7815,-0.7193,100.0
390,Augusto Corrêa,73.78,98.0,2.84,3406961.0,BR,-46.635,-1.0217,100.0
391,Araouane,86.88,29.0,11.61,2460954.0,ML,-3.5265,18.9048,4.0
392,Coahuayana Viejo,80.38,85.0,1.95,4013679.0,MX,-103.6833,18.7333,19.0
393,Mount Gambier,57.94,64.0,9.24,2156643.0,AU,140.7667,-37.8333,73.0
394,Swan River,71.49,64.0,1.14,6160362.0,CA,-101.2676,52.1058,74.0
395,Bima,84.78,62.0,4.16,1648759.0,ID,118.7167,-8.4667,11.0
396,Cherskiy,37.9,70.0,19.66,2126199.0,RU,161.3,68.75,100.0
397,Adrar,82.81,33.0,13.04,2381972.0,MR,-10.0711,20.5022,9.0
398,Egvekinot,34.43,84.0,3.96,4031742.0,RU,-179.1667,66.3167,100.0
399,Comodoro Rivadavia,42.66,52.0,3.44,3860443.0,AR,-67.5,-45.8667,0.0
400,Volchikha,65.57,31.0,3.67,1486983.0,RU,80.3833,52.0333,100.0
401,Paita,75.72,78.0,15.66,3694112.0,PE,-81.1144,-5.0892,97.0
402,Calama,43.29,19.0,18.41,3897347.0,CL,-68.9333,-22.4667,0.0
403,Abalak,66.09,68.0,3.31,1512223.0,RU,68.5944,58.1286,97.0
404,Atar,84.85,35.0,13.65,2381334.0,MR,-13.0499,20.5169,100.0
405,Venado Tuerto,44.76,73.0,7.09,3833062.0,AR,-61.9688,-33.7456,56.0
406,Ostrovnoy,50.63,51.0,16.11,556268.0,RU,39.5131,68.0531,98.0
407,Praia,79.34,41.0,17.27,3374333.0,CV,-23.5087,14.9215,0.0
408,Campoverde,78.49,98.0,1.01,3733380.0,PE,-74.8058,-8.4753,100.0
409,Peebles,41.25,93.0,2.91,2640526.0,GB,-3.1888,55.6519,64.0
410,Ngunguru,65.95,81.0,11.92,2186111.0,NZ,174.5,-35.6167,0.0
411,Haines Junction,51.75,28.0,6.91,5969025.0,CA,-137.5108,60.7522,84.0
412,Chernyshevsk,64.51,28.0,8.55,2025458.0,RU,117.0174,52.5243,6.0
413,Makiyivka,58.15,90.0,9.8,702320.0,UA,37.9258,48.0478,56.0
414,Petropavlovsk-Kamchatskiy,45.19,93.0,11.18,2122104.0,RU,158.6483,53.0452,100.0
415,Los Llanos de Aridane,60.12,76.0,5.75,2514651.0,ES,-17.9182,28.6585,40.0
416,Nuevo Progreso,78.89,64.0,1.99,3522526.0,MX,-97.95,23.1667,29.0
417,Norsup,81.32,61.0,4.38,2135517.0,VU,167.3833,-16.0667,9.0
418,Yulara,65.71,25.0,10.8,6355222.0,AU,130.9889,-25.2406,20.0
419,Hohhot,78.96,18.0,14.34,2036892.0,CN,111.6522,40.8106,86.0
420,Bowen,73.06,50.0,11.34,2174444.0,AU,148.2333,-20.0167,0.0
421,Smoky Lake,66.0,63.0,4.61,6150293.0,CA,-112.4686,54.1169,100.0
422,Angoram,78.93,91.0,2.26,2100765.0,PG,144.0661,-4.0625,100.0
423,Itarema,77.5,88.0,9.17,3393692.0,BR,-39.9167,-2.9248,46.0
424,La Asuncion,80.33,94.0,14.97,3480908.0,VE,-63.8628,11.0333,71.0
425,Berlevåg,44.67,81.0,4.61,780687.0,NO,29.0864,70.8578,86.0
426,Ambilobe,67.46,89.0,2.91,1082243.0,MG,49.05,-13.2,0.0
427,Teya,63.77,38.0,6.42,1489656.0,RU,92.6267,60.3778,51.0
428,Máncora,79.83,71.0,6.33,3695000.0,PE,-81.0475,-4.1078,99.0
429,Crotone,65.19,73.0,6.76,2524881.0,IT,17.1178,39.0851,4.0
430,Sechura,77.02,71.0,14.58,3691954.0,PE,-80.8222,-5.5569,100.0
431,Tarko-Sale,51.53,88.0,14.92,1490085.0,RU,77.785,64.9225,100.0
432,Yerofey Pavlovich,64.0,27.0,3.69,2012938.0,RU,121.9667,53.9667,33.0
433,Doha,92.43,28.0,10.36,290030.0,QA,51.5333,25.2867,0.0
434,Palmer,61.05,68.0,0.0,4946620.0,US,-72.3287,42.1584,0.0
435,Darhan,64.56,31.0,5.08,2031964.0,MN,105.9228,49.4867,19.0
436,Rantauprapat,87.57,55.0,0.43,1214073.0,ID,99.8333,2.1,99.0
437,Arroyo de la Encomienda,54.34,88.0,5.75,3129371.0,ES,-4.7969,41.6096,0.0
438,Keetmanshoop,54.21,39.0,3.71,3356264.0,NA,18.1333,-26.5833,84.0
439,Staryy Nadym,51.04,70.0,21.07,1490918.0,RU,72.6842,65.6118,87.0
440,Beloha,63.82,90.0,3.42,1067565.0,MG,45.05,-25.1667,0.0
441,Kelvington,61.81,82.0,4.88,5990669.0,CA,-103.5343,52.1667,12.0
442,Munger,95.09,34.0,7.29,1262482.0,IN,86.4667,25.3833,0.0
443,Grindavik,46.87,100.0,18.41,3416888.0,IS,-22.4338,63.8424,100.0
444,Kangaatsiaq,25.34,69.0,8.32,3422683.0,GL,-53.4641,68.3065,18.0
445,Omsukchan,51.03,55.0,7.2,2122493.0,RU,155.8,62.5333,99.0
446,Quzhou,89.11,64.0,2.66,1797264.0,CN,118.8686,28.9594,6.0
447,Neijiang,80.74,68.0,6.55,1799491.0,CN,105.0622,29.5835,55.0
448,Bonavista,43.7,94.0,19.46,5905393.0,CA,-53.1147,48.6499,77.0
449,Pauini,76.96,88.0,0.72,3662927.0,BR,-66.9764,-7.7136,100.0
450,Poso,88.3,61.0,3.8,1630723.0,ID,120.7524,-1.3959,5.0
451,Hervey Bay,67.78,31.0,5.08,2146219.0,AU,152.8535,-25.2986,4.0
452,Gambēla,68.9,93.0,4.25,337405.0,ET,34.5833,8.25,95.0
453,Hede,67.87,94.0,11.34,1808744.0,CN,120.2517,33.7681,100.0
454,Alice Springs,63.95,34.0,13.8,2077895.0,AU,133.8833,-23.7,24.0
455,Tazmalt,62.26,86.0,2.13,2477537.0,DZ,4.3989,36.3868,100.0
456,Mangaratiba,72.46,92.0,4.7,3457991.0,BR,-44.0406,-22.9597,100.0
457,Porto-Novo,84.02,88.0,4.09,2392087.0,BJ,2.6036,6.4965,100.0
458,Sabha,74.44,26.0,8.32,2212775.0,LY,14.4283,27.0377,0.0
459,Salinópolis,79.45,84.0,9.55,3389822.0,BR,-47.3561,-0.6136,97.0
460,Riyadh,82.54,31.0,10.16,108410.0,SA,46.7219,24.6877,24.0
461,Jönköping,36.39,81.0,1.61,2702979.0,SE,14.1562,57.7814,0.0
462,Yatou,64.94,88.0,7.96,1786855.0,CN,122.3833,37.15,100.0
463,Jaru,73.26,85.0,4.03,3925040.0,BR,-62.4664,-10.4389,99.0
464,Yashan,87.17,68.0,4.09,1786867.0,CN,109.9419,22.1975,45.0
465,Bamiantong,59.14,57.0,8.99,2038482.0,CN,130.5333,44.9333,87.0
466,Boa Vista,80.58,89.0,2.3,3664980.0,BR,-60.6733,2.8197,75.0
467,Barra do Bugres,70.05,92.0,3.69,3470718.0,BR,-57.1811,-15.0725,100.0
468,Butembo,56.48,84.0,2.73,217562.0,CD,29.2833,0.15,98.0
469,Talaya,54.32,46.0,16.42,2120769.0,RU,152.75,61.3833,89.0
470,Vengurla,84.69,69.0,7.65,1253257.0,IN,73.6333,15.8667,2.0
471,Maracaçumé,72.95,98.0,2.28,3395497.0,BR,-45.9592,-2.0428,100.0
472,Nouadhibou,71.58,56.0,18.41,2377457.0,MR,-17.0347,20.931,93.0
473,La Celia,59.88,98.0,3.06,3679542.0,CO,-76.0167,5.0433,100.0
474,Lüderitz,53.71,73.0,7.05,3355672.0,NA,15.1594,-26.6481,81.0
475,Carutapera,75.63,94.0,5.59,3402648.0,BR,-46.02,-1.195,100.0
476,Yauya,48.18,89.0,4.34,3690733.0,PE,-77.3,-8.9833,65.0
477,Port Said,70.09,77.0,6.51,358619.0,EG,32.2841,31.2565,0.0
478,Sambava,72.32,79.0,8.95,1056899.0,MG,50.1667,-14.2667,8.0
479,Kafanchan,68.74,93.0,2.13,2335713.0,NG,8.3,9.5833,100.0
480,Neftçala,71.87,68.0,9.95,147425.0,AZ,49.2472,39.3742,79.0
481,Yhú,58.78,96.0,5.12,3436595.0,PY,-55.9167,-25.05,24.0
482,Necochea,41.47,64.0,10.18,3430443.0,AR,-58.7368,-38.5473,7.0
483,Muros,60.78,93.0,0.38,3115824.0,ES,-9.0603,42.7762,100.0
484,Linxia Chengguanzhen,67.95,51.0,4.97,1803331.0,CN,103.2064,35.6003,33.0
485,Tripoli,70.14,57.0,9.57,2210247.0,LY,13.1875,32.8752,38.0
486,Ixtapa,81.63,78.0,5.75,4004293.0,MX,-105.2,20.7,100.0
487,Santiago del Estero,56.84,53.0,5.41,3835869.0,AR,-64.2615,-27.7951,83.0
488,Uribia,84.47,68.0,12.01,3666409.0,CO,-72.266,11.7139,98.0
489,Rome,56.93,63.0,3.44,5134295.0,US,-75.4557,43.2128,0.0
490,Xuanzhou,82.33,85.0,6.55,1788081.0,CN,118.7553,30.9525,89.0
491,Arrondissement de Muret,55.62,95.0,3.36,2991152.0,FR,1.25,43.3333,74.0
492,Orlik,55.83,37.0,3.2,1496073.0,RU,99.825,52.5178,14.0
493,Toyoake,72.63,84.0,1.1,1856057.0,JP,137.0137,35.0594,100.0
494,Ibrā’,84.96,51.0,7.05,287832.0,OM,58.5334,22.6906,69.0
495,Ayagoz,57.63,40.0,8.93,1525988.0,KZ,80.4392,47.9714,36.0
496,Deputatsky,37.9,87.0,4.18,2028164.0,RU,139.9,69.3,77.0
497,Moyale,61.57,88.0,3.31,186180.0,KE,39.0584,3.5167,97.0
498,Gresik,85.98,61.0,5.86,1643776.0,ID,112.6561,-7.1539,57.0
499,Tsushima,72.97,94.0,2.46,1849539.0,JP,136.7167,35.1667,100.0
500,Boralday,60.66,31.0,4.47,1526384.0,KZ,76.8594,43.3578,36.0
501,Mahina,83.97,65.0,6.91,4034307.0,PF,-149.489,-17.5065,20.0
502,Ust-Maya,65.05,34.0,4.94,2013918.0,RU,134.5333,60.4167,76.0
503,General Pico,45.9,54.0,9.62,3855075.0,AR,-63.7568,-35.6566,100.0
504,Labuan,86.36,79.0,2.3,1733782.0,MY,115.2417,5.2767,20.0
505,Saint Anthony,69.8,40.0,9.22,5044290.0,US,-93.218,45.0205,0.0
506,Iqaluit,28.13,80.0,6.91,5983720.0,CA,-68.5145,63.7506,100.0
507,Haapiti,83.71,71.0,18.19,4034438.0,PF,-149.8667,-17.5667,40.0
508,Sarankhola,91.36,50.0,4.92,1185239.0,BD,89.7897,22.3082,0.0
509,Odienné,75.33,84.0,4.16,2283016.0,CI,-7.5692,9.51,34.0
510,Miles City,65.37,72.0,10.36,5666176.0,US,-105.8406,46.4083,0.0
511,Daru,80.51,80.0,11.79,2098329.0,PG,143.2092,-9.0763,68.0
512,Umm Kaddadah,78.55,61.0,14.5,364933.0,SD,26.6876,13.6017,98.0
513,Skegness,50.5,73.0,12.59,2637762.0,GB,0.3363,53.1436,81.0
514,Saint-François,49.44,93.0,1.14,2980080.0,FR,3.9054,46.4154,0.0
515,Semey,57.42,41.0,4.47,1519422.0,KZ,80.2275,50.4111,0.0
516,Esperance,64.29,42.0,11.54,2071860.0,AU,121.9,-33.8667,99.0
517,Selkirk,73.6,31.0,8.01,6144054.0,CA,-96.8845,50.1436,16.0
518,Mahajanga,74.19,68.0,12.28,1062663.0,MG,46.3167,-15.7167,0.0
519,Ruwi,92.89,48.0,4.63,287286.0,OM,58.5507,23.5996,100.0
520,Pucallpa,78.84,100.0,3.44,3693345.0,PE,-74.5539,-8.3791,75.0
521,Ginda,71.38,35.0,3.58,1253628.0,IN,78.4932,30.6945,75.0
522,Hare Bay,44.2,95.0,10.38,5970873.0,CA,-54.0148,48.8499,92.0
523,Kabalo,67.71,76.0,3.18,215668.0,CD,26.9167,-6.05,49.0
524,Cockburn Town,81.52,84.0,16.33,3576994.0,TC,-71.1419,21.4612,100.0
525,Kolomyia,50.59,89.0,1.99,705392.0,UA,25.0403,48.5306,11.0
526,Odawara,74.08,89.0,11.65,1854747.0,JP,139.1597,35.2556,100.0
527,Santa Cruz de la Sierra,62.06,82.0,11.5,3904906.0,BO,-63.1667,-17.8,75.0
528,Derzhavīnsk,71.94,36.0,8.95,1524606.0,KZ,66.3167,51.1,88.0
529,Raduzhny,60.85,36.0,14.45,1540356.0,RU,77.475,62.0961,100.0
530,Gulariyā,93.47,25.0,2.59,1283368.0,NP,81.3333,28.2333,37.0
531,Oudtshoorn,48.56,89.0,3.53,967106.0,ZA,22.2014,-33.5907,33.0
532,Ruteng,72.84,56.0,0.89,1629380.0,ID,120.4721,-8.6136,22.0
533,Sokolac,48.58,96.0,0.81,3190385.0,BA,18.8017,43.9397,21.0
534,Jieshi,82.26,72.0,8.75,1805857.0,CN,115.8257,22.8134,0.0
535,Porto Velho,78.85,89.0,0.0,3662762.0,BR,-63.9039,-8.7619,20.0
536,Olinda,74.93,88.0,3.44,3393536.0,BR,-34.8553,-8.0089,75.0
537,Vallenar,70.5,26.0,0.92,3868633.0,CL,-70.7581,-28.5708,100.0
538,Bud,63.84,55.0,2.84,4255151.0,US,-86.1758,39.447,69.0
539,Dhārchula,77.92,37.0,3.49,1272864.0,IN,80.5333,29.85,45.0
540,Mabaruma,75.16,97.0,2.95,3377301.0,GY,-59.7833,8.2,99.0
541,Nemuro,50.14,93.0,6.29,2128975.0,JP,145.575,43.3236,85.0
542,Caucayá,73.18,96.0,2.06,3671437.0,CO,-74.7819,-0.1934,98.0
543,Vanderhoof,64.98,39.0,9.93,6173361.0,CA,-124.0198,54.0166,11.0
544,Maravilha,52.61,97.0,2.68,3457809.0,BR,-53.1725,-26.7608,77.0
545,Nanlong,74.43,82.0,5.55,1799908.0,CN,106.0631,31.3533,95.0
546,Seryshevo,62.17,39.0,8.5,2016942.0,RU,128.3786,51.0933,60.0
547,Les Cayes,78.44,80.0,1.92,3728097.0,HT,-73.75,18.2,57.0
548,Lagoa,62.26,80.0,11.97,3372964.0,PT,-27.9833,39.05,5.0
549,Pacifica,53.8,88.0,11.01,5380420.0,US,-122.4869,37.6138,75.0
550,Northam,53.82,84.0,15.64,2641434.0,GB,-4.2167,51.0333,68.0
551,Rio Grande,58.24,68.0,6.91,3451138.0,BR,-52.0986,-32.035,99.0
552,Gejiu,72.45,58.0,6.35,1810240.0,CN,103.1635,23.306,46.0
553,Opuwo,52.99,56.0,5.3,3354077.0,NA,13.84,-18.0607,3.0
554,La Ronge,64.65,63.0,6.91,6050066.0,CA,-105.2842,55.1001,40.0
555,Yazykovo,66.25,61.0,11.36,468483.0,RU,56.1353,55.2199,100.0
556,Batticaloa,85.06,72.0,2.95,1250161.0,LK,81.6924,7.7102,50.0
557,Khasan,70.14,41.0,8.68,2039557.0,RU,130.6434,42.4308,25.0
558,Kattivākkam,87.08,80.0,9.01,1267433.0,IN,80.3167,13.2167,49.0
559,Arrondissement de Saint-Denis,58.19,79.0,13.8,2980915.0,FR,2.3333,48.9167,0.0
560,Ende,83.34,60.0,5.41,1644932.0,ID,121.6623,-8.8432,0.0
561,Harlingen,75.33,94.0,4.61,4696233.0,US,-97.6961,26.1906,0.0
562,Zhicheng,73.94,80.0,3.87,1784554.0,CN,111.5047,30.2956,100.0
563,Havelock,67.89,93.0,5.75,4470244.0,US,-76.9013,34.8791,40.0
564,Madimba,70.43,90.0,8.39,878141.0,TZ,40.3333,-10.4,2.0
565,Pacific Grove,54.43,85.0,6.91,5380437.0,US,-121.9166,36.6177,100.0
566,Esim,79.63,86.0,4.5,2303611.0,GH,-2.2405,4.8699,96.0
567,Gorontalo,87.35,66.0,10.22,1643837.0,ID,123.0595,0.5412,22.0
568,Vaitape,82.27,74.0,18.43,4033077.0,PF,-151.75,-16.5167,79.0
569,Ottawa,67.98,54.0,9.48,6094817.0,CA,-75.6981,45.4112,11.0
570,Petropavl,66.18,63.0,2.24,1520172.0,KZ,69.1628,54.8753,0.0
571,Bossangoa,68.29,97.0,3.44,2388036.0,CF,17.4552,6.4926,99.0
572,Lavrentiya,35.01,90.0,4.83,4031637.0,RU,-171.0,65.5833,41.0
573,Muskegon,60.64,56.0,0.0,5003136.0,US,-86.1334,43.3,75.0
574,Lālmohan,87.66,59.0,4.32,1185251.0,BD,90.7419,22.3384,0.0
575,Gainesville,66.38,61.0,4.41,4156404.0,US,-82.3248,29.6516,53.0
