,City,Temp_max,Humidity,wind_speed,city_id,country_code,long,lat,Cloudiness
0,Flin Flon,56.88,99.0,5.23,5954718.0,CA,-101.865,54.7682,100.0
1,Severo-Kuril'sk,42.39,94.0,20.24,2121385.0,RU,156.125,50.6789,100.0
2,Codrington,56.34,72.0,8.7,2171099.0,AU,141.9667,-38.2667,100.0
3,Bredasdorp,59.54,84.0,19.86,1015776.0,ZA,20.0403,-34.5322,82.0
4,Kindersley,55.42,76.0,5.75,5992154.0,CA,-109.1682,51.4668,40.0
5,Kavieng,83.77,72.0,8.72,2094342.0,PG,150.7967,-2.5744,100.0
6,Brae,49.26,88.0,25.59,2654970.0,GB,-1.353,60.3964,92.0
7,Hithadhoo,83.14,73.0,7.25,1282256.0,MV,73.0833,-0.6,67.0
8,Ponta Delgada,59.72,94.0,2.3,3372783.0,PT,-25.6667,37.7333,20.0
9,Kaitangata,50.77,92.0,3.24,2208248.0,NZ,169.8464,-46.2817,100.0
10,Neiafu,78.73,90.0,14.54,4032420.0,TO,-173.9833,-18.65,2.0
11,Busselton,68.04,70.0,10.8,2075265.0,AU,115.3333,-33.65,100.0
12,Kudahuvadhoo,84.36,71.0,11.18,1337607.0,MV,72.8944,2.6708,42.0
13,Port Macquarie,57.88,55.0,7.0,2152659.0,AU,152.9167,-31.4333,0.0
14,Jamestown,57.56,71.0,3.44,5122534.0,US,-79.2353,42.097,0.0
15,Nantucket,57.29,88.0,10.36,4944903.0,US,-70.0995,41.2835,0.0
16,São João da Barra,64.15,90.0,2.77,3448903.0,BR,-41.0511,-21.6403,9.0
17,Castlebar,52.43,64.0,3.13,2965654.0,IE,-9.3,53.85,100.0
18,Katobu,83.95,64.0,7.94,1640972.0,ID,122.5276,-4.9408,77.0
19,Port Lincoln,59.74,86.0,7.43,2063036.0,AU,135.8667,-34.7333,38.0
20,Padampur,88.77,41.0,7.9,1260938.0,IN,73.6167,29.6833,100.0
21,Cayenne,73.44,100.0,1.14,3382160.0,GF,-52.3333,4.9333,100.0
22,Norman Wells,51.84,66.0,9.22,6089245.0,CA,-126.8329,65.282,75.0
23,Upernavik,18.95,75.0,6.46,3418910.0,GL,-56.1549,72.7868,100.0
24,Ushuaia,44.26,81.0,1.14,3833367.0,AR,-68.3,-54.8,40.0
25,Tasiilaq,37.56,78.0,3.71,3424607.0,GL,-37.6368,65.6145,100.0
26,Thunder Bay,42.71,87.0,2.3,6166142.0,CA,-89.3168,48.4001,40.0
27,Provideniya,37.65,78.0,7.78,4031574.0,RU,-173.3,64.3833,76.0
28,Cap Malheureux,81.46,64.0,11.99,934649.0,MU,57.6142,-19.9842,10.0
29,West Wendover,58.21,67.0,5.75,5710035.0,US,-114.0733,40.7391,75.0
30,Tautira,81.34,69.0,15.19,4033557.0,PF,-149.15,-17.7333,84.0
31,Avarua,77.05,88.0,3.44,4035715.0,CK,-159.775,-21.2078,20.0
32,Punta Arenas,46.51,81.0,17.27,3874787.0,CL,-70.9167,-53.15,100.0
33,Ozernovskiy,43.81,89.0,15.57,2122293.0,RU,156.5167,51.5,100.0
34,Aksu,77.56,21.0,3.18,1529660.0,CN,80.2644,41.1231,0.0
35,Arrondissement d'Ajaccio,68.61,57.0,4.61,3038333.0,FR,8.9167,42.0,0.0
36,Cabedelo,75.87,97.0,7.18,3404558.0,BR,-34.8339,-6.9811,98.0
37,Dikson,31.86,92.0,6.33,1507390.0,RU,80.5464,73.5069,9.0
38,Hobart,46.51,66.0,17.27,2163355.0,AU,147.3294,-42.8794,40.0
39,Vestmannaeyjar,47.39,100.0,13.8,3412093.0,IS,-20.2734,63.4427,100.0
40,Alofi,76.89,94.0,9.22,4036284.0,NU,-169.9187,-19.0595,40.0
41,Carnarvon,75.65,56.0,9.1,2074865.0,AU,113.6333,-24.8667,100.0
42,Saint-Philippe,81.99,72.0,11.83,935215.0,RE,55.7679,-21.3585,99.0
43,Cabra,60.85,78.0,4.36,2520645.0,ES,-4.4421,37.4725,24.0
44,Feldbach,71.76,48.0,4.09,2779685.0,AT,15.8883,46.9531,6.0
45,Tual,81.27,82.0,20.29,1623197.0,ID,132.75,-5.6667,90.0
46,Longyearbyen,33.64,75.0,20.71,2729907.0,SJ,15.6401,78.2186,75.0
47,Dukat,44.06,79.0,7.85,2125906.0,RU,155.55,62.55,100.0
48,Jalu,76.17,40.0,3.83,86049.0,LY,21.5482,29.0331,0.0
49,Vaini,77.16,88.0,13.8,4032243.0,TO,-175.2,-21.2,75.0
50,Albany,55.27,68.0,1.01,5106841.0,US,-73.9662,42.6001,0.0
51,Karaton,85.55,66.0,2.66,1630058.0,ID,106.1045,-6.3424,76.0
52,Saldanha,55.45,72.0,13.44,3361934.0,ZA,17.9442,-33.0117,0.0
53,Castro,54.3,96.0,3.58,3466704.0,BR,-50.0119,-24.7911,98.0
54,Inhambane,80.01,65.0,9.22,1045114.0,MZ,35.3833,-23.865,20.0
55,Mataura,52.65,90.0,4.07,6201424.0,NZ,168.8643,-46.1927,100.0
56,Puerto Ayora,74.55,100.0,6.62,3652764.0,EC,-90.3518,-0.7393,100.0
57,Arraial do Cabo,70.41,89.0,16.31,3471451.0,BR,-42.0278,-22.9661,100.0
58,Obihiro,66.61,68.0,4.61,2128815.0,JP,143.2044,42.9172,75.0
59,Penzance,58.23,67.0,18.41,2640377.0,GB,-5.5371,50.1186,0.0
60,Butaritari,84.16,76.0,12.59,2110227.0,KI,172.7902,3.0707,33.0
61,Rikitea,72.84,59.0,11.48,4030556.0,PF,-134.9692,-23.1203,33.0
62,Namatanai,81.72,80.0,12.1,2090021.0,PG,152.4333,-3.6667,76.0
63,Isangel,73.92,77.0,8.28,2136825.0,VU,169.2667,-19.55,13.0
64,Saint George,70.7,22.0,5.75,5546220.0,US,-113.5841,37.1041,0.0
65,Kruisfontein,56.88,79.0,6.78,986717.0,ZA,24.7314,-34.0033,100.0
66,Mwinilunga,74.23,35.0,6.02,902620.0,ZM,24.4293,-11.7358,100.0
67,Port Alfred,61.18,94.0,12.33,964432.0,ZA,26.891,-33.5906,100.0
68,Marzuq,86.85,33.0,6.91,72181.0,YE,46.4667,14.4,93.0
69,Puerto Escondido,81.63,78.0,4.68,3520994.0,MX,-97.0667,15.85,19.0
70,Sivaki,63.32,31.0,9.53,2016477.0,RU,126.75,52.6333,100.0
71,Yellowknife,48.72,71.0,6.91,6185377.0,CA,-114.3525,62.456,20.0
72,Canchungo,78.93,74.0,8.46,2373951.0,GW,-16.0333,12.0672,98.0
73,Östersund,39.65,41.0,9.22,2685750.0,SE,14.6357,63.1792,0.0
74,Fort Nelson,51.94,77.0,10.36,5955902.0,CA,-122.7002,58.8053,75.0
75,Castelo Branco,61.21,77.0,2.13,2269514.0,PT,-7.4909,39.8222,100.0
76,Black River,78.49,86.0,2.93,3491355.0,JM,-77.8487,18.0264,96.0
77,Atuona,81.32,68.0,19.08,4020109.0,PF,-139.0333,-9.8,6.0
78,Birao,79.23,69.0,7.99,240210.0,CF,22.7882,10.2849,100.0
79,Ekhabi,43.43,62.0,15.9,2122614.0,RU,142.9671,53.5102,100.0
80,Barrow,33.82,86.0,10.36,5880054.0,US,-156.7887,71.2906,100.0
81,Hilo,68.92,97.0,2.42,5855927.0,US,-155.09,19.7297,100.0
82,Mehamn,48.15,61.0,5.75,778707.0,NO,27.8492,71.0357,40.0
83,Shingū,77.13,85.0,7.09,1847947.0,JP,135.9833,33.7333,100.0
84,George Town,85.96,74.0,5.01,1735106.0,MY,100.3354,5.4112,20.0
85,Russell,61.07,89.0,3.22,4047434.0,US,-85.1999,32.3502,6.0
86,Sidhi,103.3,19.0,7.07,1256369.0,IN,81.8833,24.4167,1.0
87,Laramie,44.06,69.0,9.22,5830062.0,US,-105.5911,41.3114,0.0
88,Bluff,55.24,85.0,9.75,2206939.0,NZ,168.3333,-46.6,100.0
89,Bayir,68.52,60.0,3.11,304183.0,TR,28.2167,37.2687,100.0
90,Vila Velha,67.95,91.0,0.0,3445026.0,BR,-40.2925,-20.3297,0.0
91,Kapaa,71.02,86.0,11.5,5848280.0,US,-159.319,22.0752,75.0
92,Margate,55.27,67.0,11.99,2643044.0,GB,1.3862,51.3813,91.0
93,Kamaishi,63.46,92.0,1.21,2112444.0,JP,141.8833,39.2667,100.0
94,Stăncuţa,71.29,63.0,13.91,666309.0,RO,27.8333,44.9,99.0
95,Ankang,74.26,84.0,0.96,1789065.0,CN,109.0172,32.68,98.0
96,Port Elizabeth,63.1,89.0,3.0,964420.0,ZA,25.5701,-33.918,20.0
97,Morant Bay,82.02,84.0,3.36,3489440.0,JM,-76.4093,17.8815,66.0
98,São Miguel,75.97,93.0,9.93,3388304.0,BR,-35.3667,-5.4667,82.0
99,Guerrero Negro,58.89,87.0,12.48,4021858.0,MX,-114.0611,27.9769,2.0
100,Husavik,46.65,87.0,10.71,2629833.0,IS,-17.3389,66.0449,100.0
101,Ahipara,61.83,96.0,5.53,2194098.0,NZ,173.1667,-35.1667,19.0
102,Saint Paul Harbor,45.91,71.0,4.61,5866583.0,US,-152.4072,57.79,100.0
103,Mahébourg,80.89,57.0,12.66,934322.0,MU,57.7,-20.4081,40.0
104,Mount Isa,69.57,24.0,9.22,2065594.0,AU,139.5,-20.7333,86.0
105,Te Anau,52.72,97.0,1.59,2181625.0,NZ,167.7167,-45.4167,100.0
106,Alenquer,73.17,98.0,3.31,3407980.0,BR,-54.7383,-1.9417,100.0
107,São Miguel do Araguaia,70.88,59.0,1.92,3448455.0,BR,-50.1628,-13.275,86.0
108,Kriel,61.81,36.0,5.06,987202.0,ZA,29.2253,-26.2739,92.0
109,Marsh Harbour,79.97,76.0,8.16,3571913.0,BS,-77.0636,26.5412,87.0
110,Souillac,80.98,57.0,12.66,933995.0,MU,57.5167,-20.5167,40.0
111,Tigil',57.72,49.0,12.03,2120612.0,RU,158.6667,57.8,9.0
112,Kaeo,61.79,96.0,4.79,2189343.0,NZ,173.7833,-35.1,22.0
113,Cape Town,62.92,59.0,14.97,3369157.0,ZA,18.4232,-33.9258,20.0
114,Cidreira,56.62,75.0,4.07,3466165.0,BR,-50.2056,-30.1811,26.0
115,Khatanga,47.12,77.0,17.69,2022572.0,RU,102.5,71.9667,98.0
116,Karlshamn,59.49,46.0,3.27,2701727.0,SE,14.8619,56.1706,2.0
117,Pevek,31.98,96.0,27.94,2122090.0,RU,170.3133,69.7008,100.0
118,Mar del Plata,42.1,77.0,1.99,3430863.0,AR,-57.5575,-38.0023,16.0
119,Gobabis,71.49,35.0,20.69,3357247.0,NA,18.9667,-22.45,52.0
120,Gaoyou,73.33,85.0,12.71,1810309.0,CN,119.4278,32.7858,99.0
121,Bethel,55.58,79.0,3.49,5282297.0,US,-73.414,41.3712,8.0
122,Santa Maria da Vitória,66.96,60.0,0.51,3450063.0,BR,-44.1886,-13.3947,67.0
123,Banda Aceh,88.23,61.0,18.39,1215502.0,ID,95.3222,5.5577,88.0
124,Georgiyevka,77.04,22.0,11.18,1524243.0,KZ,74.7114,43.0369,0.0
125,Zonguldak,58.05,94.0,1.61,737021.0,TR,31.8333,41.25,100.0
126,Booué,76.12,92.0,0.6,2401495.0,GA,11.9385,-0.0921,92.0
127,Siyabuswa,66.52,49.0,6.46,955313.0,ZA,29.0445,-25.1132,44.0
128,Dunedin,55.8,76.0,5.01,2191562.0,NZ,170.5036,-45.8742,100.0
129,Roald,44.87,87.0,17.27,3141667.0,NO,6.1333,62.5833,75.0
130,Tweed,62.73,70.0,9.51,6170799.0,CA,-77.3162,44.4751,3.0
131,Nanortalik,34.57,99.0,4.03,3421765.0,GL,-45.2371,60.1432,100.0
132,Port Blair,82.44,78.0,5.75,1259385.0,IN,92.75,11.6667,75.0
133,Lubango,69.1,45.0,6.26,3347762.0,AO,13.4925,-14.9172,65.0
134,Shumskiy,69.89,26.0,12.12,1491977.0,RU,99.1328,54.8318,99.0
135,San Cristobal,66.76,94.0,1.68,3628473.0,VE,-72.225,7.7669,54.0
136,Nioro,81.86,66.0,8.84,2412408.0,GM,-15.75,13.35,95.0
137,Thompson,59.16,100.0,3.44,6165406.0,CA,-97.8558,55.7435,100.0
138,Manaus,77.49,88.0,4.61,3663517.0,BR,-60.025,-3.1019,75.0
139,Laguna,55.2,84.0,9.22,5364271.0,US,-121.4238,38.421,0.0
140,Hermanus,58.8,81.0,19.95,3366880.0,ZA,19.2345,-34.4187,18.0
141,Westport,57.16,79.0,0.0,4845585.0,US,-73.3579,41.1415,0.0
142,Dicabisagan,81.05,74.0,9.46,1715015.0,PH,122.4157,17.0818,100.0
143,Newport,54.86,71.0,17.74,2641598.0,GB,-2.9984,51.5877,81.0
144,Tateyama,71.85,91.0,17.9,1850523.0,JP,139.8667,34.9833,100.0
145,Kuznechikha,63.79,44.0,12.21,537760.0,RU,42.3348,57.2161,3.0
146,Poum,74.46,73.0,14.07,2138555.0,NC,164.0167,-20.2333,100.0
147,Chokurdakh,39.45,76.0,10.4,2126123.0,RU,147.9167,70.6333,27.0
148,Coquimbo,55.13,100.0,2.3,3893629.0,CL,-71.3436,-29.9533,75.0
149,Ust-Nera,57.6,53.0,5.12,2120048.0,RU,143.2,64.5667,95.0
150,Kavaratti,86.68,71.0,12.39,1267390.0,IN,72.642,10.5669,19.0
151,Eruwa,79.92,82.0,7.47,2338669.0,NG,3.4167,7.5333,99.0
152,Polyarny,47.03,82.0,6.6,506763.0,RU,33.4478,69.1989,100.0
153,Ribeira Grande,61.2,82.0,5.01,3372707.0,PT,-28.7,38.5167,75.0
154,Kalemie,79.81,54.0,15.59,214974.0,CD,29.1947,-5.9475,96.0
155,Tuktoyaktuk,36.3,73.0,11.16,6170031.0,CA,-133.0374,69.4541,100.0
156,Tomatlán,72.88,93.0,1.77,3981391.0,MX,-105.25,19.9333,1.0
157,Bratca,68.27,62.0,1.7,683837.0,RO,22.6167,46.9333,96.0
158,Chiang Khong,94.41,43.0,6.26,1611197.0,TH,100.4046,20.2613,97.0
159,Gijang,69.53,99.0,6.73,1842966.0,KR,129.2139,35.2442,100.0
160,Vao,71.98,67.0,12.77,2137773.0,NC,167.4833,-22.6667,20.0
161,Marawi,79.59,68.0,8.61,1701054.0,PH,124.2928,7.9986,20.0
162,Kununurra,80.58,17.0,11.5,2068110.0,AU,128.7333,-15.7667,44.0
163,Ponta do Sol,67.44,83.0,5.17,2264557.0,PT,-17.1,32.6667,31.0
164,Vanimo,81.86,80.0,3.58,2084442.0,PG,141.3028,-2.6741,100.0
165,Kenai,42.62,97.0,4.61,5866063.0,US,-151.2583,60.5544,75.0
166,Tarnogskiy Gorodok,65.28,35.0,10.76,484314.0,RU,43.5761,60.4997,6.0
167,Tottori-shi,69.87,94.0,4.61,1849892.0,JP,134.2333,35.5,75.0
168,Baracoa,77.79,85.0,2.84,3567834.0,CU,-74.4958,20.3467,97.0
169,Krasnyy Kholm,60.84,43.0,10.78,541704.0,RU,37.1203,58.0607,0.0
170,Nabire,83.19,77.0,1.34,1634614.0,ID,135.4833,-3.3667,59.0
171,Zaysan,60.33,39.0,13.13,1517060.0,KZ,84.8667,47.4667,99.0
172,New Norfolk,43.66,61.0,1.01,2155415.0,AU,147.0587,-42.7826,80.0
173,Muhos,48.4,49.0,10.42,645765.0,FI,25.9931,64.808,5.0
174,Sabzawār,87.08,16.0,11.5,118063.0,IR,57.6819,36.2126,0.0
175,Catuday,82.83,78.0,18.32,1717787.0,PH,119.8062,16.2923,100.0
176,Enshi,87.66,71.0,3.47,1811720.0,CN,109.4833,30.3,36.0
177,Timiryazevskiy,69.85,35.0,9.15,1489597.0,RU,84.8769,56.49,80.0
178,Aklavik,46.6,62.0,7.58,5882953.0,CA,-135.0107,68.2191,92.0
179,Pochutla,77.83,79.0,2.86,3517970.0,MX,-96.4661,15.7432,5.0
180,Bathsheba,81.21,78.0,9.22,3374083.0,BB,-59.5167,13.2167,20.0
181,Salalah,91.49,62.0,12.66,286621.0,OM,54.0924,17.0151,20.0
182,Airai,60.85,86.0,2.8,1651810.0,TL,125.4092,-8.9266,100.0
183,Fuyang,74.71,84.0,7.87,1810845.0,CN,115.8167,32.9,99.0
184,Makakilo City,70.45,79.0,3.44,5850554.0,US,-158.0858,21.3469,0.0
185,Impfondo,81.43,67.0,2.13,2259655.0,CG,18.0667,1.6381,77.0
186,Anloga,82.04,80.0,15.64,2304548.0,GH,0.8973,5.7947,100.0
187,Chui,45.57,81.0,3.91,3443061.0,UY,-53.4616,-33.6971,0.0
188,Nishihara,83.48,79.0,21.85,1855342.0,JP,127.7558,26.1842,75.0
189,Bariloche,40.39,66.0,3.44,7647007.0,AR,-71.3082,-41.1456,100.0
190,Kristianstad,60.94,55.0,10.36,2699310.0,SE,14.1524,56.0313,0.0
191,Cabo San Lucas,69.01,72.0,1.99,3985710.0,MX,-109.9124,22.8909,0.0
192,Hunchun,76.41,27.0,8.39,2036653.0,CN,130.3581,42.8675,38.0
193,Aykhal,53.76,70.0,2.95,2027296.0,RU,111.5,66.0,100.0
194,Nchelenge,75.22,52.0,0.92,175499.0,ZM,28.734,-9.3451,88.0
195,Hobyo,87.48,59.0,14.23,57000.0,SO,48.5268,5.3505,99.0
196,Pechenga,52.68,52.0,6.78,511865.0,RU,31.1703,69.5259,100.0
197,Hambantota,93.54,66.0,8.05,1244926.0,LK,81.1185,6.1241,20.0
198,Lompoc,55.22,85.0,3.44,5367788.0,US,-120.4579,34.6391,100.0
199,Hasaki,68.4,94.0,5.28,2112802.0,JP,140.8333,35.7333,100.0
200,Departamento de Maldonado,40.39,89.0,3.15,3441890.0,UY,-54.9167,-34.6667,2.0
201,Naze,75.7,87.0,8.95,1855540.0,JP,129.4833,28.3667,12.0
202,Nikolskoye,57.81,52.0,9.71,546105.0,RU,30.7861,59.7035,41.0
203,Dul'durga,68.32,17.0,7.94,2024812.0,RU,113.5931,50.6761,5.0
204,Leh,52.5,26.0,4.29,1264976.0,IN,77.5833,34.1667,100.0
205,Lata,61.07,92.0,0.72,2738381.0,PT,-8.3327,40.1629,100.0
206,Tiksi,38.97,100.0,11.5,2015306.0,RU,128.8694,71.6872,98.0
207,Qaanaaq,13.1,71.0,8.48,3831208.0,GL,-69.3632,77.484,9.0
208,Ilulissat,26.62,59.0,5.75,3423146.0,GL,-51.1,69.2167,60.0
209,Saint-Augustin,35.01,80.0,17.2,6137462.0,CA,-58.6502,51.226,100.0
210,Saskylakh,47.05,92.0,8.5,2017155.0,RU,114.0833,71.9167,63.0
211,Tessalit,90.82,19.0,15.93,2449893.0,ML,1.0114,20.1986,4.0
212,Rayong,89.73,58.0,6.55,1607016.0,TH,101.4333,12.8333,95.0
213,Sur,101.32,33.0,10.11,286245.0,OM,59.5289,22.5667,35.0
214,Bereket,99.64,9.0,18.7,161974.0,TM,55.5154,39.2446,85.0
215,Staraya Kulatka,70.45,48.0,5.12,489164.0,RU,47.6167,52.7167,14.0
216,Roswell,60.69,79.0,5.75,4219934.0,US,-84.3616,34.0232,100.0
217,Santa Luzia,59.9,75.0,2.19,3450144.0,BR,-43.8514,-19.7697,28.0
218,São Filipe,74.1,80.0,7.23,3374210.0,CV,-24.4956,14.8961,48.0
219,San Luis,50.22,57.0,6.85,3837056.0,AR,-66.3356,-33.295,100.0
220,Fairbanks,48.76,92.0,5.75,5861897.0,US,-147.7164,64.8378,40.0
221,Sibolga,85.57,66.0,6.46,1213855.0,ID,98.7792,1.7427,55.0
222,Pahrump,74.12,19.0,7.0,5509851.0,US,-115.9839,36.2083,0.0
223,Narsaq,43.02,99.0,4.27,3421719.0,GL,-46.05,60.9167,100.0
224,Hamilton,55.58,93.0,3.44,4513583.0,US,-84.5333,39.1834,40.0
225,Fortuna,51.48,92.0,0.0,5563839.0,US,-124.1573,40.5982,100.0
226,Ayan,47.12,58.0,4.61,2027316.0,RU,138.1667,56.45,23.0
227,El Dorado,53.96,80.0,6.24,5345659.0,US,-120.5177,38.7666,93.0
228,Leonidovo,47.5,75.0,5.88,2123805.0,RU,142.8667,49.2833,100.0
229,Chicama,70.34,86.0,6.24,3698359.0,PE,-79.1469,-7.8447,100.0
230,Umluj,87.62,64.0,7.58,100926.0,SA,37.2685,25.0213,2.0
231,Acapulco de Juárez,82.22,74.0,3.44,3533462.0,MX,-99.8901,16.8634,0.0
232,Santa Maria,44.56,91.0,5.08,3450083.0,BR,-53.8069,-29.6842,0.0
233,Ubinskoye,64.45,51.0,6.49,1488708.0,RU,79.6802,55.3068,94.0
234,Flinders,61.18,57.0,8.99,6255012.0,AU,150.8552,-34.5833,3.0
235,Broome,51.85,73.0,3.36,5110365.0,US,-75.833,42.2506,0.0
236,Mossamedes,64.99,62.0,10.38,3347019.0,AO,12.1522,-15.1961,16.0
237,Orange Cove,63.3,77.0,5.75,5379533.0,US,-119.3137,36.6244,20.0
238,Barra Patuca,79.75,80.0,3.67,3614835.0,HN,-84.2833,15.8,100.0
239,Arlit,95.88,10.0,13.98,2447513.0,NE,7.3853,18.7369,39.0
240,Chilia Veche,72.91,60.0,13.62,682117.0,RO,29.2833,45.4167,99.0
241,Conde,74.66,100.0,6.91,3385077.0,BR,-34.9075,-7.2597,100.0
242,Bulungu,78.69,78.0,2.89,2316259.0,CD,18.6,-4.55,100.0
243,Baker City,49.21,94.0,0.0,5712169.0,US,-117.8344,44.7749,0.0
244,Rājākhera,101.95,21.0,8.97,1258930.0,IN,78.1714,26.8961,56.0
245,Portland,54.21,80.0,4.61,5746545.0,US,-122.6762,45.5234,0.0
246,Birkeland,57.78,26.0,4.61,3161532.0,NO,8.2323,58.3309,0.0
247,Dvinskoy Bereznik,65.91,26.0,8.97,577240.0,RU,42.7072,62.8551,2.0
248,Jalingo,86.61,59.0,8.57,2336589.0,NG,11.3667,8.8833,68.0
249,Yar-Sale,51.15,51.0,17.43,1486321.0,RU,70.8333,66.8333,100.0
250,Tafresh,79.12,20.0,4.21,113636.0,IR,50.013,34.692,7.0
251,Homer,44.53,78.0,5.01,5864145.0,US,-151.5483,59.6425,100.0
252,Mandalgovi,70.14,12.0,17.69,2030065.0,MN,106.2708,45.7625,100.0
253,Kibala,83.5,56.0,8.39,2425791.0,TD,18.3463,9.1104,99.0
254,Ulladulla,53.76,54.0,12.53,2145554.0,AU,150.4667,-35.35,0.0
255,Sitka,44.49,81.0,9.22,5557293.0,US,-135.33,57.0531,100.0
256,Leningradskiy,32.61,92.0,20.29,2123814.0,RU,178.4167,69.3833,100.0
257,Takāb,72.91,35.0,11.21,113508.0,IR,47.1133,36.4009,88.0
258,Tarancón,58.68,72.0,4.65,3108317.0,ES,-3.0073,40.0085,58.0
259,Goderich,50.92,61.0,8.84,5962442.0,CA,-81.7165,43.7501,7.0
260,Rosa Zarate,72.75,98.0,1.03,3652257.0,EC,-79.4667,0.3333,85.0
261,Luganville,76.24,76.0,5.68,2136150.0,VU,167.1667,-15.5333,10.0
262,Druzhba,62.19,48.0,8.03,709584.0,UA,33.9453,52.0428,2.0
263,Valea lui Mihai,62.31,61.0,2.64,663692.0,RO,22.15,47.5167,76.0
264,Ancud,40.87,88.0,6.17,3899695.0,CL,-73.8203,-41.8697,84.0
265,Matagami,42.48,67.0,5.17,6067747.0,CA,-77.6328,49.7502,27.0
266,Peniche,62.89,87.0,4.5,2264923.0,PT,-9.3811,39.3558,17.0
267,Miraflores,59.41,74.0,2.19,3761194.0,MX,-98.8083,19.2167,87.0
268,Lebu,45.18,83.0,6.6,3883457.0,CL,-73.65,-37.6167,5.0
269,Crawley,54.64,60.0,14.97,2652053.0,GB,-0.1831,51.113,40.0
270,Khonsa,86.5,43.0,4.0,1266668.0,IN,95.5667,27.0167,6.0
271,Yumen,76.95,16.0,27.96,1528998.0,CN,97.2,40.2833,4.0
272,Bubaque,81.1,80.0,14.5,2374583.0,GW,-15.8333,11.2833,100.0
273,Ribas do Rio Pardo,61.93,96.0,3.4,3451399.0,BR,-53.7592,-20.4431,98.0
274,Malbork,63.19,58.0,6.4,3092472.0,PL,19.0266,54.0359,89.0
275,Saint-Leu,79.09,94.0,3.8,6690297.0,RE,55.2833,-21.15,92.0
276,Arkhara,62.33,39.0,11.86,2027487.0,RU,130.0842,49.4212,91.0
277,Tura,92.23,39.0,5.95,1254046.0,IN,90.2201,25.5198,27.0
278,Ingham,51.33,85.0,3.69,4997130.0,US,-84.3833,42.6,75.0
279,Sarandi,62.15,94.0,4.61,3447998.0,BR,-51.8739,-23.4436,93.0
280,Biak,81.91,72.0,6.38,1637001.0,ID,122.8766,-0.9131,75.0
281,Nieuw Amsterdam,77.02,94.0,4.43,3383434.0,SR,-55.0833,5.8833,100.0
282,Boundiali,78.58,75.0,5.99,2290836.0,CI,-6.4869,9.5217,5.0
283,Aitape,82.38,79.0,3.6,2101169.0,PG,142.3475,-3.1374,100.0
284,Manadhoo,84.18,76.0,10.63,1337618.0,MV,73.3833,5.7667,100.0
285,Ca Mau,89.6,58.0,12.91,1586443.0,VN,105.15,9.1769,85.0
286,San Patricio,72.63,82.0,7.02,4726521.0,US,-97.5169,28.017,41.0
287,Portree,50.52,76.0,3.22,2640006.0,GB,-6.1942,57.4129,100.0
288,Srednekolymsk,52.12,40.0,12.5,2121025.0,RU,153.6833,67.45,41.0
289,Zhangaözen,92.34,20.0,15.14,607610.0,KZ,52.8,43.3,67.0
290,Mayo,63.12,86.0,3.0,4362001.0,US,-76.5119,38.8876,100.0
291,Hualmay,69.21,86.0,7.16,3939761.0,PE,-77.6139,-11.0964,100.0
292,Púchov,65.98,58.0,2.68,3057963.0,SK,18.326,49.1249,100.0
293,Hong Kong,91.04,69.0,8.01,1819729.0,HK,114.1577,22.2855,0.0
294,Dzilam González,74.84,88.0,5.26,3529654.0,MX,-88.9333,21.2833,37.0
295,Sistranda,44.56,88.0,32.77,3139597.0,NO,8.834,63.7256,100.0
296,Ondjiva,73.15,35.0,6.73,3346821.0,AO,15.7333,-17.0667,32.0
297,Taguatinga,69.42,55.0,4.29,6319623.0,BR,-46.5711,-12.3857,49.0
298,Evensk,55.35,52.0,1.36,2125693.0,RU,159.2333,61.95,96.0
299,Katsuura,71.26,94.0,11.86,2112309.0,JP,140.3,35.1333,100.0
300,Ambovombe,77.63,55.0,3.94,1079048.0,MG,46.0833,-25.1667,0.0
301,Pisco,69.85,73.0,5.75,3932145.0,PE,-76.2167,-13.7,100.0
302,Lala,83.03,79.0,5.99,1707944.0,PH,123.7458,7.9745,100.0
303,East London,61.74,94.0,4.61,1006984.0,ZA,27.9116,-33.0153,75.0
304,Nyurba,65.44,28.0,3.91,2018735.0,RU,118.3319,63.2842,41.0
305,Baykit,67.68,33.0,5.32,1510689.0,RU,96.37,61.67,95.0
306,Muyezerskiy,52.52,61.0,11.77,524100.0,RU,31.65,63.9333,97.0
307,Umarkot,103.84,25.0,5.23,1162959.0,PK,69.7362,25.3616,68.0
308,Paamiut,33.98,79.0,15.64,3421193.0,GL,-49.6678,61.994,54.0
309,Gberia Fotombu,75.81,90.0,6.58,2409019.0,SL,-11.1667,9.8833,91.0
310,Auki,79.14,86.0,5.39,2109701.0,SB,160.7034,-8.7676,77.0
311,Timmins,49.95,68.0,5.32,6166739.0,CA,-81.3331,48.4669,12.0
312,Pachino,68.86,70.0,4.59,6539213.0,IT,15.0907,36.7186,88.0
313,Arrondissement d'Arcachon,68.07,77.0,3.44,6621469.0,FR,-1.0519,44.5875,0.0
314,Avera,55.35,94.0,3.09,4231997.0,US,-82.5271,33.194,93.0
315,Bonthe,81.25,81.0,1.3,2409914.0,SL,-12.505,7.5264,81.0
316,Songjianghe,68.65,31.0,10.04,2034691.0,CN,127.479,42.1859,6.0
317,Salisbury,54.84,66.0,19.57,2638664.0,GB,-1.7957,51.0693,20.0
318,Xi'an,65.1,93.0,0.96,1790630.0,CN,108.9286,34.2583,100.0
319,Touros,74.53,93.0,9.71,3386213.0,BR,-35.4608,-5.1989,73.0
320,Boda,78.67,67.0,4.59,2388614.0,CF,17.4695,4.3189,100.0
321,Mayumba,77.86,78.0,6.46,2399001.0,GA,10.6554,-3.432,67.0
322,Chul'man,57.67,38.0,2.48,2025261.0,RU,124.9104,56.8479,98.0
323,Tambacounda,87.85,66.0,9.22,2244991.0,SN,-13.7586,13.7539,0.0
324,Bushehr,89.69,51.0,13.8,139817.0,IR,50.8385,28.9684,0.0
325,Port Hardy,51.98,100.0,8.05,6111862.0,CA,-127.4199,50.6996,75.0
326,Shashi,82.4,72.0,7.61,1795816.0,CN,112.2447,30.3072,80.0
327,Grand-Lahou,82.51,78.0,3.96,2288105.0,CI,-5.0242,5.1367,100.0
328,State College,57.18,78.0,0.0,5213681.0,US,-77.86,40.7934,0.0
329,Teguise,66.42,73.0,1.14,2510573.0,ES,-13.564,29.0605,20.0
330,Magdagachi,63.28,36.0,8.05,2020591.0,RU,125.8,53.45,93.0
331,Gaozhou,92.37,53.0,4.32,1810295.0,CN,110.8461,21.9392,28.0
332,Meulaboh,86.04,63.0,5.95,1214488.0,ID,96.1285,4.1363,53.0
333,Río Gallegos,41.05,93.0,2.3,3838859.0,AR,-69.2181,-51.6226,0.0
334,Chaihe,63.57,42.0,3.94,2038198.0,CN,129.7,44.7667,56.0
335,Nikel,53.78,46.0,8.1,522260.0,RU,30.222,69.4128,100.0
336,Beringovskiy,44.13,71.0,13.62,2126710.0,RU,179.3167,63.05,100.0
337,Coyhaique,37.35,87.0,6.91,3894426.0,CL,-72.0662,-45.5752,0.0
338,Vardø,46.38,81.0,9.22,777019.0,NO,31.1107,70.3705,100.0
339,Talnakh,38.21,98.0,10.6,1490256.0,RU,88.3972,69.4865,100.0
340,Faya,75.72,55.0,7.76,110690.0,SA,42.4509,18.3851,78.0
341,Znamenskoye,59.52,90.0,3.74,1485020.0,RU,73.8282,57.1281,100.0
342,Manavgat,66.67,79.0,1.07,304854.0,TR,31.4431,36.7867,100.0
343,Cairns,68.92,66.0,10.36,2172797.0,AU,145.7667,-16.9167,99.0
344,Klaksvík,49.12,91.0,27.47,2618795.0,FO,-6.589,62.2266,98.0
345,Fonte Boa,73.06,98.0,1.68,6319315.0,BR,-66.2662,-2.4959,43.0
346,Piaçabuçu,74.86,83.0,4.09,3454005.0,BR,-36.4344,-10.4056,6.0
347,Havøysund,48.43,77.0,27.89,779622.0,NO,24.6622,70.9963,33.0
348,Boden,53.6,29.0,12.44,606531.0,SE,21.6886,65.8252,6.0
349,Nhulunbuy,79.41,61.0,17.27,2064735.0,AU,136.7667,-12.2333,40.0
350,Kamenka,64.51,58.0,9.93,553766.0,RU,42.7678,51.3223,99.0
351,Kazachinskoye,72.46,22.0,9.78,1504075.0,RU,93.2761,57.6953,100.0
352,Geraldton,75.61,33.0,12.66,2070998.0,AU,114.6,-28.7667,100.0
353,Maxixe,78.1,63.0,6.04,1039536.0,MZ,35.3472,-23.8597,1.0
354,Leon Valley,70.34,84.0,4.61,4705923.0,US,-98.6186,29.4952,20.0
355,Nome,35.67,87.0,17.27,5870133.0,US,-165.4064,64.5011,0.0
356,Manokwari,83.44,76.0,10.56,1636308.0,ID,134.0833,-0.8667,52.0
357,Grand-Santi,72.54,99.0,1.48,3381538.0,GF,-54.3833,4.25,100.0
358,Faanui,82.29,75.0,17.31,4034551.0,PF,-151.75,-16.4833,12.0
359,Clyde River,25.03,93.0,10.36,5924351.0,CA,-68.5914,70.4692,100.0
360,Kosa,71.74,69.0,11.32,544318.0,RU,54.9977,59.9445,100.0
361,Blackwater,60.01,31.0,8.19,2175403.0,AU,148.8833,-23.5833,3.0
362,Assiniboia,53.42,87.0,5.75,5887798.0,CA,-105.9845,49.6334,98.0
363,Bambous Virieux,80.85,57.0,12.66,1106677.0,MU,57.7575,-20.3428,40.0
364,Arona,63.37,77.0,6.91,2521582.0,ES,-16.681,28.0996,20.0
365,Belyy Yar,57.09,62.0,8.95,1510377.0,RU,91.3903,53.6039,0.0
366,San Miguel,72.93,97.0,2.95,3583446.0,SV,-88.1833,13.4833,98.0
367,Maniitsoq,27.64,51.0,4.38,3421982.0,GL,-52.9,65.4167,7.0
368,Freeport,59.68,83.0,9.22,5117949.0,US,-73.5832,40.6576,0.0
369,Constitución,50.2,65.0,7.43,3893726.0,CL,-72.4167,-35.3333,100.0
370,Tarakan,92.7,62.0,6.91,1624725.0,ID,117.6333,3.3,40.0
371,Nirmal,107.06,16.0,2.59,1261288.0,IN,78.35,19.1,15.0
372,Zmeinogorsk,61.92,50.0,8.12,1485042.0,RU,82.195,51.1567,95.0
373,Valparaíso,59.0,61.0,5.75,3868626.0,CL,-71.6273,-33.0393,0.0
374,Caravelas,68.34,96.0,4.27,3466980.0,BR,-39.2481,-17.7125,97.0
375,Torbay,45.9,94.0,17.27,6167817.0,CA,-52.7314,47.6666,75.0
376,Le Port,78.91,94.0,3.83,935616.0,RE,55.2919,-20.9373,70.0
377,Kumul,79.95,20.0,14.67,1529484.0,CN,93.45,42.8,63.0
378,Inverell,49.1,69.0,4.27,2162662.0,AU,151.1167,-29.7833,1.0
379,Tortolì,73.22,60.0,6.91,2522890.0,IT,9.6572,39.9256,20.0
380,Beipiao,82.83,13.0,12.68,2038342.0,CN,120.7792,41.7919,3.0
381,Novo Aripuanã,74.14,90.0,1.79,3663142.0,BR,-60.3797,-5.1206,19.0
382,Akdepe,92.55,9.0,12.08,601551.0,TM,59.3788,42.0551,0.0
383,Pangnirtung,24.82,95.0,2.75,6096551.0,CA,-65.7125,66.1451,100.0
384,Komatipoort,76.78,40.0,9.64,988290.0,ZA,31.9548,-25.4332,99.0
385,Kailua,72.84,86.0,1.99,5847486.0,US,-157.7394,21.4022,46.0
386,Massakory,92.39,39.0,13.35,2428228.0,TD,15.7293,12.996,100.0
387,Byron Bay,55.71,55.0,2.91,2172880.0,AU,153.6167,-28.65,0.0
388,Dawson Creek,53.24,50.0,8.05,5935804.0,CA,-120.2362,55.7666,0.0
389,Port-Gentil,80.56,83.0,9.22,2396518.0,GA,8.7815,-0.7193,40.0
390,Augusto Corrêa,73.47,96.0,2.84,3406961.0,BR,-46.635,-1.0217,100.0
391,Araouane,90.63,21.0,15.9,2460954.0,ML,-3.5265,18.9048,5.0
392,Coahuayana Viejo,77.04,89.0,2.51,4013679.0,MX,-103.6833,18.7333,2.0
393,Mount Gambier,53.67,81.0,5.68,2156643.0,AU,140.7667,-37.8333,100.0
394,Swan River,64.29,77.0,4.61,6160362.0,CA,-101.2676,52.1058,98.0
395,Bima,82.38,71.0,4.16,1648759.0,ID,118.7167,-8.4667,38.0
396,Cherskiy,38.61,70.0,15.73,2126199.0,RU,161.3,68.75,100.0
397,Adrar,83.68,28.0,16.98,2381972.0,MR,-10.0711,20.5022,13.0
398,Egvekinot,31.53,94.0,1.92,4031742.0,RU,-179.1667,66.3167,83.0
399,Comodoro Rivadavia,44.46,45.0,3.44,3860443.0,AR,-67.5,-45.8667,0.0
400,Volchikha,73.09,22.0,10.2,1486983.0,RU,80.3833,52.0333,95.0
401,Paita,74.71,78.0,11.61,3694112.0,PE,-81.1144,-5.0892,100.0
402,Calama,37.89,25.0,19.57,3897347.0,CL,-68.9333,-22.4667,0.0
403,Abalak,84.13,33.0,7.29,1512223.0,RU,68.5944,58.1286,98.0
404,Atar,83.46,23.0,19.75,2381334.0,MR,-13.0499,20.5169,88.0
405,Venado Tuerto,42.76,76.0,6.64,3833062.0,AR,-61.9688,-33.7456,100.0
406,Ostrovnoy,57.0,40.0,20.09,556268.0,RU,39.5131,68.0531,100.0
407,Praia,73.76,76.0,14.12,3374333.0,CV,-23.5087,14.9215,67.0
408,Campoverde,72.55,99.0,1.07,3733380.0,PE,-74.8058,-8.4753,100.0
409,Peebles,53.94,69.0,1.01,2640526.0,GB,-3.1888,55.6519,53.0
410,Ngunguru,61.2,94.0,8.23,2186111.0,NZ,174.5,-35.6167,12.0
411,Haines Junction,39.15,56.0,5.75,5969025.0,CA,-137.5108,60.7522,36.0
412,Chernyshevsk,69.85,17.0,8.37,2025458.0,RU,117.0174,52.5243,86.0
413,Makiyivka,68.43,71.0,12.53,702320.0,UA,37.9258,48.0478,87.0
414,Petropavlovsk-Kamchatskiy,41.59,100.0,4.47,2122104.0,RU,158.6483,53.0452,100.0
415,Los Llanos de Aridane,64.13,71.0,4.61,2514651.0,ES,-17.9182,28.6585,20.0
416,Nuevo Progreso,74.89,74.0,4.63,3522526.0,MX,-97.95,23.1667,78.0
417,Norsup,76.75,73.0,8.55,2135517.0,VU,167.3833,-16.0667,16.0
418,Yulara,66.9,24.0,8.59,6355222.0,AU,130.9889,-25.2406,8.0
419,Hohhot,82.69,16.0,11.18,2036892.0,CN,111.6522,40.8106,75.0
420,Bowen,68.27,52.0,12.55,2174444.0,AU,148.2333,-20.0167,0.0
421,Smoky Lake,50.04,93.0,0.0,6150293.0,CA,-112.4686,54.1169,5.0
422,Angoram,78.75,92.0,2.71,2100765.0,PG,144.0661,-4.0625,61.0
423,Itarema,75.4,91.0,7.99,3393692.0,BR,-39.9167,-2.9248,89.0
424,La Asuncion,87.53,74.0,8.05,3480908.0,VE,-63.8628,11.0333,100.0
425,Berlevåg,48.15,66.0,2.3,780687.0,NO,29.0864,70.8578,100.0
426,Ambilobe,86.36,48.0,2.35,1082243.0,MG,49.05,-13.2,0.0
427,Teya,69.37,26.0,8.05,1489656.0,RU,92.6267,60.3778,87.0
428,Máncora,78.39,75.0,1.81,3695000.0,PE,-81.0475,-4.1078,93.0
429,Crotone,75.15,49.0,6.91,2524881.0,IT,17.1178,39.0851,0.0
430,Sechura,74.73,76.0,13.76,3691954.0,PE,-80.8222,-5.5569,98.0
431,Tarko-Sale,55.0,66.0,10.56,1490085.0,RU,77.785,64.9225,100.0
432,Yerofey Pavlovich,65.68,23.0,2.37,2012938.0,RU,121.9667,53.9667,97.0
433,Doha,103.98,18.0,12.66,290030.0,QA,51.5333,25.2867,0.0
434,Palmer,53.44,89.0,3.44,4946620.0,US,-72.3287,42.1584,0.0
435,Darhan,73.96,22.0,5.01,2031964.0,MN,105.9228,49.4867,100.0
436,Rantauprapat,95.61,38.0,1.79,1214073.0,ID,99.8333,2.1,29.0
437,Arroyo de la Encomienda,61.79,67.0,10.36,3129371.0,ES,-4.7969,41.6096,0.0
438,Keetmanshoop,53.4,45.0,12.64,3356264.0,NA,18.1333,-26.5833,0.0
439,Staryy Nadym,59.61,56.0,20.8,1490918.0,RU,72.6842,65.6118,100.0
440,Beloha,80.69,46.0,2.59,1067565.0,MG,45.05,-25.1667,0.0
441,Kelvington,56.55,92.0,5.61,5990669.0,CA,-103.5343,52.1667,100.0
442,Munger,104.29,18.0,6.44,1262482.0,IN,86.4667,25.3833,0.0
443,Grindavik,46.87,100.0,20.71,3416888.0,IS,-22.4338,63.8424,100.0
444,Kangaatsiaq,23.43,77.0,11.88,3422683.0,GL,-53.4641,68.3065,67.0
445,Omsukchan,45.07,81.0,10.74,2122493.0,RU,155.8,62.5333,97.0
446,Quzhou,93.52,58.0,3.89,1797264.0,CN,118.8686,28.9594,9.0
447,Neijiang,88.57,53.0,5.64,1799491.0,CN,105.0622,29.5835,36.0
448,Bonavista,37.27,93.0,22.01,5905393.0,CA,-53.1147,48.6499,99.0
449,Pauini,74.55,93.0,1.28,3662927.0,BR,-66.9764,-7.7136,89.0
450,Poso,83.01,81.0,4.05,1630723.0,ID,120.7524,-1.3959,42.0
451,Hervey Bay,64.08,54.0,10.04,2146219.0,AU,152.8535,-25.2986,4.0
452,Gambēla,77.74,75.0,1.25,337405.0,ET,34.5833,8.25,100.0
453,Hede,66.25,94.0,11.39,1808744.0,CN,120.2517,33.7681,100.0
454,Alice Springs,63.95,34.0,9.22,2077895.0,AU,133.8833,-23.7,5.0
455,Tazmalt,68.2,65.0,3.51,2477537.0,DZ,4.3989,36.3868,34.0
456,Mangaratiba,68.63,97.0,8.48,3457991.0,BR,-44.0406,-22.9597,100.0
457,Porto-Novo,82.22,84.0,9.17,2392087.0,BJ,2.6036,6.4965,100.0
458,Sabha,85.89,17.0,16.69,2212775.0,LY,14.4283,27.0377,64.0
459,Salinópolis,78.08,85.0,8.55,3389822.0,BR,-47.3561,-0.6136,86.0
460,Riyadh,93.34,21.0,13.96,108410.0,SA,46.7219,24.6877,43.0
461,Jönköping,55.11,71.0,5.75,2702979.0,SE,14.1562,57.7814,0.0
462,Yatou,72.16,66.0,9.55,1786855.0,CN,122.3833,37.15,32.0
463,Jaru,69.96,98.0,3.96,3925040.0,BR,-62.4664,-10.4389,86.0
464,Yashan,89.2,67.0,2.71,1786867.0,CN,109.9419,22.1975,81.0
465,Bamiantong,63.82,43.0,6.51,2038482.0,CN,130.5333,44.9333,55.0
466,Boa Vista,76.98,88.0,6.91,3664980.0,BR,-60.6733,2.8197,40.0
467,Barra do Bugres,67.44,98.0,5.66,3470718.0,BR,-57.1811,-15.0725,100.0
468,Butembo,73.38,46.0,6.96,217562.0,CD,29.2833,0.15,31.0
469,Talaya,50.54,66.0,13.47,2120769.0,RU,152.75,61.3833,91.0
470,Vengurla,92.43,57.0,15.77,1253257.0,IN,73.6333,15.8667,12.0
471,Maracaçumé,72.18,98.0,2.8,3395497.0,BR,-45.9592,-2.0428,100.0
472,Nouadhibou,71.58,60.0,17.27,2377457.0,MR,-17.0347,20.931,88.0
473,La Celia,58.41,99.0,0.78,3679542.0,CO,-76.0167,5.0433,99.0
474,Lüderitz,56.91,66.0,9.53,3355672.0,NA,15.1594,-26.6481,55.0
475,Carutapera,75.33,94.0,5.97,3402648.0,BR,-46.02,-1.195,100.0
476,Yauya,46.98,87.0,1.14,3690733.0,PE,-77.3,-8.9833,99.0
477,Port Said,70.41,74.0,5.19,358619.0,EG,32.2841,31.2565,0.0
478,Sambava,81.59,66.0,12.1,1056899.0,MG,50.1667,-14.2667,42.0
479,Kafanchan,76.44,74.0,3.71,2335713.0,NG,8.3,9.5833,100.0
480,Neftçala,77.85,54.0,10.2,147425.0,AZ,49.2472,39.3742,100.0
481,Yhú,54.14,99.0,3.27,3436595.0,PY,-55.9167,-25.05,25.0
482,Necochea,41.04,66.0,9.78,3430443.0,AR,-58.7368,-38.5473,70.0
483,Muros,62.83,91.0,0.18,3115824.0,ES,-9.0603,42.7762,96.0
484,Linxia Chengguanzhen,77.95,38.0,5.21,1803331.0,CN,103.2064,35.6003,27.0
485,Tripoli,74.97,49.0,14.47,2210247.0,LY,13.1875,32.8752,89.0
486,Ixtapa,73.29,91.0,1.3,4004293.0,MX,-105.2,20.7,0.0
487,Santiago del Estero,55.85,51.0,4.14,3835869.0,AR,-64.2615,-27.7951,100.0
488,Uribia,81.39,76.0,9.51,3666409.0,CO,-72.266,11.7139,100.0
489,Rome,47.93,83.0,0.0,5134295.0,US,-75.4557,43.2128,0.0
490,Xuanzhou,87.48,75.0,6.76,1788081.0,CN,118.7553,30.9525,53.0
491,Arrondissement de Muret,69.24,70.0,1.01,2991152.0,FR,1.25,43.3333,77.0
492,Orlik,63.99,34.0,7.0,1496073.0,RU,99.825,52.5178,100.0
493,Toyoake,71.94,91.0,2.13,1856057.0,JP,137.0137,35.0594,100.0
494,Ibrā’,102.72,11.0,11.92,287832.0,OM,58.5334,22.6906,9.0
495,Ayagoz,66.2,24.0,7.56,1525988.0,KZ,80.4392,47.9714,69.0
496,Deputatsky,37.76,84.0,4.38,2028164.0,RU,139.9,69.3,44.0
497,Moyale,72.25,57.0,10.36,186180.0,KE,39.0584,3.5167,62.0
498,Gresik,83.98,55.0,6.35,1643776.0,ID,112.6561,-7.1539,31.0
499,Tsushima,72.12,96.0,2.17,1849539.0,JP,136.7167,35.1667,100.0
500,Boralday,69.66,21.0,6.71,1526384.0,KZ,76.8594,43.3578,20.0
501,Mahina,76.77,78.0,3.44,4034307.0,PF,-149.489,-17.5065,20.0
502,Ust-Maya,65.05,33.0,6.49,2013918.0,RU,134.5333,60.4167,97.0
503,General Pico,45.41,60.0,8.88,3855075.0,AR,-63.7568,-35.6566,100.0
504,Labuan,89.96,66.0,3.44,1733782.0,MY,115.2417,5.2767,20.0
505,Saint Anthony,64.08,50.0,6.91,5044290.0,US,-93.218,45.0205,0.0
506,Iqaluit,29.7,80.0,9.22,5983720.0,CA,-68.5145,63.7506,100.0
507,Haapiti,76.71,69.0,15.86,4034438.0,PF,-149.8667,-17.5667,27.0
508,Sarankhola,101.16,28.0,3.58,1185239.0,BD,89.7897,22.3082,18.0
509,Odienné,80.2,73.0,3.53,2283016.0,CI,-7.5692,9.51,16.0
510,Miles City,58.17,88.0,5.75,5666176.0,US,-105.8406,46.4083,0.0
511,Daru,78.69,86.0,12.75,2098329.0,PG,143.2092,-9.0763,94.0
512,Umm Kaddadah,87.28,49.0,19.46,364933.0,SD,26.6876,13.6017,34.0
513,Skegness,55.36,72.0,14.74,2637762.0,GB,0.3363,53.1436,100.0
514,Saint-François,68.2,56.0,5.75,2980080.0,FR,3.9054,46.4154,0.0
515,Semey,75.42,13.0,15.66,1519422.0,KZ,80.2275,50.4111,0.0
516,Esperance,68.79,39.0,7.18,2071860.0,AU,121.9,-33.8667,100.0
517,Selkirk,65.37,45.0,5.99,6144054.0,CA,-96.8845,50.1436,36.0
518,Mahajanga,85.12,50.0,11.86,1062663.0,MG,46.3167,-15.7167,0.0
519,Ruwi,100.09,40.0,12.39,287286.0,OM,58.5507,23.5996,1.0
520,Pucallpa,72.52,99.0,1.3,3693345.0,PE,-74.5539,-8.3791,99.0
521,Ginda,81.05,27.0,7.14,1253628.0,IN,78.4932,30.6945,87.0
522,Hare Bay,35.2,92.0,14.76,5970873.0,CA,-54.0148,48.8499,100.0
523,Kabalo,85.21,45.0,7.2,215668.0,CD,26.9167,-6.05,83.0
524,Cockburn Town,81.48,81.0,18.16,3576994.0,TC,-71.1419,21.4612,94.0
525,Kolomyia,65.8,66.0,6.8,705392.0,UA,25.0403,48.5306,2.0
526,Odawara,70.12,85.0,3.98,1854747.0,JP,139.1597,35.2556,100.0
527,Santa Cruz de la Sierra,58.46,88.0,14.97,3904906.0,BO,-63.1667,-17.8,40.0
528,Derzhavīnsk,83.79,24.0,7.16,1524606.0,KZ,66.3167,51.1,88.0
529,Raduzhny,66.22,25.0,8.72,1540356.0,RU,77.475,62.0961,100.0
530,Gulariyā,103.35,17.0,7.31,1283368.0,NP,81.3333,28.2333,14.0
531,Oudtshoorn,55.76,69.0,5.32,967106.0,ZA,22.2014,-33.5907,35.0
532,Ruteng,65.66,80.0,0.51,1629380.0,ID,120.4721,-8.6136,82.0
533,Sokolac,54.57,64.0,3.91,3190385.0,BA,18.8017,43.9397,30.0
534,Jieshi,83.97,74.0,16.33,1805857.0,CN,115.8257,22.8134,63.0
535,Porto Velho,77.05,94.0,0.0,3662762.0,BR,-63.9039,-8.7619,20.0
536,Olinda,74.93,88.0,5.75,3393536.0,BR,-34.8553,-8.0089,75.0
537,Vallenar,63.21,44.0,3.83,3868633.0,CL,-70.7581,-28.5708,100.0
538,Bud,56.46,92.0,4.18,4255151.0,US,-86.1758,39.447,28.0
539,Dhārchula,87.1,30.0,8.37,1272864.0,IN,80.5333,29.85,18.0
540,Mabaruma,74.05,99.0,1.52,3377301.0,GY,-59.7833,8.2,100.0
541,Nemuro,47.16,95.0,7.96,2128975.0,JP,145.575,43.3236,100.0
542,Caucayá,71.96,97.0,0.49,3671437.0,CO,-74.7819,-0.1934,100.0
543,Vanderhoof,48.16,61.0,4.97,6173361.0,CA,-124.0198,54.0166,0.0
544,Maravilha,51.62,97.0,1.57,3457809.0,BR,-53.1725,-26.7608,99.0
545,Nanlong,82.87,69.0,7.27,1799908.0,CN,106.0631,31.3533,31.0
546,Seryshevo,62.08,35.0,14.45,2016942.0,RU,128.3786,51.0933,100.0
547,Les Cayes,77.49,82.0,3.11,3728097.0,HT,-73.75,18.2,88.0
548,Lagoa,61.83,78.0,8.68,3372964.0,PT,-27.9833,39.05,13.0
549,Pacifica,52.39,90.0,7.0,5380420.0,US,-122.4869,37.6138,75.0
550,Northam,55.53,75.0,17.87,2641434.0,GB,-4.2167,51.0333,17.0
551,Rio Grande,56.89,72.0,6.08,3451138.0,BR,-52.0986,-32.035,92.0
552,Gejiu,78.67,42.0,7.54,1810240.0,CN,103.1635,23.306,69.0
553,Opuwo,67.98,20.0,5.77,3354077.0,NA,13.84,-18.0607,2.0
554,La Ronge,61.05,72.0,6.91,6050066.0,CA,-105.2842,55.1001,75.0
555,Yazykovo,78.28,46.0,17.27,468483.0,RU,56.1353,55.2199,87.0
556,Batticaloa,88.77,64.0,10.04,1250161.0,LK,81.6924,7.7102,22.0
557,Khasan,64.13,60.0,5.68,2039557.0,RU,130.6434,42.4308,34.0
558,Kattivākkam,93.07,76.0,17.54,1267433.0,IN,80.3167,13.2167,6.0
559,Arrondissement de Saint-Denis,62.53,72.0,13.8,2980915.0,FR,2.3333,48.9167,0.0
560,Ende,78.98,79.0,6.11,1644932.0,ID,121.6623,-8.8432,57.0
561,Harlingen,73.74,93.0,5.75,4696233.0,US,-97.6961,26.1906,0.0
562,Zhicheng,80.49,75.0,5.57,1784554.0,CN,111.5047,30.2956,93.0
563,Havelock,65.07,90.0,5.75,4470244.0,US,-76.9013,34.8791,20.0
564,Madimba,83.19,58.0,10.78,878141.0,TZ,40.3333,-10.4,12.0
565,Pacific Grove,53.62,87.0,5.75,5380437.0,US,-121.9166,36.6177,100.0
566,Esim,82.62,77.0,6.91,2303611.0,GH,-2.2405,4.8699,96.0
567,Gorontalo,85.41,70.0,8.52,1643837.0,ID,123.0595,0.5412,61.0
568,Vaitape,82.38,75.0,17.36,4033077.0,PF,-151.75,-16.5167,17.0
569,Ottawa,57.09,56.0,10.36,6094817.0,CA,-75.6981,45.4112,0.0
570,Petropavl,80.58,34.0,4.47,1520172.0,KZ,69.1628,54.8753,0.0
571,Bossangoa,77.54,70.0,2.75,2388036.0,CF,17.4552,6.4926,100.0
572,Lavrentiya,32.45,89.0,4.47,4031637.0,RU,-171.0,65.5833,38.0
573,Muskegon,54.3,69.0,4.61,5003136.0,US,-86.1334,43.3,0.0
574,Lālmohan,92.12,50.0,3.62,1185251.0,BD,90.7419,22.3384,1.0
575,Gainesville,61.16,63.0,0.0,4156404.0,US,-82.3248,29.6516,0.0
